{
  "41d483b31de6": {
    "id": "41d483b31de6",
    "label": "6 IMP PETITE RUE, Beauvoir-en-Lyons",
    "lat": 49.502105,
    "lng": 1.582188,
    "transactions": [
      {
        "date": "2020-09-25",
        "priceEur": 186050,
        "typeLocal": "Maison",
        "surfaceM2": 151,
        "isVefa": false
      }
    ]
  },
  "fe0874f194c8": {
    "id": "fe0874f194c8",
    "label": "5204 LE BOURG, Beauvoir-en-Lyons",
    "lat": 49.503094,
    "lng": 1.586536,
    "transactions": [
      {
        "date": "2021-11-04",
        "priceEur": 75000,
        "typeLocal": "Maison",
        "surfaceM2": 148,
        "isVefa": false
      }
    ]
  },
  "1553161585aa": {
    "id": "1553161585aa",
    "label": "5198A LE BOURG, Beauvoir-en-Lyons",
    "lat": 49.503131,
    "lng": 1.588554,
    "transactions": [
      {
        "date": "2021-08-16",
        "priceEur": 40000,
        "typeLocal": "Maison",
        "surfaceM2": 30,
        "isVefa": false
      }
    ]
  },
  "91cbe1773744": {
    "id": "91cbe1773744",
    "label": "5077 LE BOURG, Beauvoir-en-Lyons",
    "lat": 49.502308,
    "lng": 1.586649,
    "transactions": [
      {
        "date": "2021-09-22",
        "priceEur": 160000,
        "typeLocal": "Maison",
        "surfaceM2": 135,
        "isVefa": false
      }
    ]
  },
  "016b04c83ce1": {
    "id": "016b04c83ce1",
    "label": "1 RTE DES MOULINS, Beauvoir-en-Lyons",
    "lat": 49.502219,
    "lng": 1.587535,
    "transactions": [
      {
        "date": "2023-05-10",
        "priceEur": 110000,
        "typeLocal": "Maison",
        "surfaceM2": 107,
        "isVefa": false
      }
    ]
  },
  "a39f16fe01e6": {
    "id": "a39f16fe01e6",
    "label": "9 RTE DES MOULINS, Beauvoir-en-Lyons",
    "lat": 49.501692,
    "lng": 1.588159,
    "transactions": [
      {
        "date": "2023-10-24",
        "priceEur": 295220,
        "typeLocal": "Maison",
        "surfaceM2": 150,
        "isVefa": false
      }
    ]
  },
  "f6696765cf0e": {
    "id": "f6696765cf0e",
    "label": "24 RUE DE L EGLISE, Beauvoir-en-Lyons",
    "lat": 49.502797,
    "lng": 1.589981,
    "transactions": [
      {
        "date": "2024-07-16",
        "priceEur": 140000,
        "typeLocal": "Maison",
        "surfaceM2": 66,
        "isVefa": false
      }
    ]
  },
  "7c5de52f378b": {
    "id": "7c5de52f378b",
    "label": "10 RUE DE L EGLISE, Beauvoir-en-Lyons",
    "lat": 49.503694,
    "lng": 1.587367,
    "transactions": [
      {
        "date": "2025-03-05",
        "priceEur": 98000,
        "typeLocal": "Maison",
        "surfaceM2": 115,
        "isVefa": false
      }
    ]
  }
}