{
  "aabf297c1c19": {
    "id": "aabf297c1c19",
    "label": "49 RUE DU PARADIS, Grand-Couronne",
    "lat": 49.33626,
    "lng": 1.014317,
    "transactions": [
      {
        "date": "2020-07-02",
        "priceEur": 325000,
        "typeLocal": "Maison",
        "surfaceM2": 118,
        "isVefa": false
      }
    ]
  },
  "4e59a17b509d": {
    "id": "4e59a17b509d",
    "label": "10 RUE DES STANDS, Grand-Couronne",
    "lat": 49.333747,
    "lng": 1.020229,
    "transactions": [
      {
        "date": "2020-10-19",
        "priceEur": 211000,
        "typeLocal": "Maison",
        "surfaceM2": 90,
        "isVefa": false
      }
    ]
  },
  "bf2d40068ceb": {
    "id": "bf2d40068ceb",
    "label": "33 RUE DU PAVILLON, Grand-Couronne",
    "lat": 49.333422,
    "lng": 1.019912,
    "transactions": [
      {
        "date": "2020-11-06",
        "priceEur": 260200,
        "typeLocal": "Maison",
        "surfaceM2": 109,
        "isVefa": false
      }
    ]
  },
  "19797eb07e5e": {
    "id": "19797eb07e5e",
    "label": "11 RUE DES GRANDS PRIX, Grand-Couronne",
    "lat": 49.336396,
    "lng": 1.021299,
    "transactions": [
      {
        "date": "2021-04-01",
        "priceEur": 278600,
        "typeLocal": "Maison",
        "surfaceM2": 115,
        "isVefa": false
      }
    ]
  },
  "7dddce4aee9e": {
    "id": "7dddce4aee9e",
    "label": "1 RUE DES GRANDS PRIX, Grand-Couronne",
    "lat": 49.335898,
    "lng": 1.021175,
    "transactions": [
      {
        "date": "2021-04-15",
        "priceEur": 448000,
        "typeLocal": "Maison",
        "surfaceM2": 170,
        "isVefa": false
      }
    ]
  },
  "ac2286415c8d": {
    "id": "ac2286415c8d",
    "label": "43 RUE DU PARADIS, Grand-Couronne",
    "lat": 49.336793,
    "lng": 1.014883,
    "transactions": [
      {
        "date": "2021-06-17",
        "priceEur": 379000,
        "typeLocal": "Maison",
        "surfaceM2": 150,
        "isVefa": false
      }
    ]
  },
  "beb9fc2ef27f": {
    "id": "beb9fc2ef27f",
    "label": "6 RUE DU CLOS SAMSON, Grand-Couronne",
    "lat": 49.335691,
    "lng": 1.020879,
    "transactions": [
      {
        "date": "2021-11-24",
        "priceEur": 334450,
        "typeLocal": "Maison",
        "surfaceM2": 140,
        "isVefa": false
      }
    ]
  },
  "561ab436cbde": {
    "id": "561ab436cbde",
    "label": "4 RUE DES STANDS, Grand-Couronne",
    "lat": 49.333626,
    "lng": 1.019738,
    "transactions": [
      {
        "date": "2022-03-24",
        "priceEur": 240000,
        "typeLocal": "Maison",
        "surfaceM2": 120,
        "isVefa": false
      }
    ]
  },
  "466a50882ad2": {
    "id": "466a50882ad2",
    "label": "7 RUE DES GRANDS PRIX, Grand-Couronne",
    "lat": 49.336022,
    "lng": 1.021625,
    "transactions": [
      {
        "date": "2023-12-28",
        "priceEur": 403750,
        "typeLocal": "Maison",
        "surfaceM2": 168,
        "isVefa": false
      }
    ]
  },
  "e3cd047e2887": {
    "id": "e3cd047e2887",
    "label": "6 RUE DES STANDS, Grand-Couronne",
    "lat": 49.333722,
    "lng": 1.019942,
    "transactions": [
      {
        "date": "2024-10-21",
        "priceEur": 228900,
        "typeLocal": "Maison",
        "surfaceM2": 81,
        "isVefa": false
      }
    ]
  },
  "08a3573ce8ea": {
    "id": "08a3573ce8ea",
    "label": "9001 RUE DU PARADIS, Grand-Couronne",
    "lat": 49.336907,
    "lng": 1.015955,
    "transactions": [
      {
        "date": "2025-04-16",
        "priceEur": 215500,
        "typeLocal": "Maison",
        "surfaceM2": 103,
        "isVefa": false
      }
    ]
  },
  "8a33cb3bcae4": {
    "id": "8a33cb3bcae4",
    "label": "6 RUE DU CIRCUIT, Grand-Couronne",
    "lat": 49.335992,
    "lng": 1.019629,
    "transactions": [
      {
        "date": "2025-05-26",
        "priceEur": 240000,
        "typeLocal": "Maison",
        "surfaceM2": 92,
        "isVefa": false
      }
    ]
  }
}