{
  "a53260c3bd22": {
    "id": "a53260c3bd22",
    "label": "390 RUE DES DIGITALES, Quiberville-sur-Mer",
    "lat": 49.902966,
    "lng": 0.916175,
    "transactions": [
      {
        "date": "2021-03-25",
        "priceEur": 214500,
        "typeLocal": "Maison",
        "surfaceM2": 110,
        "isVefa": false
      }
    ]
  },
  "5c1027e3fea5": {
    "id": "5c1027e3fea5",
    "label": "9001 RUE DES MESANGES, Quiberville-sur-Mer",
    "lat": 49.901933,
    "lng": 0.921703,
    "transactions": [
      {
        "date": "2021-04-17",
        "priceEur": 308350,
        "typeLocal": "Maison",
        "surfaceM2": 130,
        "isVefa": false
      }
    ]
  },
  "2114a6faafb6": {
    "id": "2114a6faafb6",
    "label": "98 RUE DES EGLANTINES, Quiberville-sur-Mer",
    "lat": 49.90255,
    "lng": 0.917795,
    "transactions": [
      {
        "date": "2021-05-12",
        "priceEur": 585000,
        "typeLocal": "Maison",
        "surfaceM2": 155,
        "isVefa": false
      }
    ]
  },
  "8a42e186ee07": {
    "id": "8a42e186ee07",
    "label": "84 RUE DES COQUELICOTS, Quiberville-sur-Mer",
    "lat": 49.902215,
    "lng": 0.919441,
    "transactions": [
      {
        "date": "2021-05-29",
        "priceEur": 310000,
        "typeLocal": "Maison",
        "surfaceM2": 112,
        "isVefa": false
      }
    ]
  },
  "c0678a772389": {
    "id": "c0678a772389",
    "label": "5380 RUE DES COQUELICOTS, Quiberville-sur-Mer",
    "lat": 49.902342,
    "lng": 0.918475,
    "transactions": [
      {
        "date": "2021-06-29",
        "priceEur": 100000,
        "typeLocal": "Maison",
        "surfaceM2": 35,
        "isVefa": false
      }
    ]
  },
  "4508ab99f910": {
    "id": "4508ab99f910",
    "label": "272 RUE DES ANEMONES, Quiberville-sur-Mer",
    "lat": 49.903554,
    "lng": 0.917459,
    "transactions": [
      {
        "date": "2022-01-14",
        "priceEur": 50000,
        "typeLocal": "Maison",
        "surfaceM2": 44,
        "isVefa": false
      }
    ]
  },
  "b6e769a14671": {
    "id": "b6e769a14671",
    "label": "166 RUE DES DIGITALES, Quiberville-sur-Mer",
    "lat": 49.902317,
    "lng": 0.917394,
    "transactions": [
      {
        "date": "2022-02-02",
        "priceEur": 215000,
        "typeLocal": "Maison",
        "surfaceM2": 64,
        "isVefa": false
      }
    ]
  },
  "7c144e598ff7": {
    "id": "7c144e598ff7",
    "label": "161 RUE DES COQUELICOTS, Quiberville-sur-Mer",
    "lat": 49.90295,
    "lng": 0.919515,
    "transactions": [
      {
        "date": "2022-07-25",
        "priceEur": 250000,
        "typeLocal": "Maison",
        "surfaceM2": 68,
        "isVefa": false
      }
    ]
  },
  "60824f8a26b0": {
    "id": "60824f8a26b0",
    "label": "734B RUE DE L EGLISE, Quiberville-sur-Mer",
    "lat": 49.902249,
    "lng": 0.921004,
    "transactions": [
      {
        "date": "2023-02-10",
        "priceEur": 306900,
        "typeLocal": "Maison",
        "surfaceM2": 70,
        "isVefa": false
      }
    ]
  },
  "dfd849985a16": {
    "id": "dfd849985a16",
    "label": "275 RUE DES DIGITALES, Quiberville-sur-Mer",
    "lat": 49.902634,
    "lng": 0.916144,
    "transactions": [
      {
        "date": "2024-08-21",
        "priceEur": 240000,
        "typeLocal": "Maison",
        "surfaceM2": 77,
        "isVefa": false
      }
    ]
  },
  "7a44954fd28c": {
    "id": "7a44954fd28c",
    "label": "26 CHE DES MOUETTES, Quiberville-sur-Mer",
    "lat": 49.902797,
    "lng": 0.922033,
    "transactions": [
      {
        "date": "2024-11-08",
        "priceEur": 468300,
        "typeLocal": "Maison",
        "surfaceM2": 102,
        "isVefa": false
      }
    ]
  },
  "ff805931da8f": {
    "id": "ff805931da8f",
    "label": "335 RUE DES ANEMONES, Quiberville-sur-Mer",
    "lat": 49.903082,
    "lng": 0.916905,
    "transactions": [
      {
        "date": "2024-11-21",
        "priceEur": 340000,
        "typeLocal": "Maison",
        "surfaceM2": 106,
        "isVefa": false
      }
    ]
  },
  "51e8aa3394cc": {
    "id": "51e8aa3394cc",
    "label": "178 RUE DES DIGITALES, Quiberville-sur-Mer",
    "lat": 49.902397,
    "lng": 0.91727,
    "transactions": [
      {
        "date": "2025-01-23",
        "priceEur": 560805,
        "typeLocal": "Maison",
        "surfaceM2": 8,
        "isVefa": false
      },
      {
        "date": "2025-01-23",
        "priceEur": 560805,
        "typeLocal": "Maison",
        "surfaceM2": 120,
        "isVefa": false
      }
    ]
  },
  "fc9f3a226b09": {
    "id": "fc9f3a226b09",
    "label": "112 RUE DES BRUYERES, Quiberville-sur-Mer",
    "lat": 49.903389,
    "lng": 0.920444,
    "transactions": [
      {
        "date": "2025-02-06",
        "priceEur": 252000,
        "typeLocal": "Maison",
        "surfaceM2": 82,
        "isVefa": false
      }
    ]
  },
  "64bd7968719c": {
    "id": "64bd7968719c",
    "label": "41 IMP DES JONCS MARINS, Quiberville-sur-Mer",
    "lat": 49.904123,
    "lng": 0.921452,
    "transactions": [
      {
        "date": "2025-06-04",
        "priceEur": 40000,
        "typeLocal": "Maison",
        "surfaceM2": 135,
        "isVefa": false
      }
    ]
  }
}