{
  "aad71fa320b7": {
    "id": "aad71fa320b7",
    "label": "1043 RTE DU PAULU, Saint-Pierre-de-Varengeville",
    "lat": 49.504214,
    "lng": 0.91752,
    "transactions": [
      {
        "date": "2020-07-28",
        "priceEur": 90000,
        "typeLocal": "Maison",
        "surfaceM2": 51,
        "isVefa": false
      }
    ]
  },
  "ed3762d19520": {
    "id": "ed3762d19520",
    "label": "200 RUE JEAN DE LA VARENDE, Saint-Pierre-de-Varengeville",
    "lat": 49.505724,
    "lng": 0.921463,
    "transactions": [
      {
        "date": "2020-09-11",
        "priceEur": 283100,
        "typeLocal": "Maison",
        "surfaceM2": 120,
        "isVefa": false
      }
    ]
  },
  "ecef5efa8b22": {
    "id": "ecef5efa8b22",
    "label": "330 SEN JASON, Saint-Pierre-de-Varengeville",
    "lat": 49.50656,
    "lng": 0.922754,
    "transactions": [
      {
        "date": "2020-10-01",
        "priceEur": 227000,
        "typeLocal": "Maison",
        "surfaceM2": 88,
        "isVefa": false
      }
    ]
  },
  "1c87f092b20c": {
    "id": "1c87f092b20c",
    "label": "139 RUE GUY DE MAUPASSANT, Saint-Pierre-de-Varengeville",
    "lat": 49.506851,
    "lng": 0.919118,
    "transactions": [
      {
        "date": "2020-11-17",
        "priceEur": 451000,
        "typeLocal": "Maison",
        "surfaceM2": 222,
        "isVefa": false
      }
    ]
  },
  "ac8385910094": {
    "id": "ac8385910094",
    "label": "91 RUE D HECTOT, Saint-Pierre-de-Varengeville",
    "lat": 49.504485,
    "lng": 0.922805,
    "transactions": [
      {
        "date": "2021-01-18",
        "priceEur": 235440,
        "typeLocal": "Maison",
        "surfaceM2": 67,
        "isVefa": false
      }
    ]
  },
  "3c06a68240b1": {
    "id": "3c06a68240b1",
    "label": "131 RUE GUY DE MAUPASSANT, Saint-Pierre-de-Varengeville",
    "lat": 49.506159,
    "lng": 0.919368,
    "transactions": [
      {
        "date": "2021-08-25",
        "priceEur": 334000,
        "typeLocal": "Maison",
        "surfaceM2": 130,
        "isVefa": false
      }
    ]
  },
  "e11154a22e04": {
    "id": "e11154a22e04",
    "label": "190 RUE GUY DE MAUPASSANT, Saint-Pierre-de-Varengeville",
    "lat": 49.505628,
    "lng": 0.920281,
    "transactions": [
      {
        "date": "2022-09-16",
        "priceEur": 215000,
        "typeLocal": "Maison",
        "surfaceM2": 87,
        "isVefa": false
      }
    ]
  },
  "5c6c455556bf": {
    "id": "5c6c455556bf",
    "label": "1040 RTE DU PAULU, Saint-Pierre-de-Varengeville",
    "lat": 49.504604,
    "lng": 0.917514,
    "transactions": [
      {
        "date": "2022-11-14",
        "priceEur": 240000,
        "typeLocal": "Maison",
        "surfaceM2": 95,
        "isVefa": false
      }
    ]
  },
  "e05bd62a2d52": {
    "id": "e05bd62a2d52",
    "label": "787 RTE DE L'AUSTREBERTHE, Saint-Pierre-de-Varengeville",
    "lat": 49.509528,
    "lng": 0.912658,
    "transactions": [
      {
        "date": "2024-03-28",
        "priceEur": 72000,
        "typeLocal": "Maison",
        "surfaceM2": 110,
        "isVefa": false
      },
      {
        "date": "2023-04-17",
        "priceEur": 68500,
        "typeLocal": "Maison",
        "surfaceM2": 110,
        "isVefa": false
      }
    ]
  },
  "610de0d2be16": {
    "id": "610de0d2be16",
    "label": "1025 RTE DU PAULU, Saint-Pierre-de-Varengeville",
    "lat": 49.504214,
    "lng": 0.917736,
    "transactions": [
      {
        "date": "2023-09-29",
        "priceEur": 102000,
        "typeLocal": "Maison",
        "surfaceM2": 51,
        "isVefa": false
      }
    ]
  },
  "4fae922fad74": {
    "id": "4fae922fad74",
    "label": "88 RUE JEAN DE LA VARENDE, Saint-Pierre-de-Varengeville",
    "lat": 49.504896,
    "lng": 0.920381,
    "transactions": [
      {
        "date": "2023-09-28",
        "priceEur": 255500,
        "typeLocal": "Maison",
        "surfaceM2": 122,
        "isVefa": false
      }
    ]
  },
  "4b83ceb42ecc": {
    "id": "4b83ceb42ecc",
    "label": "143 RUE GUY DE MAUPASSANT, Saint-Pierre-de-Varengeville",
    "lat": 49.505754,
    "lng": 0.91925,
    "transactions": [
      {
        "date": "2024-07-18",
        "priceEur": 235000,
        "typeLocal": "Maison",
        "surfaceM2": 75,
        "isVefa": false
      }
    ]
  }
}