{
  "d296eb422d34": {
    "id": "d296eb422d34",
    "label": "2 CHE DES VIGNES, Campagnan",
    "lat": 43.535282,
    "lng": 3.499645,
    "transactions": [
      {
        "date": "2022-01-25",
        "priceEur": 270283,
        "typeLocal": "Maison",
        "surfaceM2": 60,
        "isVefa": false
      },
      {
        "date": "2020-07-10",
        "priceEur": 229000,
        "typeLocal": "Maison",
        "surfaceM2": 60,
        "isVefa": false
      }
    ]
  },
  "04cce3339279": {
    "id": "04cce3339279",
    "label": "717 AV DE ST PARGOIRE, Campagnan",
    "lat": 43.537883,
    "lng": 3.496062,
    "transactions": [
      {
        "date": "2023-06-30",
        "priceEur": 260000,
        "typeLocal": "Appartement",
        "surfaceM2": 50,
        "isVefa": false
      },
      {
        "date": "2020-09-16",
        "priceEur": 101850,
        "typeLocal": "Appartement",
        "surfaceM2": 85,
        "isVefa": false
      }
    ]
  },
  "7ee44895e8e8": {
    "id": "7ee44895e8e8",
    "label": "80 CHE DES AUBERGUETS, Campagnan",
    "lat": 43.53631,
    "lng": 3.501798,
    "transactions": [
      {
        "date": "2022-07-25",
        "priceEur": 372000,
        "typeLocal": "Maison",
        "surfaceM2": 112,
        "isVefa": false
      },
      {
        "date": "2020-09-24",
        "priceEur": 348000,
        "typeLocal": "Maison",
        "surfaceM2": 112,
        "isVefa": false
      }
    ]
  },
  "e1ce2613e39f": {
    "id": "e1ce2613e39f",
    "label": "5 RUE DES ECOLES, Campagnan",
    "lat": 43.536227,
    "lng": 3.499027,
    "transactions": [
      {
        "date": "2020-09-25",
        "priceEur": 207400,
        "typeLocal": "Maison",
        "surfaceM2": 83,
        "isVefa": false
      }
    ]
  },
  "c1ade24dc09d": {
    "id": "c1ade24dc09d",
    "label": "9 RUE LES PLATANES, Campagnan",
    "lat": 43.534439,
    "lng": 3.500219,
    "transactions": [
      {
        "date": "2020-09-28",
        "priceEur": 275950,
        "typeLocal": "Maison",
        "surfaceM2": 139,
        "isVefa": false
      }
    ]
  },
  "72c8ecaba08f": {
    "id": "72c8ecaba08f",
    "label": "5113 LE VILLAGE, Campagnan",
    "lat": 43.537915,
    "lng": 3.498299,
    "transactions": [
      {
        "date": "2020-11-23",
        "priceEur": 93280,
        "typeLocal": "Maison",
        "surfaceM2": 90,
        "isVefa": false
      }
    ]
  },
  "3bf5fcad4bb4": {
    "id": "3bf5fcad4bb4",
    "label": "5023 LE VILLAGE, Campagnan",
    "lat": 43.539047,
    "lng": 3.496436,
    "transactions": [
      {
        "date": "2020-12-15",
        "priceEur": 173000,
        "typeLocal": "Maison",
        "surfaceM2": 65,
        "isVefa": false
      },
      {
        "date": "2020-12-15",
        "priceEur": 173000,
        "typeLocal": "Maison",
        "surfaceM2": 65,
        "isVefa": false
      }
    ]
  },
  "6c5ee430d15f": {
    "id": "6c5ee430d15f",
    "label": "3 RUE DE L EGLISE, Campagnan",
    "lat": 43.537084,
    "lng": 3.499441,
    "transactions": [
      {
        "date": "2022-05-04",
        "priceEur": 128400,
        "typeLocal": "Maison",
        "surfaceM2": 120,
        "isVefa": false
      },
      {
        "date": "2020-12-16",
        "priceEur": 120000,
        "typeLocal": "Maison",
        "surfaceM2": 120,
        "isVefa": false
      }
    ]
  },
  "179e6720ca81": {
    "id": "179e6720ca81",
    "label": "21 CHE DU MAS D AFFRE, Campagnan",
    "lat": 43.538944,
    "lng": 3.499983,
    "transactions": [
      {
        "date": "2023-09-11",
        "priceEur": 399000,
        "typeLocal": "Maison",
        "surfaceM2": 120,
        "isVefa": false
      },
      {
        "date": "2023-09-11",
        "priceEur": 399000,
        "typeLocal": "Maison",
        "surfaceM2": 120,
        "isVefa": false
      },
      {
        "date": "2021-01-05",
        "priceEur": 323500,
        "typeLocal": "Maison",
        "surfaceM2": 120,
        "isVefa": false
      },
      {
        "date": "2021-01-05",
        "priceEur": 323500,
        "typeLocal": "Maison",
        "surfaceM2": 120,
        "isVefa": false
      }
    ]
  },
  "ccba4a344281": {
    "id": "ccba4a344281",
    "label": "4 PL DE LA FONTAINE, Campagnan",
    "lat": 43.537815,
    "lng": 3.498055,
    "transactions": [
      {
        "date": "2021-02-18",
        "priceEur": 100000,
        "typeLocal": "Maison",
        "surfaceM2": 140,
        "isVefa": false
      }
    ]
  },
  "d51692771219": {
    "id": "d51692771219",
    "label": "239 AV DE ST PARGOIRE, Campagnan",
    "lat": 43.534267,
    "lng": 3.499663,
    "transactions": [
      {
        "date": "2021-03-23",
        "priceEur": 495100,
        "typeLocal": "Maison",
        "surfaceM2": 132,
        "isVefa": false
      },
      {
        "date": "2021-03-23",
        "priceEur": 495100,
        "typeLocal": "Maison",
        "surfaceM2": 132,
        "isVefa": false
      }
    ]
  },
  "8bcaecd2ab84": {
    "id": "8bcaecd2ab84",
    "label": "5 RUE BEL AIR, Campagnan",
    "lat": 43.537402,
    "lng": 3.498547,
    "transactions": [
      {
        "date": "2021-06-01",
        "priceEur": 221000,
        "typeLocal": "Maison",
        "surfaceM2": 102,
        "isVefa": false
      }
    ]
  },
  "31c43ee3b09d": {
    "id": "31c43ee3b09d",
    "label": "8 RUE DE LA CALADE, Campagnan",
    "lat": 43.537952,
    "lng": 3.497527,
    "transactions": [
      {
        "date": "2021-06-12",
        "priceEur": 95000,
        "typeLocal": "Appartement",
        "surfaceM2": 31,
        "isVefa": false
      }
    ]
  },
  "3d05c18d30b1": {
    "id": "3d05c18d30b1",
    "label": "9780 CHE DES TRABESSES, Campagnan",
    "lat": 43.535866,
    "lng": 3.501587,
    "transactions": [
      {
        "date": "2021-06-25",
        "priceEur": 425000,
        "typeLocal": "Maison",
        "surfaceM2": 220,
        "isVefa": false
      },
      {
        "date": "2021-06-25",
        "priceEur": 425000,
        "typeLocal": "Maison",
        "surfaceM2": 220,
        "isVefa": false
      }
    ]
  },
  "500717282653": {
    "id": "500717282653",
    "label": "2 QUAI LE TROU, Campagnan",
    "lat": 43.537213,
    "lng": 3.497915,
    "transactions": [
      {
        "date": "2021-08-02",
        "priceEur": 112000,
        "typeLocal": "Maison",
        "surfaceM2": 63,
        "isVefa": false
      }
    ]
  },
  "841e675dfe6f": {
    "id": "841e675dfe6f",
    "label": "112 CHE DES TRABESSES, Campagnan",
    "lat": 43.535376,
    "lng": 3.500582,
    "transactions": [
      {
        "date": "2021-08-12",
        "priceEur": 270000,
        "typeLocal": "Maison",
        "surfaceM2": 96,
        "isVefa": false
      },
      {
        "date": "2021-08-12",
        "priceEur": 270000,
        "typeLocal": "Maison",
        "surfaceM2": 96,
        "isVefa": false
      }
    ]
  },
  "08605d3bb0ba": {
    "id": "08605d3bb0ba",
    "label": "3 RUE DU GRIFFE, Campagnan",
    "lat": 43.537473,
    "lng": 3.498162,
    "transactions": [
      {
        "date": "2021-09-03",
        "priceEur": 108556.05,
        "typeLocal": "Maison",
        "surfaceM2": 41,
        "isVefa": false
      }
    ]
  },
  "8bf60d97652f": {
    "id": "8bf60d97652f",
    "label": "3B RUE DU GRIFFE, Campagnan",
    "lat": 43.537434,
    "lng": 3.498103,
    "transactions": [
      {
        "date": "2021-09-03",
        "priceEur": 108556.05,
        "typeLocal": "Appartement",
        "surfaceM2": 19,
        "isVefa": false
      }
    ]
  },
  "cd80080d3ea8": {
    "id": "cd80080d3ea8",
    "label": "2 RUE DU FOUR, Campagnan",
    "lat": 43.537454,
    "lng": 3.497758,
    "transactions": [
      {
        "date": "2021-09-09",
        "priceEur": 59000,
        "typeLocal": "Maison",
        "surfaceM2": 20,
        "isVefa": false
      }
    ]
  },
  "506448b2c98f": {
    "id": "506448b2c98f",
    "label": "4 PL DE LA VIEILLE EGLISE, Campagnan",
    "lat": 43.53766,
    "lng": 3.498258,
    "transactions": [
      {
        "date": "2024-06-12",
        "priceEur": 91000,
        "typeLocal": "Maison",
        "surfaceM2": 60,
        "isVefa": false
      },
      {
        "date": "2021-09-27",
        "priceEur": 90000,
        "typeLocal": "Maison",
        "surfaceM2": 60,
        "isVefa": false
      }
    ]
  },
  "838530763846": {
    "id": "838530763846",
    "label": "3 CLOS D'API, Campagnan",
    "lat": 43.536711,
    "lng": 3.498332,
    "transactions": [
      {
        "date": "2021-09-14",
        "priceEur": 274500,
        "typeLocal": "Maison",
        "surfaceM2": 85,
        "isVefa": false
      }
    ]
  },
  "df16a310d8bc": {
    "id": "df16a310d8bc",
    "label": "4 RUE DU FOUR, Campagnan",
    "lat": 43.537481,
    "lng": 3.497759,
    "transactions": [
      {
        "date": "2021-10-29",
        "priceEur": 207000,
        "typeLocal": "Maison",
        "surfaceM2": 115,
        "isVefa": false
      }
    ]
  },
  "bc96b2ae1b10": {
    "id": "bc96b2ae1b10",
    "label": "3 RUE LES GENETS, Campagnan",
    "lat": 43.537856,
    "lng": 3.500558,
    "transactions": [
      {
        "date": "2022-02-25",
        "priceEur": 242000,
        "typeLocal": "Maison",
        "surfaceM2": 58,
        "isVefa": false
      },
      {
        "date": "2022-02-25",
        "priceEur": 242000,
        "typeLocal": "Maison",
        "surfaceM2": 58,
        "isVefa": false
      }
    ]
  },
  "26d24042fe47": {
    "id": "26d24042fe47",
    "label": "2 RUE DES ECOLES, Campagnan",
    "lat": 43.535797,
    "lng": 3.499119,
    "transactions": [
      {
        "date": "2022-03-10",
        "priceEur": 400000,
        "typeLocal": "Maison",
        "surfaceM2": 77,
        "isVefa": false
      },
      {
        "date": "2022-03-10",
        "priceEur": 400000,
        "typeLocal": "Maison",
        "surfaceM2": 77,
        "isVefa": false
      }
    ]
  },
  "cbb23b0a4ba8": {
    "id": "cbb23b0a4ba8",
    "label": "7 AV DE ST PARGOIRE, Campagnan",
    "lat": 43.537169,
    "lng": 3.496307,
    "transactions": [
      {
        "date": "2022-05-19",
        "priceEur": 262000,
        "typeLocal": "Maison",
        "surfaceM2": 101,
        "isVefa": false
      }
    ]
  },
  "9ee48d2a3f67": {
    "id": "9ee48d2a3f67",
    "label": "128 CHE DE LA TOURELLE, Campagnan",
    "lat": 43.53901,
    "lng": 3.498076,
    "transactions": [
      {
        "date": "2025-03-06",
        "priceEur": 230000,
        "typeLocal": "Maison",
        "surfaceM2": 87,
        "isVefa": false
      },
      {
        "date": "2025-03-06",
        "priceEur": 230000,
        "typeLocal": "Maison",
        "surfaceM2": 87,
        "isVefa": false
      },
      {
        "date": "2022-06-24",
        "priceEur": 262600,
        "typeLocal": "Maison",
        "surfaceM2": 87,
        "isVefa": false
      },
      {
        "date": "2022-06-24",
        "priceEur": 262600,
        "typeLocal": "Maison",
        "surfaceM2": 87,
        "isVefa": false
      }
    ]
  },
  "b547b4b00e83": {
    "id": "b547b4b00e83",
    "label": "89 AV DE PAULHAN, Campagnan",
    "lat": 43.538353,
    "lng": 3.495776,
    "transactions": [
      {
        "date": "2022-07-01",
        "priceEur": 305200,
        "typeLocal": "Maison",
        "surfaceM2": 88,
        "isVefa": false
      }
    ]
  },
  "63e879ee909b": {
    "id": "63e879ee909b",
    "label": "10 LOT PLEIN SOLEIL, Campagnan",
    "lat": 43.539182,
    "lng": 3.494688,
    "transactions": [
      {
        "date": "2022-08-26",
        "priceEur": 231000,
        "typeLocal": "Maison",
        "surfaceM2": 89,
        "isVefa": false
      }
    ]
  },
  "375ee2da50ad": {
    "id": "375ee2da50ad",
    "label": "5 RUE DE LA GARE, Campagnan",
    "lat": 43.537597,
    "lng": 3.497145,
    "transactions": [
      {
        "date": "2022-09-21",
        "priceEur": 389300,
        "typeLocal": "Maison",
        "surfaceM2": 100,
        "isVefa": false
      }
    ]
  },
  "fb20e326cae3": {
    "id": "fb20e326cae3",
    "label": "36 CHE DE L'ESPIRE, Campagnan",
    "lat": 43.533392,
    "lng": 3.501915,
    "transactions": [
      {
        "date": "2022-09-26",
        "priceEur": 315000,
        "typeLocal": "Maison",
        "surfaceM2": 90,
        "isVefa": false
      }
    ]
  },
  "7640afc1ac48": {
    "id": "7640afc1ac48",
    "label": "1 PL DE LA FONTAINE, Campagnan",
    "lat": 43.537529,
    "lng": 3.497845,
    "transactions": [
      {
        "date": "2022-09-19",
        "priceEur": 218500,
        "typeLocal": "Maison",
        "surfaceM2": 117,
        "isVefa": false
      }
    ]
  },
  "40ae079555ac": {
    "id": "40ae079555ac",
    "label": "495 CHE DES AUBERGUETS, Campagnan",
    "lat": 43.537838,
    "lng": 3.501579,
    "transactions": [
      {
        "date": "2022-09-30",
        "priceEur": 423000,
        "typeLocal": "Maison",
        "surfaceM2": 100,
        "isVefa": false
      }
    ]
  },
  "8b499f43ced7": {
    "id": "8b499f43ced7",
    "label": "231 CHEMIN DE SAINT PONS, Campagnan",
    "lat": 43.533489,
    "lng": 3.4997,
    "transactions": [
      {
        "date": "2022-09-30",
        "priceEur": 810250,
        "typeLocal": "Maison",
        "surfaceM2": 52,
        "isVefa": false
      }
    ]
  },
  "0f8bef25c4c0": {
    "id": "0f8bef25c4c0",
    "label": "247 CHEMIN DE SAINT PONS, Campagnan",
    "lat": 43.533152,
    "lng": 3.499758,
    "transactions": [
      {
        "date": "2022-09-30",
        "priceEur": 810250,
        "typeLocal": "Maison",
        "surfaceM2": 172,
        "isVefa": false
      },
      {
        "date": "2022-09-30",
        "priceEur": 810250,
        "typeLocal": "Maison",
        "surfaceM2": 172,
        "isVefa": false
      }
    ]
  },
  "ed989e5322e0": {
    "id": "ed989e5322e0",
    "label": "9 PL DE LA FONTAINE, Campagnan",
    "lat": 43.537871,
    "lng": 3.497779,
    "transactions": [
      {
        "date": "2022-12-22",
        "priceEur": 110000,
        "typeLocal": "Maison",
        "surfaceM2": 50,
        "isVefa": false
      }
    ]
  },
  "d951ca9c18df": {
    "id": "d951ca9c18df",
    "label": "6 RUE DES TAMARIS, Campagnan",
    "lat": 43.537306,
    "lng": 3.50054,
    "transactions": [
      {
        "date": "2022-12-23",
        "priceEur": 398500,
        "typeLocal": "Maison",
        "surfaceM2": 123,
        "isVefa": false
      },
      {
        "date": "2022-12-23",
        "priceEur": 398500,
        "typeLocal": "Maison",
        "surfaceM2": 123,
        "isVefa": false
      }
    ]
  },
  "e14611338836": {
    "id": "e14611338836",
    "label": "3 CHE DES PARROS, Campagnan",
    "lat": 43.539726,
    "lng": 3.496536,
    "transactions": [
      {
        "date": "2023-01-27",
        "priceEur": 240700,
        "typeLocal": "Maison",
        "surfaceM2": 88,
        "isVefa": false
      }
    ]
  },
  "5c58710c73a1": {
    "id": "5c58710c73a1",
    "label": "6 PL DU JEU DE BALLON, Campagnan",
    "lat": 43.537796,
    "lng": 3.498415,
    "transactions": [
      {
        "date": "2023-03-27",
        "priceEur": 73000,
        "typeLocal": "Maison",
        "surfaceM2": 119,
        "isVefa": false
      }
    ]
  },
  "9e4591e56fa5": {
    "id": "9e4591e56fa5",
    "label": "726 AV DE ST PARGOIRE, Campagnan",
    "lat": 43.537825,
    "lng": 3.496506,
    "transactions": [
      {
        "date": "2025-04-03",
        "priceEur": 234900,
        "typeLocal": "Appartement",
        "surfaceM2": 102,
        "isVefa": false
      },
      {
        "date": "2023-03-21",
        "priceEur": 320000,
        "typeLocal": "Maison",
        "surfaceM2": 404,
        "isVefa": false
      }
    ]
  },
  "ec3fb5043fe1": {
    "id": "ec3fb5043fe1",
    "label": "11 PL DE LA FONTAINE, Campagnan",
    "lat": 43.537903,
    "lng": 3.49781,
    "transactions": [
      {
        "date": "2023-03-31",
        "priceEur": 162536,
        "typeLocal": "Maison",
        "surfaceM2": 84,
        "isVefa": false
      }
    ]
  },
  "5867bdffb666": {
    "id": "5867bdffb666",
    "label": "723 AV DE ST PARGOIRE, Campagnan",
    "lat": 43.537806,
    "lng": 3.495899,
    "transactions": [
      {
        "date": "2023-06-30",
        "priceEur": 260000,
        "typeLocal": "Maison",
        "surfaceM2": 92,
        "isVefa": false
      }
    ]
  },
  "33d7d5fd1732": {
    "id": "33d7d5fd1732",
    "label": "9 RUE DU FOUR, Campagnan",
    "lat": 43.537642,
    "lng": 3.497513,
    "transactions": [
      {
        "date": "2023-08-16",
        "priceEur": 175000,
        "typeLocal": "Maison",
        "surfaceM2": 50,
        "isVefa": false
      }
    ]
  },
  "d6cc939d0c60": {
    "id": "d6cc939d0c60",
    "label": "3 CLOS LES MIMOSAS, Campagnan",
    "lat": 43.535274,
    "lng": 3.500082,
    "transactions": [
      {
        "date": "2024-02-06",
        "priceEur": 255000,
        "typeLocal": "Maison",
        "surfaceM2": 106,
        "isVefa": false
      }
    ]
  },
  "68f095a52c26": {
    "id": "68f095a52c26",
    "label": "332 CHE DES TRABESSES, Campagnan",
    "lat": 43.534061,
    "lng": 3.501798,
    "transactions": [
      {
        "date": "2024-03-23",
        "priceEur": 34000,
        "typeLocal": "Maison",
        "surfaceM2": 135,
        "isVefa": false
      },
      {
        "date": "2024-03-23",
        "priceEur": 34000,
        "typeLocal": "Maison",
        "surfaceM2": 135,
        "isVefa": false
      },
      {
        "date": "2024-03-23",
        "priceEur": 34000,
        "typeLocal": "Maison",
        "surfaceM2": 135,
        "isVefa": false
      }
    ]
  },
  "f1ea399a4231": {
    "id": "f1ea399a4231",
    "label": "1B CHE DES PARROS, Campagnan",
    "lat": 43.539288,
    "lng": 3.496157,
    "transactions": [
      {
        "date": "2024-03-21",
        "priceEur": 300050,
        "typeLocal": "Maison",
        "surfaceM2": 134,
        "isVefa": false
      },
      {
        "date": "2024-03-21",
        "priceEur": 300050,
        "typeLocal": "Maison",
        "surfaceM2": 134,
        "isVefa": false
      }
    ]
  },
  "e6bce4ae63fb": {
    "id": "e6bce4ae63fb",
    "label": "5671 TRABESSES, Campagnan",
    "lat": 43.536604,
    "lng": 3.501681,
    "transactions": [
      {
        "date": "2024-04-25",
        "priceEur": 237700,
        "typeLocal": "Maison",
        "surfaceM2": 95,
        "isVefa": false
      }
    ]
  },
  "02a469067a4f": {
    "id": "02a469067a4f",
    "label": "5579F CHE DES AUBERGUETS, Campagnan",
    "lat": 43.536701,
    "lng": 3.502423,
    "transactions": [
      {
        "date": "2024-06-25",
        "priceEur": 60000,
        "typeLocal": "Maison",
        "surfaceM2": 118,
        "isVefa": false
      }
    ]
  },
  "2ad342fb1e01": {
    "id": "2ad342fb1e01",
    "label": "94 CHE DES AUBERGUETS, Campagnan",
    "lat": 43.536038,
    "lng": 3.501816,
    "transactions": [
      {
        "date": "2024-08-05",
        "priceEur": 290595,
        "typeLocal": "Maison",
        "surfaceM2": 128,
        "isVefa": false
      }
    ]
  },
  "ee20f137df70": {
    "id": "ee20f137df70",
    "label": "7 RUE DE L ANCIEN PRESBYTERE, Campagnan",
    "lat": 43.538086,
    "lng": 3.49793,
    "transactions": [
      {
        "date": "2024-10-15",
        "priceEur": 75000,
        "typeLocal": "Appartement",
        "surfaceM2": 123,
        "isVefa": false
      },
      {
        "date": "2024-10-15",
        "priceEur": 75000,
        "typeLocal": "Appartement",
        "surfaceM2": 20,
        "isVefa": false
      }
    ]
  },
  "83b2157a1528": {
    "id": "83b2157a1528",
    "label": "6 RUE JANY, Campagnan",
    "lat": 43.537103,
    "lng": 3.501646,
    "transactions": [
      {
        "date": "2024-11-08",
        "priceEur": 379780,
        "typeLocal": "Maison",
        "surfaceM2": 131,
        "isVefa": false
      }
    ]
  },
  "758b9c706371": {
    "id": "758b9c706371",
    "label": "267 AV DE BELARGA, Campagnan",
    "lat": 43.538652,
    "lng": 3.49642,
    "transactions": [
      {
        "date": "2025-02-07",
        "priceEur": 415000,
        "typeLocal": "Maison",
        "surfaceM2": 157,
        "isVefa": false
      }
    ]
  },
  "fb6cf300cc61": {
    "id": "fb6cf300cc61",
    "label": "11 CHE DES AUBERGUETS, Campagnan",
    "lat": 43.536519,
    "lng": 3.500568,
    "transactions": [
      {
        "date": "2025-03-14",
        "priceEur": 210000,
        "typeLocal": "Maison",
        "surfaceM2": 77,
        "isVefa": false
      }
    ]
  },
  "eb0596590d8e": {
    "id": "eb0596590d8e",
    "label": "9 RUE DE L EGLISE, Campagnan",
    "lat": 43.537502,
    "lng": 3.498772,
    "transactions": [
      {
        "date": "2025-03-19",
        "priceEur": 143000,
        "typeLocal": "Maison",
        "surfaceM2": 100,
        "isVefa": false
      }
    ]
  },
  "31c7806aed8a": {
    "id": "31c7806aed8a",
    "label": "98 CHE DES AUBERGUETS, Campagnan",
    "lat": 43.535859,
    "lng": 3.502166,
    "transactions": [
      {
        "date": "2025-03-27",
        "priceEur": 150000,
        "typeLocal": "Maison",
        "surfaceM2": 73,
        "isVefa": false
      },
      {
        "date": "2025-03-27",
        "priceEur": 150000,
        "typeLocal": "Maison",
        "surfaceM2": 73,
        "isVefa": false
      }
    ]
  },
  "8c31de5048a0": {
    "id": "8c31de5048a0",
    "label": "1 RUE LES GENETS, Campagnan",
    "lat": 43.53757,
    "lng": 3.500281,
    "transactions": [
      {
        "date": "2025-04-18",
        "priceEur": 350000,
        "typeLocal": "Maison",
        "surfaceM2": 132,
        "isVefa": false
      },
      {
        "date": "2025-04-18",
        "priceEur": 350000,
        "typeLocal": "Maison",
        "surfaceM2": 132,
        "isVefa": false
      }
    ]
  },
  "8f5507506623": {
    "id": "8f5507506623",
    "label": "22 AV DE ST PARGOIRE, Campagnan",
    "lat": 43.53741,
    "lng": 3.497105,
    "transactions": [
      {
        "date": "2025-06-03",
        "priceEur": 205000,
        "typeLocal": "Maison",
        "surfaceM2": 33,
        "isVefa": false
      },
      {
        "date": "2025-06-03",
        "priceEur": 205000,
        "typeLocal": "Maison",
        "surfaceM2": 158,
        "isVefa": false
      }
    ]
  }
}