{
  "87b61133f028": {
    "id": "87b61133f028",
    "label": "9 RUE DES HAUTS DE PINET, Pinet",
    "lat": 43.404185,
    "lng": 3.49878,
    "transactions": [
      {
        "date": "2023-05-12",
        "priceEur": 303000,
        "typeLocal": "Maison",
        "surfaceM2": 84,
        "isVefa": false
      },
      {
        "date": "2020-07-31",
        "priceEur": 215000,
        "typeLocal": "Maison",
        "surfaceM2": 84,
        "isVefa": false
      }
    ]
  },
  "ddfa0be74542": {
    "id": "ddfa0be74542",
    "label": "30 CHE DE FLORENSAC, Pinet",
    "lat": 43.404522,
    "lng": 3.504298,
    "transactions": [
      {
        "date": "2023-08-21",
        "priceEur": 275500,
        "typeLocal": "Maison",
        "surfaceM2": 80,
        "isVefa": false
      },
      {
        "date": "2023-08-21",
        "priceEur": 275500,
        "typeLocal": "Maison",
        "surfaceM2": 80,
        "isVefa": false
      },
      {
        "date": "2020-08-28",
        "priceEur": 251465,
        "typeLocal": "Maison",
        "surfaceM2": 80,
        "isVefa": false
      },
      {
        "date": "2020-08-28",
        "priceEur": 251465,
        "typeLocal": "Maison",
        "surfaceM2": 80,
        "isVefa": false
      }
    ]
  },
  "b14495fc3608": {
    "id": "b14495fc3608",
    "label": "3 CHE DES FOIRES, Pinet",
    "lat": 43.402881,
    "lng": 3.500465,
    "transactions": [
      {
        "date": "2024-08-30",
        "priceEur": 413300,
        "typeLocal": "Maison",
        "surfaceM2": 107,
        "isVefa": false
      },
      {
        "date": "2021-01-25",
        "priceEur": 252000,
        "typeLocal": "Maison",
        "surfaceM2": 107,
        "isVefa": false
      }
    ]
  },
  "20c23ba47782": {
    "id": "20c23ba47782",
    "label": "12 RUE DES HAUTS DE PINET, Pinet",
    "lat": 43.403925,
    "lng": 3.498944,
    "transactions": [
      {
        "date": "2021-06-16",
        "priceEur": 310500,
        "typeLocal": "Maison",
        "surfaceM2": 120,
        "isVefa": false
      }
    ]
  },
  "7e39ae5a65d5": {
    "id": "7e39ae5a65d5",
    "label": "12 RUE H ET P THOUY, Pinet",
    "lat": 43.404776,
    "lng": 3.499493,
    "transactions": [
      {
        "date": "2021-12-20",
        "priceEur": 224000,
        "typeLocal": "Maison",
        "surfaceM2": 72,
        "isVefa": false
      }
    ]
  },
  "75d08b45e464": {
    "id": "75d08b45e464",
    "label": "3 CHE DE MONTAGNAC, Pinet",
    "lat": 43.404993,
    "lng": 3.498803,
    "transactions": [
      {
        "date": "2022-01-07",
        "priceEur": 1000,
        "typeLocal": "Maison",
        "surfaceM2": 124,
        "isVefa": false
      },
      {
        "date": "2022-01-07",
        "priceEur": 1000,
        "typeLocal": "Maison",
        "surfaceM2": 48,
        "isVefa": false
      }
    ]
  },
  "7b85af51579e": {
    "id": "7b85af51579e",
    "label": "20 RUE DES HAUTS DE PINET, Pinet",
    "lat": 43.404449,
    "lng": 3.499278,
    "transactions": [
      {
        "date": "2022-02-28",
        "priceEur": 316882,
        "typeLocal": "Maison",
        "surfaceM2": 123,
        "isVefa": false
      }
    ]
  },
  "718dbb53b034": {
    "id": "718dbb53b034",
    "label": "4 RUE DES HAUTS DE PINET, Pinet",
    "lat": 43.403904,
    "lng": 3.498271,
    "transactions": [
      {
        "date": "2022-07-29",
        "priceEur": 334500,
        "typeLocal": "Maison",
        "surfaceM2": 101,
        "isVefa": false
      }
    ]
  },
  "980c8a965ce0": {
    "id": "980c8a965ce0",
    "label": "1 RUE DES HAUTS DE PINET, Pinet",
    "lat": 43.404154,
    "lng": 3.49816,
    "transactions": [
      {
        "date": "2022-09-01",
        "priceEur": 318461,
        "typeLocal": "Maison",
        "surfaceM2": 89,
        "isVefa": false
      }
    ]
  },
  "fa033f5137c8": {
    "id": "fa033f5137c8",
    "label": "5 CHE DES FOIRES, Pinet",
    "lat": 43.402923,
    "lng": 3.500817,
    "transactions": [
      {
        "date": "2024-08-29",
        "priceEur": 196000,
        "typeLocal": "Maison",
        "surfaceM2": 110,
        "isVefa": false
      }
    ]
  },
  "911fe6f46ab5": {
    "id": "911fe6f46ab5",
    "label": "23 RUE H ET P THOUY, Pinet",
    "lat": 43.404985,
    "lng": 3.497444,
    "transactions": [
      {
        "date": "2025-01-17",
        "priceEur": 242700,
        "typeLocal": "Maison",
        "surfaceM2": 70,
        "isVefa": false
      }
    ]
  },
  "54c041dd8e91": {
    "id": "54c041dd8e91",
    "label": "5 CHE AMIROU, Pinet",
    "lat": 43.402732,
    "lng": 3.504013,
    "transactions": [
      {
        "date": "2025-05-28",
        "priceEur": 416000,
        "typeLocal": "Maison",
        "surfaceM2": 108,
        "isVefa": false
      },
      {
        "date": "2025-05-28",
        "priceEur": 416000,
        "typeLocal": "Maison",
        "surfaceM2": 108,
        "isVefa": false
      }
    ]
  }
}