{
  "f50222e59dbb": {
    "id": "f50222e59dbb",
    "label": "363 RUE DE SAINT AMAND, Douai",
    "lat": 50.395993,
    "lng": 3.135064,
    "transactions": [
      {
        "date": "2020-07-03",
        "priceEur": 585000,
        "typeLocal": "Maison",
        "surfaceM2": 230,
        "isVefa": false
      }
    ]
  },
  "e33c40c514a7": {
    "id": "e33c40c514a7",
    "label": "373 RUE DE SAINT AMAND, Douai",
    "lat": 50.395662,
    "lng": 3.135056,
    "transactions": [
      {
        "date": "2020-08-20",
        "priceEur": 409200,
        "typeLocal": "Maison",
        "surfaceM2": 162,
        "isVefa": false
      }
    ]
  },
  "9261e79915db": {
    "id": "9261e79915db",
    "label": "225 RUE DE GIVET, Douai",
    "lat": 50.397312,
    "lng": 3.132077,
    "transactions": [
      {
        "date": "2021-06-02",
        "priceEur": 165000,
        "typeLocal": "Maison",
        "surfaceM2": 87,
        "isVefa": false
      }
    ]
  },
  "0b5c41807547": {
    "id": "0b5c41807547",
    "label": "285 RUE D ANHIERS, Douai",
    "lat": 50.398511,
    "lng": 3.13271,
    "transactions": [
      {
        "date": "2021-10-08",
        "priceEur": 170000,
        "typeLocal": "Appartement",
        "surfaceM2": 52,
        "isVefa": false
      },
      {
        "date": "2021-10-08",
        "priceEur": 170000,
        "typeLocal": "Maison",
        "surfaceM2": 64,
        "isVefa": false
      }
    ]
  },
  "e4bc969e5d7d": {
    "id": "e4bc969e5d7d",
    "label": "75 RUE DE LA FOSSE BERNARD, Douai",
    "lat": 50.39781,
    "lng": 3.131433,
    "transactions": [
      {
        "date": "2024-04-30",
        "priceEur": 205000,
        "typeLocal": "Maison",
        "surfaceM2": 96,
        "isVefa": false
      },
      {
        "date": "2022-01-26",
        "priceEur": 210000,
        "typeLocal": "Maison",
        "surfaceM2": 96,
        "isVefa": false
      }
    ]
  },
  "be40c75625e1": {
    "id": "be40c75625e1",
    "label": "225 RUE D ANHIERS, Douai",
    "lat": 50.398618,
    "lng": 3.131971,
    "transactions": [
      {
        "date": "2022-06-24",
        "priceEur": 285000,
        "typeLocal": "Maison",
        "surfaceM2": 98,
        "isVefa": false
      }
    ]
  },
  "cae8d8b95c32": {
    "id": "cae8d8b95c32",
    "label": "230 RUE D ANHIERS, Douai",
    "lat": 50.398112,
    "lng": 3.131672,
    "transactions": [
      {
        "date": "2022-09-14",
        "priceEur": 208000,
        "typeLocal": "Maison",
        "surfaceM2": 105,
        "isVefa": false
      }
    ]
  },
  "8cc08990ace2": {
    "id": "8cc08990ace2",
    "label": "202 RUE DE LUNEVILLE, Douai",
    "lat": 50.395572,
    "lng": 3.132168,
    "transactions": [
      {
        "date": "2022-12-26",
        "priceEur": 107300,
        "typeLocal": "Maison",
        "surfaceM2": 74,
        "isVefa": false
      }
    ]
  },
  "e7994bdca38e": {
    "id": "e7994bdca38e",
    "label": "13 RUE LOUIS CHAPPUY, Douai",
    "lat": 50.39483,
    "lng": 3.132652,
    "transactions": [
      {
        "date": "2023-07-11",
        "priceEur": 88350,
        "typeLocal": "Maison",
        "surfaceM2": 57,
        "isVefa": false
      }
    ]
  },
  "83a042693dc8": {
    "id": "83a042693dc8",
    "label": "261 RUE DE LUNEVILLE, Douai",
    "lat": 50.39597,
    "lng": 3.132852,
    "transactions": [
      {
        "date": "2023-10-05",
        "priceEur": 86800,
        "typeLocal": "Maison",
        "surfaceM2": 56,
        "isVefa": false
      }
    ]
  },
  "1c82757e1b3b": {
    "id": "1c82757e1b3b",
    "label": "113 RUE DE MULHOUSE, Douai",
    "lat": 50.396266,
    "lng": 3.136479,
    "transactions": [
      {
        "date": "2024-03-21",
        "priceEur": 172800,
        "typeLocal": "Maison",
        "surfaceM2": 83,
        "isVefa": false
      }
    ]
  },
  "a13ff1aff683": {
    "id": "a13ff1aff683",
    "label": "206 RUE HENRI BARBUSSE, Sin-le-Noble",
    "lat": 50.394562,
    "lng": 3.140769,
    "transactions": [
      {
        "date": "2024-04-19",
        "priceEur": 267000,
        "typeLocal": "Maison",
        "surfaceM2": 156,
        "isVefa": false
      }
    ]
  },
  "8588049fcfb8": {
    "id": "8588049fcfb8",
    "label": "230 RUE HENRI BARBUSSE, Sin-le-Noble",
    "lat": 50.394619,
    "lng": 3.140549,
    "transactions": [
      {
        "date": "2024-08-27",
        "priceEur": 109000,
        "typeLocal": "Maison",
        "surfaceM2": 100,
        "isVefa": false
      }
    ]
  },
  "972fb6523dca": {
    "id": "972fb6523dca",
    "label": "187 RUE D ANHIERS, Douai",
    "lat": 50.398587,
    "lng": 3.131281,
    "transactions": [
      {
        "date": "2025-04-09",
        "priceEur": 195400,
        "typeLocal": "Maison",
        "surfaceM2": 152,
        "isVefa": false
      }
    ]
  }
}