{
  "7d05aae360b1": {
    "id": "7d05aae360b1",
    "label": "1 RUE DES POSTES, Ribécourt-la-Tour",
    "lat": 50.108158,
    "lng": 3.132712,
    "transactions": [
      {
        "date": "2020-10-07",
        "priceEur": 143000,
        "typeLocal": "Maison",
        "surfaceM2": 170,
        "isVefa": false
      }
    ]
  },
  "f1308d494d91": {
    "id": "f1308d494d91",
    "label": "22 RUE DE MARCOING, Ribécourt-la-Tour",
    "lat": 50.112537,
    "lng": 3.132815,
    "transactions": [
      {
        "date": "2021-11-15",
        "priceEur": 81500,
        "typeLocal": "Maison",
        "surfaceM2": 121,
        "isVefa": false
      }
    ]
  },
  "7b442bc93e2a": {
    "id": "7b442bc93e2a",
    "label": "16 RUE DE MARCOING, Ribécourt-la-Tour",
    "lat": 50.11191,
    "lng": 3.131532,
    "transactions": [
      {
        "date": "2022-11-10",
        "priceEur": 290900,
        "typeLocal": "Maison",
        "surfaceM2": 186,
        "isVefa": false
      }
    ]
  },
  "e7546c9d1522": {
    "id": "e7546c9d1522",
    "label": "26 RUE DE MARCOING, Ribécourt-la-Tour",
    "lat": 50.112665,
    "lng": 3.134093,
    "transactions": [
      {
        "date": "2023-01-17",
        "priceEur": 90000,
        "typeLocal": "Maison",
        "surfaceM2": 120,
        "isVefa": false
      }
    ]
  },
  "94f7ad7103d1": {
    "id": "94f7ad7103d1",
    "label": "17 RUE DE MARCOING, Ribécourt-la-Tour",
    "lat": 50.112767,
    "lng": 3.131877,
    "transactions": [
      {
        "date": "2023-07-18",
        "priceEur": 140000,
        "typeLocal": "Maison",
        "surfaceM2": 99,
        "isVefa": false
      }
    ]
  },
  "5801c1c98085": {
    "id": "5801c1c98085",
    "label": "22B RUE DE MARCOING, Ribécourt-la-Tour",
    "lat": 50.112337,
    "lng": 3.13343,
    "transactions": [
      {
        "date": "2023-07-17",
        "priceEur": 171850,
        "typeLocal": "Maison",
        "surfaceM2": 73,
        "isVefa": false
      }
    ]
  },
  "3e296b0fa14e": {
    "id": "3e296b0fa14e",
    "label": "7B RUE D EN BAS, Ribécourt-la-Tour",
    "lat": 50.111064,
    "lng": 3.132592,
    "transactions": [
      {
        "date": "2024-03-11",
        "priceEur": 174000,
        "typeLocal": "Appartement",
        "surfaceM2": 65,
        "isVefa": false
      },
      {
        "date": "2024-03-11",
        "priceEur": 174000,
        "typeLocal": "Appartement",
        "surfaceM2": 45,
        "isVefa": false
      },
      {
        "date": "2024-03-11",
        "priceEur": 174000,
        "typeLocal": "Appartement",
        "surfaceM2": 30,
        "isVefa": false
      }
    ]
  },
  "d0c3f1cfedee": {
    "id": "d0c3f1cfedee",
    "label": "22T RUE DE MARCOING, Ribécourt-la-Tour",
    "lat": 50.112254,
    "lng": 3.133899,
    "transactions": [
      {
        "date": "2024-10-12",
        "priceEur": 293000,
        "typeLocal": "Maison",
        "surfaceM2": 153,
        "isVefa": false
      }
    ]
  },
  "44e0af6d981a": {
    "id": "44e0af6d981a",
    "label": "3 IMP DE LA MEULEVILLE, Ribécourt-la-Tour",
    "lat": 50.109279,
    "lng": 3.132538,
    "transactions": [
      {
        "date": "2025-04-18",
        "priceEur": 100000,
        "typeLocal": "Maison",
        "surfaceM2": 187,
        "isVefa": false
      }
    ]
  }
}