{
  "c33ef1374f24": {
    "id": "c33ef1374f24",
    "label": "2655 AV DE PETITE SYNTHE, Dunkerque",
    "lat": 51.021162,
    "lng": 2.336139,
    "transactions": [
      {
        "date": "2020-07-23",
        "priceEur": 120000,
        "typeLocal": "Maison",
        "surfaceM2": 119,
        "isVefa": false
      }
    ]
  },
  "a7bf18c0aea3": {
    "id": "a7bf18c0aea3",
    "label": "14G ALL PAUL ELUARD ST POL, Dunkerque",
    "lat": 51.027237,
    "lng": 2.338215,
    "transactions": [
      {
        "date": "2023-07-06",
        "priceEur": 115000,
        "typeLocal": "Appartement",
        "surfaceM2": 76,
        "isVefa": false
      },
      {
        "date": "2020-07-31",
        "priceEur": 58000,
        "typeLocal": "Appartement",
        "surfaceM2": 85,
        "isVefa": false
      }
    ]
  },
  "299d4a091633": {
    "id": "299d4a091633",
    "label": "18I ALL PAUL ELUARD ST POL, Dunkerque",
    "lat": 51.027237,
    "lng": 2.338215,
    "transactions": [
      {
        "date": "2024-03-11",
        "priceEur": 85000,
        "typeLocal": "Appartement",
        "surfaceM2": 85,
        "isVefa": false
      },
      {
        "date": "2021-02-05",
        "priceEur": 85500,
        "typeLocal": "Appartement",
        "surfaceM2": 76,
        "isVefa": false
      },
      {
        "date": "2021-01-27",
        "priceEur": 48000,
        "typeLocal": "Appartement",
        "surfaceM2": 76,
        "isVefa": false
      },
      {
        "date": "2020-11-16",
        "priceEur": 69500,
        "typeLocal": "Appartement",
        "surfaceM2": 85,
        "isVefa": false
      },
      {
        "date": "2020-08-31",
        "priceEur": 64000,
        "typeLocal": "Appartement",
        "surfaceM2": 85,
        "isVefa": false
      }
    ]
  },
  "ebc71b943fc1": {
    "id": "ebc71b943fc1",
    "label": "438 RUE DE LA REPUBLIQUE ST POL, Dunkerque",
    "lat": 51.027405,
    "lng": 2.331576,
    "transactions": [
      {
        "date": "2020-09-09",
        "priceEur": 85000,
        "typeLocal": "Maison",
        "surfaceM2": 91,
        "isVefa": false
      }
    ]
  },
  "c74949082f22": {
    "id": "c74949082f22",
    "label": "461 RUE DE LA REPUBLIQUE ST POL, Dunkerque",
    "lat": 51.026713,
    "lng": 2.337296,
    "transactions": [
      {
        "date": "2020-10-06",
        "priceEur": 193000,
        "typeLocal": "Maison",
        "surfaceM2": 71,
        "isVefa": false
      }
    ]
  },
  "75be413da33d": {
    "id": "75be413da33d",
    "label": "1 RUE LAMARTINE ST POL, Dunkerque",
    "lat": 51.024295,
    "lng": 2.337816,
    "transactions": [
      {
        "date": "2024-09-26",
        "priceEur": 70000,
        "typeLocal": "Appartement",
        "surfaceM2": 48,
        "isVefa": false
      },
      {
        "date": "2024-04-15",
        "priceEur": 55100,
        "typeLocal": "Appartement",
        "surfaceM2": 36,
        "isVefa": false
      },
      {
        "date": "2021-02-22",
        "priceEur": 115900,
        "typeLocal": "Appartement",
        "surfaceM2": 91,
        "isVefa": false
      },
      {
        "date": "2020-10-29",
        "priceEur": 41500,
        "typeLocal": "Appartement",
        "surfaceM2": 36,
        "isVefa": false
      }
    ]
  },
  "25ddb2868c25": {
    "id": "25ddb2868c25",
    "label": "20 RUE FAVIER ST POL, Dunkerque",
    "lat": 51.02615,
    "lng": 2.333261,
    "transactions": [
      {
        "date": "2020-10-28",
        "priceEur": 180000,
        "typeLocal": "Maison",
        "surfaceM2": 114,
        "isVefa": false
      }
    ]
  },
  "9778bd9b9032": {
    "id": "9778bd9b9032",
    "label": "3 SQ DES CORMORANS ST POL, Dunkerque",
    "lat": 51.024163,
    "lng": 2.330701,
    "transactions": [
      {
        "date": "2020-11-06",
        "priceEur": 175000,
        "typeLocal": "Maison",
        "surfaceM2": 114,
        "isVefa": false
      }
    ]
  },
  "c3da6f69e3ef": {
    "id": "c3da6f69e3ef",
    "label": "16H ALL PAUL ELUARD ST POL, Dunkerque",
    "lat": 51.027237,
    "lng": 2.338215,
    "transactions": [
      {
        "date": "2023-02-27",
        "priceEur": 85565,
        "typeLocal": "Appartement",
        "surfaceM2": 85,
        "isVefa": false
      },
      {
        "date": "2022-02-03",
        "priceEur": 80000,
        "typeLocal": "Appartement",
        "surfaceM2": 85,
        "isVefa": false
      },
      {
        "date": "2020-11-09",
        "priceEur": 58500,
        "typeLocal": "Appartement",
        "surfaceM2": 76,
        "isVefa": false
      }
    ]
  },
  "e7312b117869": {
    "id": "e7312b117869",
    "label": "19 BD DE L AURORE ST POL, Dunkerque",
    "lat": 51.024295,
    "lng": 2.337816,
    "transactions": [
      {
        "date": "2024-12-31",
        "priceEur": 99600,
        "typeLocal": "Appartement",
        "surfaceM2": 71,
        "isVefa": false
      },
      {
        "date": "2024-06-03",
        "priceEur": 130000,
        "typeLocal": "Appartement",
        "surfaceM2": 86,
        "isVefa": false
      },
      {
        "date": "2024-04-18",
        "priceEur": 92000,
        "typeLocal": "Appartement",
        "surfaceM2": 73,
        "isVefa": false
      },
      {
        "date": "2024-02-26",
        "priceEur": 72000,
        "typeLocal": "Appartement",
        "surfaceM2": 72,
        "isVefa": false
      },
      {
        "date": "2023-06-01",
        "priceEur": 116100,
        "typeLocal": "Appartement",
        "surfaceM2": 68,
        "isVefa": false
      },
      {
        "date": "2022-10-03",
        "priceEur": 122000,
        "typeLocal": "Appartement",
        "surfaceM2": 86,
        "isVefa": false
      },
      {
        "date": "2022-05-02",
        "priceEur": 103500,
        "typeLocal": "Appartement",
        "surfaceM2": 71,
        "isVefa": false
      },
      {
        "date": "2020-11-09",
        "priceEur": 64500,
        "typeLocal": "Appartement",
        "surfaceM2": 73,
        "isVefa": false
      }
    ]
  },
  "9ef86fb1b309": {
    "id": "9ef86fb1b309",
    "label": "473 RUE DE LA REPUBLIQUE ST POL, Dunkerque",
    "lat": 51.026679,
    "lng": 2.336425,
    "transactions": [
      {
        "date": "2020-11-24",
        "priceEur": 453000,
        "typeLocal": "Maison",
        "surfaceM2": 233,
        "isVefa": false
      }
    ]
  },
  "88e3c8547596": {
    "id": "88e3c8547596",
    "label": "66 RUE DES FAUVETTES ST POL, Dunkerque",
    "lat": 51.025732,
    "lng": 2.332809,
    "transactions": [
      {
        "date": "2020-11-27",
        "priceEur": 185000,
        "typeLocal": "Maison",
        "surfaceM2": 114,
        "isVefa": false
      }
    ]
  },
  "544ee79629c7": {
    "id": "544ee79629c7",
    "label": "12F ALL PAUL ELUARD ST POL, Dunkerque",
    "lat": 51.027237,
    "lng": 2.338215,
    "transactions": [
      {
        "date": "2024-10-31",
        "priceEur": 96500,
        "typeLocal": "Appartement",
        "surfaceM2": 85,
        "isVefa": false
      },
      {
        "date": "2023-11-30",
        "priceEur": 82500,
        "typeLocal": "Appartement",
        "surfaceM2": 85,
        "isVefa": false
      },
      {
        "date": "2023-06-29",
        "priceEur": 72000,
        "typeLocal": "Appartement",
        "surfaceM2": 85,
        "isVefa": false
      },
      {
        "date": "2021-09-24",
        "priceEur": 65500,
        "typeLocal": "Appartement",
        "surfaceM2": 85,
        "isVefa": false
      },
      {
        "date": "2020-12-23",
        "priceEur": 60000,
        "typeLocal": "Appartement",
        "surfaceM2": 85,
        "isVefa": false
      }
    ]
  },
  "ad003a96cff5": {
    "id": "ad003a96cff5",
    "label": "2A ALL PAUL ELUARD ST POL, Dunkerque",
    "lat": 51.027237,
    "lng": 2.338215,
    "transactions": [
      {
        "date": "2021-01-08",
        "priceEur": 53000,
        "typeLocal": "Appartement",
        "surfaceM2": 59,
        "isVefa": false
      }
    ]
  },
  "a57b1f435d4b": {
    "id": "a57b1f435d4b",
    "label": "23 BD DE L AURORE ST POL, Dunkerque",
    "lat": 51.024295,
    "lng": 2.337816,
    "transactions": [
      {
        "date": "2024-10-23",
        "priceEur": 45000,
        "typeLocal": "Appartement",
        "surfaceM2": 32,
        "isVefa": false
      },
      {
        "date": "2024-09-23",
        "priceEur": 60400,
        "typeLocal": "Appartement",
        "surfaceM2": 64,
        "isVefa": false
      },
      {
        "date": "2024-06-24",
        "priceEur": 128400,
        "typeLocal": "Appartement",
        "surfaceM2": 84,
        "isVefa": false
      },
      {
        "date": "2024-06-14",
        "priceEur": 70062,
        "typeLocal": "Appartement",
        "surfaceM2": 55,
        "isVefa": false
      },
      {
        "date": "2023-05-31",
        "priceEur": 119500,
        "typeLocal": "Appartement",
        "surfaceM2": 84,
        "isVefa": false
      },
      {
        "date": "2022-03-23",
        "priceEur": 102000,
        "typeLocal": "Appartement",
        "surfaceM2": 85,
        "isVefa": false
      },
      {
        "date": "2021-09-09",
        "priceEur": 75000,
        "typeLocal": "Appartement",
        "surfaceM2": 84,
        "isVefa": false
      },
      {
        "date": "2021-02-05",
        "priceEur": 111000,
        "typeLocal": "Appartement",
        "surfaceM2": 85,
        "isVefa": false
      },
      {
        "date": "2021-01-15",
        "priceEur": 49100,
        "typeLocal": "Appartement",
        "surfaceM2": 55,
        "isVefa": false
      }
    ]
  },
  "ad97a4341599": {
    "id": "ad97a4341599",
    "label": "4 PL DES ALOUETTES ST POL, Dunkerque",
    "lat": 51.026068,
    "lng": 2.330755,
    "transactions": [
      {
        "date": "2021-01-15",
        "priceEur": 250000,
        "typeLocal": "Maison",
        "surfaceM2": 121,
        "isVefa": false
      }
    ]
  },
  "af2fa744f023": {
    "id": "af2fa744f023",
    "label": "2 PL DES LORIOTS ST POL, Dunkerque",
    "lat": 51.025885,
    "lng": 2.332415,
    "transactions": [
      {
        "date": "2021-02-15",
        "priceEur": 205000,
        "typeLocal": "Maison",
        "surfaceM2": 108,
        "isVefa": false
      }
    ]
  },
  "ab35d4ddb0a9": {
    "id": "ab35d4ddb0a9",
    "label": "459 RUE DE LA REPUBLIQUE ST POL, Dunkerque",
    "lat": 51.026714,
    "lng": 2.337374,
    "transactions": [
      {
        "date": "2021-03-02",
        "priceEur": 148300,
        "typeLocal": "Maison",
        "surfaceM2": 109,
        "isVefa": false
      }
    ]
  },
  "345dbe93fee5": {
    "id": "345dbe93fee5",
    "label": "1 RUE DES CANARIS ST POL, Dunkerque",
    "lat": 51.026637,
    "lng": 2.329472,
    "transactions": [
      {
        "date": "2021-04-28",
        "priceEur": 98000,
        "typeLocal": "Maison",
        "surfaceM2": 58,
        "isVefa": false
      }
    ]
  },
  "21e996d10ffa": {
    "id": "21e996d10ffa",
    "label": "8D ALL PAUL ELUARD ST POL, Dunkerque",
    "lat": 51.027237,
    "lng": 2.338215,
    "transactions": [
      {
        "date": "2024-08-26",
        "priceEur": 69800,
        "typeLocal": "Appartement",
        "surfaceM2": 59,
        "isVefa": false
      },
      {
        "date": "2024-07-02",
        "priceEur": 70000,
        "typeLocal": "Appartement",
        "surfaceM2": 59,
        "isVefa": false
      },
      {
        "date": "2021-06-24",
        "priceEur": 71300,
        "typeLocal": "Appartement",
        "surfaceM2": 59,
        "isVefa": false
      }
    ]
  },
  "4a1735c18451": {
    "id": "4a1735c18451",
    "label": "12 RUE DES FAISANS ST POL, Dunkerque",
    "lat": 51.026268,
    "lng": 2.329249,
    "transactions": [
      {
        "date": "2024-11-22",
        "priceEur": 142000,
        "typeLocal": "Maison",
        "surfaceM2": 58,
        "isVefa": false
      },
      {
        "date": "2021-07-02",
        "priceEur": 123000,
        "typeLocal": "Maison",
        "surfaceM2": 58,
        "isVefa": false
      }
    ]
  },
  "b8167ed1b784": {
    "id": "b8167ed1b784",
    "label": "7 RUE DES ROSSIGNOLS ST POL, Dunkerque",
    "lat": 51.026892,
    "lng": 2.329347,
    "transactions": [
      {
        "date": "2021-07-01",
        "priceEur": 170900,
        "typeLocal": "Maison",
        "surfaceM2": 80,
        "isVefa": false
      }
    ]
  },
  "23f9a14d75b0": {
    "id": "23f9a14d75b0",
    "label": "21 BD DE L AURORE ST POL, Dunkerque",
    "lat": 51.024295,
    "lng": 2.337816,
    "transactions": [
      {
        "date": "2025-01-10",
        "priceEur": 145000,
        "typeLocal": "Appartement",
        "surfaceM2": 69,
        "isVefa": false
      },
      {
        "date": "2024-02-09",
        "priceEur": 134000,
        "typeLocal": "Appartement",
        "surfaceM2": 87,
        "isVefa": false
      },
      {
        "date": "2023-12-19",
        "priceEur": 120000,
        "typeLocal": "Appartement",
        "surfaceM2": 84,
        "isVefa": false
      },
      {
        "date": "2021-12-06",
        "priceEur": 133000,
        "typeLocal": "Appartement",
        "surfaceM2": 87,
        "isVefa": false
      },
      {
        "date": "2021-10-14",
        "priceEur": 90000,
        "typeLocal": "Appartement",
        "surfaceM2": 87,
        "isVefa": false
      },
      {
        "date": "2021-07-30",
        "priceEur": 89000,
        "typeLocal": "Appartement",
        "surfaceM2": 87,
        "isVefa": false
      }
    ]
  },
  "7a515e675403": {
    "id": "7a515e675403",
    "label": "463 RUE DE LA REPUBLIQUE ST POL, Dunkerque",
    "lat": 51.026719,
    "lng": 2.3372,
    "transactions": [
      {
        "date": "2021-08-10",
        "priceEur": 120000,
        "typeLocal": "Maison",
        "surfaceM2": 113,
        "isVefa": false
      }
    ]
  },
  "8247fd627920": {
    "id": "8247fd627920",
    "label": "25 BD DE L AURORE ST POL, Dunkerque",
    "lat": 51.024295,
    "lng": 2.337816,
    "transactions": [
      {
        "date": "2024-05-17",
        "priceEur": 120000,
        "typeLocal": "Appartement",
        "surfaceM2": 105,
        "isVefa": false
      },
      {
        "date": "2023-04-11",
        "priceEur": 116000,
        "typeLocal": "Appartement",
        "surfaceM2": 84,
        "isVefa": false
      },
      {
        "date": "2022-09-29",
        "priceEur": 125000,
        "typeLocal": "Appartement",
        "surfaceM2": 104,
        "isVefa": false
      },
      {
        "date": "2022-07-08",
        "priceEur": 151050,
        "typeLocal": "Appartement",
        "surfaceM2": 101,
        "isVefa": false
      },
      {
        "date": "2021-08-05",
        "priceEur": 98200,
        "typeLocal": "Appartement",
        "surfaceM2": 97,
        "isVefa": false
      }
    ]
  },
  "7b5f9ac83cea": {
    "id": "7b5f9ac83cea",
    "label": "17 RUE GUSTAVE COURBET ST POL, Dunkerque",
    "lat": 51.026509,
    "lng": 2.330614,
    "transactions": [
      {
        "date": "2021-08-30",
        "priceEur": 152000,
        "typeLocal": "Maison",
        "surfaceM2": 100,
        "isVefa": false
      }
    ]
  },
  "76c303b3cc29": {
    "id": "76c303b3cc29",
    "label": "6 RUE DES CANARIS ST POL, Dunkerque",
    "lat": 51.026663,
    "lng": 2.330016,
    "transactions": [
      {
        "date": "2021-08-27",
        "priceEur": 95000,
        "typeLocal": "Maison",
        "surfaceM2": 75,
        "isVefa": false
      }
    ]
  },
  "37121eed162c": {
    "id": "37121eed162c",
    "label": "561 RUE DE LA REPUBLIQUE ST POL, Dunkerque",
    "lat": 51.026756,
    "lng": 2.332529,
    "transactions": [
      {
        "date": "2021-08-23",
        "priceEur": 173000,
        "typeLocal": "Maison",
        "surfaceM2": 113,
        "isVefa": false
      }
    ]
  },
  "abef1a56fbcd": {
    "id": "abef1a56fbcd",
    "label": "9 RUE DES CANARIS ST POL, Dunkerque",
    "lat": 51.026422,
    "lng": 2.329581,
    "transactions": [
      {
        "date": "2021-09-24",
        "priceEur": 115800,
        "typeLocal": "Maison",
        "surfaceM2": 58,
        "isVefa": false
      }
    ]
  },
  "2ff2c05fa497": {
    "id": "2ff2c05fa497",
    "label": "3 RUE GUSTAVE COURBET ST POL, Dunkerque",
    "lat": 51.026952,
    "lng": 2.330471,
    "transactions": [
      {
        "date": "2021-11-05",
        "priceEur": 135000,
        "typeLocal": "Maison",
        "surfaceM2": 84,
        "isVefa": false
      }
    ]
  },
  "8a1433c090a8": {
    "id": "8a1433c090a8",
    "label": "55 RUE DES PINSONS ST POL, Dunkerque",
    "lat": 51.025128,
    "lng": 2.331547,
    "transactions": [
      {
        "date": "2021-11-09",
        "priceEur": 211800,
        "typeLocal": "Maison",
        "surfaceM2": 97,
        "isVefa": false
      }
    ]
  },
  "2aedc01a64c8": {
    "id": "2aedc01a64c8",
    "label": "9 RUE LOUISE MICHEL ST POL, Dunkerque",
    "lat": 51.027551,
    "lng": 2.337313,
    "transactions": [
      {
        "date": "2022-01-14",
        "priceEur": 138000,
        "typeLocal": "Maison",
        "surfaceM2": 92,
        "isVefa": false
      }
    ]
  },
  "f37499bbaaf5": {
    "id": "f37499bbaaf5",
    "label": "26 RUE JEAN ZAY, Dunkerque",
    "lat": 51.021064,
    "lng": 2.336574,
    "transactions": [
      {
        "date": "2022-02-02",
        "priceEur": 220000,
        "typeLocal": "Maison",
        "surfaceM2": 117,
        "isVefa": false
      }
    ]
  },
  "9f6c1afd778d": {
    "id": "9f6c1afd778d",
    "label": "10E ALL PAUL ELUARD ST POL, Dunkerque",
    "lat": 51.027237,
    "lng": 2.338215,
    "transactions": [
      {
        "date": "2024-12-23",
        "priceEur": 95000,
        "typeLocal": "Appartement",
        "surfaceM2": 64,
        "isVefa": false
      },
      {
        "date": "2024-03-11",
        "priceEur": 65000,
        "typeLocal": "Appartement",
        "surfaceM2": 76,
        "isVefa": false
      },
      {
        "date": "2024-01-23",
        "priceEur": 72000,
        "typeLocal": "Appartement",
        "surfaceM2": 64,
        "isVefa": false
      },
      {
        "date": "2022-02-14",
        "priceEur": 62000,
        "typeLocal": "Appartement",
        "surfaceM2": 59,
        "isVefa": false
      }
    ]
  },
  "329449504d1e": {
    "id": "329449504d1e",
    "label": "427T RUE DE LA REPUBLIQUE ST POL, Dunkerque",
    "lat": 51.02684,
    "lng": 2.338737,
    "transactions": [
      {
        "date": "2025-03-17",
        "priceEur": 108000,
        "typeLocal": "Maison",
        "surfaceM2": 59,
        "isVefa": false
      },
      {
        "date": "2022-02-02",
        "priceEur": 96250,
        "typeLocal": "Maison",
        "surfaceM2": 59,
        "isVefa": false
      }
    ]
  },
  "e5997196c77d": {
    "id": "e5997196c77d",
    "label": "2551 AV DE PETITE SYNTHE, Dunkerque",
    "lat": 51.021509,
    "lng": 2.337519,
    "transactions": [
      {
        "date": "2022-02-22",
        "priceEur": 124100,
        "typeLocal": "Maison",
        "surfaceM2": 80,
        "isVefa": false
      }
    ]
  },
  "283e68d5eb1e": {
    "id": "283e68d5eb1e",
    "label": "12 RUE DES CANARIS ST POL, Dunkerque",
    "lat": 51.026519,
    "lng": 2.330129,
    "transactions": [
      {
        "date": "2022-02-14",
        "priceEur": 145000,
        "typeLocal": "Maison",
        "surfaceM2": 64,
        "isVefa": false
      }
    ]
  },
  "e5300551d87d": {
    "id": "e5300551d87d",
    "label": "440 RUE DE LA REPUBLIQUE ST POL, Dunkerque",
    "lat": 51.027415,
    "lng": 2.331491,
    "transactions": [
      {
        "date": "2022-04-14",
        "priceEur": 135000,
        "typeLocal": "Maison",
        "surfaceM2": 75,
        "isVefa": false
      }
    ]
  },
  "6857da24dd58": {
    "id": "6857da24dd58",
    "label": "9 RUE GUSTAVE COURBET ST POL, Dunkerque",
    "lat": 51.026767,
    "lng": 2.330541,
    "transactions": [
      {
        "date": "2022-05-12",
        "priceEur": 170400,
        "typeLocal": "Maison",
        "surfaceM2": 100,
        "isVefa": false
      }
    ]
  },
  "7f40128eb696": {
    "id": "7f40128eb696",
    "label": "432 RUE DE LA REPUBLIQUE ST POL, Dunkerque",
    "lat": 51.027426,
    "lng": 2.331883,
    "transactions": [
      {
        "date": "2022-05-19",
        "priceEur": 201840,
        "typeLocal": "Maison",
        "surfaceM2": 102,
        "isVefa": false
      }
    ]
  },
  "5dfb70f97bcb": {
    "id": "5dfb70f97bcb",
    "label": "65 RUE DES PINSONS ST POL, Dunkerque",
    "lat": 51.025413,
    "lng": 2.332485,
    "transactions": [
      {
        "date": "2022-05-18",
        "priceEur": 190000,
        "typeLocal": "Maison",
        "surfaceM2": 91,
        "isVefa": false
      }
    ]
  },
  "24094ca18b6c": {
    "id": "24094ca18b6c",
    "label": "6C ALL PAUL ELUARD ST POL, Dunkerque",
    "lat": 51.027237,
    "lng": 2.338215,
    "transactions": [
      {
        "date": "2024-09-04",
        "priceEur": 82700,
        "typeLocal": "Appartement",
        "surfaceM2": 59,
        "isVefa": false
      },
      {
        "date": "2022-05-24",
        "priceEur": 60000,
        "typeLocal": "Appartement",
        "surfaceM2": 76,
        "isVefa": false
      }
    ]
  },
  "c9a8de09ceb6": {
    "id": "c9a8de09ceb6",
    "label": "82 RUE DU MAL FOCH ST POL, Dunkerque",
    "lat": 51.0253,
    "lng": 2.336548,
    "transactions": [
      {
        "date": "2022-06-03",
        "priceEur": 162000,
        "typeLocal": "Maison",
        "surfaceM2": 169,
        "isVefa": false
      }
    ]
  },
  "eeaa401d244e": {
    "id": "eeaa401d244e",
    "label": "2697 AV DE PETITE SYNTHE, Dunkerque",
    "lat": 51.021036,
    "lng": 2.335565,
    "transactions": [
      {
        "date": "2022-06-14",
        "priceEur": 145000,
        "typeLocal": "Maison",
        "surfaceM2": 136,
        "isVefa": false
      }
    ]
  },
  "a683f09066d5": {
    "id": "a683f09066d5",
    "label": "64 RUE DU MAL FOCH ST POL, Dunkerque",
    "lat": 51.025564,
    "lng": 2.337253,
    "transactions": [
      {
        "date": "2024-05-30",
        "priceEur": 153150,
        "typeLocal": "Maison",
        "surfaceM2": 78,
        "isVefa": false
      },
      {
        "date": "2022-06-10",
        "priceEur": 125000,
        "typeLocal": "Maison",
        "surfaceM2": 78,
        "isVefa": false
      }
    ]
  },
  "5d0d55e3fc81": {
    "id": "5d0d55e3fc81",
    "label": "7 SQ DES CORMORANS ST POL, Dunkerque",
    "lat": 51.024282,
    "lng": 2.331339,
    "transactions": [
      {
        "date": "2022-06-22",
        "priceEur": 180000,
        "typeLocal": "Maison",
        "surfaceM2": 102,
        "isVefa": false
      }
    ]
  },
  "05136bf5f2d5": {
    "id": "05136bf5f2d5",
    "label": "14 RUE DES CANARIS ST POL, Dunkerque",
    "lat": 51.026441,
    "lng": 2.330131,
    "transactions": [
      {
        "date": "2022-06-25",
        "priceEur": 122000,
        "typeLocal": "Maison",
        "surfaceM2": 75,
        "isVefa": false
      }
    ]
  },
  "dcf632a910f2": {
    "id": "dcf632a910f2",
    "label": "2801 AV DE PETITE SYNTHE, Dunkerque",
    "lat": 51.0207,
    "lng": 2.334418,
    "transactions": [
      {
        "date": "2022-06-30",
        "priceEur": 165750,
        "typeLocal": "Maison",
        "surfaceM2": 70,
        "isVefa": false
      }
    ]
  },
  "e5fe64b30da6": {
    "id": "e5fe64b30da6",
    "label": "8 RUE DES FAISANS ST POL, Dunkerque",
    "lat": 51.026367,
    "lng": 2.329149,
    "transactions": [
      {
        "date": "2022-07-18",
        "priceEur": 170000,
        "typeLocal": "Maison",
        "surfaceM2": 58,
        "isVefa": false
      }
    ]
  },
  "332c5697aa90": {
    "id": "332c5697aa90",
    "label": "14 RUE DES FAISANS ST POL, Dunkerque",
    "lat": 51.026206,
    "lng": 2.329259,
    "transactions": [
      {
        "date": "2024-03-18",
        "priceEur": 165300,
        "typeLocal": "Maison",
        "surfaceM2": 67,
        "isVefa": false
      },
      {
        "date": "2022-08-05",
        "priceEur": 95000,
        "typeLocal": "Maison",
        "surfaceM2": 67,
        "isVefa": false
      }
    ]
  },
  "b4a24442446c": {
    "id": "b4a24442446c",
    "label": "71 RUE DU MAL FOCH ST POL, Dunkerque",
    "lat": 51.025095,
    "lng": 2.337514,
    "transactions": [
      {
        "date": "2022-09-02",
        "priceEur": 146000,
        "typeLocal": "Maison",
        "surfaceM2": 60,
        "isVefa": false
      }
    ]
  },
  "fa7eec7f86d2": {
    "id": "fa7eec7f86d2",
    "label": "427 RUE DE LA REPUBLIQUE ST POL, Dunkerque",
    "lat": 51.026857,
    "lng": 2.338832,
    "transactions": [
      {
        "date": "2022-08-16",
        "priceEur": 40000,
        "typeLocal": "Maison",
        "surfaceM2": 50,
        "isVefa": false
      }
    ]
  },
  "9de6e644ca93": {
    "id": "9de6e644ca93",
    "label": "63 RUE DES PINSONS ST POL, Dunkerque",
    "lat": 51.025358,
    "lng": 2.332379,
    "transactions": [
      {
        "date": "2025-03-10",
        "priceEur": 233500,
        "typeLocal": "Maison",
        "surfaceM2": 91,
        "isVefa": false
      },
      {
        "date": "2022-09-17",
        "priceEur": 182000,
        "typeLocal": "Maison",
        "surfaceM2": 91,
        "isVefa": false
      }
    ]
  },
  "c5cbd9fd2a4d": {
    "id": "c5cbd9fd2a4d",
    "label": "2491 AV DE PETITE SYNTHE, Dunkerque",
    "lat": 51.021549,
    "lng": 2.338452,
    "transactions": [
      {
        "date": "2022-12-15",
        "priceEur": 149650,
        "typeLocal": "Maison",
        "surfaceM2": 112,
        "isVefa": false
      }
    ]
  },
  "d5edfe4cc6ae": {
    "id": "d5edfe4cc6ae",
    "label": "66 RUE DU MAL FOCH ST POL, Dunkerque",
    "lat": 51.025536,
    "lng": 2.337168,
    "transactions": [
      {
        "date": "2022-12-28",
        "priceEur": 65000,
        "typeLocal": "Maison",
        "surfaceM2": 46,
        "isVefa": false
      }
    ]
  },
  "3d0b34d349c4": {
    "id": "3d0b34d349c4",
    "label": "3 PL DES SARCELLES ST POL, Dunkerque",
    "lat": 51.025724,
    "lng": 2.333415,
    "transactions": [
      {
        "date": "2023-01-03",
        "priceEur": 228000,
        "typeLocal": "Maison",
        "surfaceM2": 96,
        "isVefa": false
      }
    ]
  },
  "185fb0504a54": {
    "id": "185fb0504a54",
    "label": "73 RUE DU MAL FOCH ST POL, Dunkerque",
    "lat": 51.025057,
    "lng": 2.33745,
    "transactions": [
      {
        "date": "2023-01-16",
        "priceEur": 165000,
        "typeLocal": "Maison",
        "surfaceM2": 112,
        "isVefa": false
      }
    ]
  },
  "76c2071cbae9": {
    "id": "76c2071cbae9",
    "label": "2455 AV DE PETITE SYNTHE, Dunkerque",
    "lat": 51.021679,
    "lng": 2.338908,
    "transactions": [
      {
        "date": "2024-10-03",
        "priceEur": 194000,
        "typeLocal": "Maison",
        "surfaceM2": 96,
        "isVefa": false
      },
      {
        "date": "2023-02-08",
        "priceEur": 164017.5,
        "typeLocal": "Maison",
        "surfaceM2": 96,
        "isVefa": false
      }
    ]
  },
  "3ebf938538bf": {
    "id": "3ebf938538bf",
    "label": "16 RUE DES CANARIS ST POL, Dunkerque",
    "lat": 51.026392,
    "lng": 2.330163,
    "transactions": [
      {
        "date": "2023-04-24",
        "priceEur": 113000,
        "typeLocal": "Maison",
        "surfaceM2": 58,
        "isVefa": false
      }
    ]
  },
  "47b26840ac3a": {
    "id": "47b26840ac3a",
    "label": "2681 AV DE PETITE SYNTHE, Dunkerque",
    "lat": 51.021086,
    "lng": 2.335781,
    "transactions": [
      {
        "date": "2023-05-16",
        "priceEur": 172000,
        "typeLocal": "Maison",
        "surfaceM2": 128,
        "isVefa": false
      }
    ]
  },
  "997d8585db44": {
    "id": "997d8585db44",
    "label": "4 RUE JEAN ZAY, Dunkerque",
    "lat": 51.021232,
    "lng": 2.337281,
    "transactions": [
      {
        "date": "2023-07-06",
        "priceEur": 45000,
        "typeLocal": "Maison",
        "surfaceM2": 54,
        "isVefa": false
      }
    ]
  },
  "00c02444cd10": {
    "id": "00c02444cd10",
    "label": "4B ALL PAUL ELUARD ST POL, Dunkerque",
    "lat": 51.027237,
    "lng": 2.338215,
    "transactions": [
      {
        "date": "2023-07-27",
        "priceEur": 70000,
        "typeLocal": "Appartement",
        "surfaceM2": 59,
        "isVefa": false
      }
    ]
  },
  "0671a2647d19": {
    "id": "0671a2647d19",
    "label": "9 RUE DES ROSSIGNOLS ST POL, Dunkerque",
    "lat": 51.026873,
    "lng": 2.32922,
    "transactions": [
      {
        "date": "2023-07-28",
        "priceEur": 80000,
        "typeLocal": "Maison",
        "surfaceM2": 58,
        "isVefa": false
      }
    ]
  },
  "1bb173e49051": {
    "id": "1bb173e49051",
    "label": "30 RUE DES COLIBRIS ST POL, Dunkerque",
    "lat": 51.025954,
    "lng": 2.329833,
    "transactions": [
      {
        "date": "2023-08-16",
        "priceEur": 227500,
        "typeLocal": "Maison",
        "surfaceM2": 107,
        "isVefa": false
      }
    ]
  },
  "7e9d4dd6b048": {
    "id": "7e9d4dd6b048",
    "label": "2771 AV DE PETITE SYNTHE, Dunkerque",
    "lat": 51.020845,
    "lng": 2.334535,
    "transactions": [
      {
        "date": "2023-08-29",
        "priceEur": 114000,
        "typeLocal": "Maison",
        "surfaceM2": 71,
        "isVefa": false
      }
    ]
  },
  "f6c21261b7a2": {
    "id": "f6c21261b7a2",
    "label": "14 RUE DES ALBATROS ST POL, Dunkerque",
    "lat": 51.023691,
    "lng": 2.329773,
    "transactions": [
      {
        "date": "2023-09-06",
        "priceEur": 163000,
        "typeLocal": "Maison",
        "surfaceM2": 95,
        "isVefa": false
      }
    ]
  },
  "8b724410c1d1": {
    "id": "8b724410c1d1",
    "label": "15 RUE JEAN ZAY, Dunkerque",
    "lat": 51.021174,
    "lng": 2.337989,
    "transactions": [
      {
        "date": "2023-11-17",
        "priceEur": 97500,
        "typeLocal": "Maison",
        "surfaceM2": 88,
        "isVefa": false
      }
    ]
  },
  "9981f9c5410f": {
    "id": "9981f9c5410f",
    "label": "1B RUE DU MAL FOCH ST POL, Dunkerque",
    "lat": 51.026806,
    "lng": 2.339438,
    "transactions": [
      {
        "date": "2023-12-22",
        "priceEur": 140000,
        "typeLocal": "Maison",
        "surfaceM2": 120,
        "isVefa": false
      }
    ]
  },
  "ac06caac79e7": {
    "id": "ac06caac79e7",
    "label": "90 RUE DU MAL FOCH ST POL, Dunkerque",
    "lat": 51.02507,
    "lng": 2.336327,
    "transactions": [
      {
        "date": "2023-12-22",
        "priceEur": 136000,
        "typeLocal": "Maison",
        "surfaceM2": 105,
        "isVefa": false
      }
    ]
  },
  "2e8cceb9af00": {
    "id": "2e8cceb9af00",
    "label": "20J ALL PAUL ELUARD ST POL, Dunkerque",
    "lat": 51.027237,
    "lng": 2.338215,
    "transactions": [
      {
        "date": "2024-02-12",
        "priceEur": 80000,
        "typeLocal": "Appartement",
        "surfaceM2": 71,
        "isVefa": false
      }
    ]
  },
  "f932e7a2cc01": {
    "id": "f932e7a2cc01",
    "label": "62 RUE DU MAL FOCH ST POL, Dunkerque",
    "lat": 51.025629,
    "lng": 2.337511,
    "transactions": [
      {
        "date": "2024-05-07",
        "priceEur": 155300,
        "typeLocal": "Maison",
        "surfaceM2": 108,
        "isVefa": false
      }
    ]
  },
  "a8772681be04": {
    "id": "a8772681be04",
    "label": "2797 AV DE PETITE SYNTHE, Dunkerque",
    "lat": 51.020799,
    "lng": 2.3342,
    "transactions": [
      {
        "date": "2024-06-24",
        "priceEur": 105000,
        "typeLocal": "Maison",
        "surfaceM2": 92,
        "isVefa": false
      }
    ]
  },
  "fede1a1e146b": {
    "id": "fede1a1e146b",
    "label": "2705 AV DE PETITE SYNTHE, Dunkerque",
    "lat": 51.020988,
    "lng": 2.335474,
    "transactions": [
      {
        "date": "2024-09-06",
        "priceEur": 227050,
        "typeLocal": "Maison",
        "surfaceM2": 116,
        "isVefa": false
      }
    ]
  },
  "2cd3897a6217": {
    "id": "2cd3897a6217",
    "label": "21 RUE GUSTAVE COURBET ST POL, Dunkerque",
    "lat": 51.026373,
    "lng": 2.330621,
    "transactions": [
      {
        "date": "2024-12-04",
        "priceEur": 150000,
        "typeLocal": "Maison",
        "surfaceM2": 100,
        "isVefa": false
      }
    ]
  },
  "582fb63c5733": {
    "id": "582fb63c5733",
    "label": "6 AV EDMOND FLAMAND ST POL, Dunkerque",
    "lat": 51.027519,
    "lng": 2.337006,
    "transactions": [
      {
        "date": "2024-12-30",
        "priceEur": 122000,
        "typeLocal": "Maison",
        "surfaceM2": 82,
        "isVefa": false
      }
    ]
  },
  "bcb09fbd8a26": {
    "id": "bcb09fbd8a26",
    "label": "4 RUE DES PELICANS ST POL, Dunkerque",
    "lat": 51.023966,
    "lng": 2.329868,
    "transactions": [
      {
        "date": "2025-01-10",
        "priceEur": 242000,
        "typeLocal": "Maison",
        "surfaceM2": 95,
        "isVefa": false
      }
    ]
  },
  "95e68ddbe87e": {
    "id": "95e68ddbe87e",
    "label": "2779 AV DE PETITE SYNTHE, Dunkerque",
    "lat": 51.020835,
    "lng": 2.334443,
    "transactions": [
      {
        "date": "2025-01-09",
        "priceEur": 132400,
        "typeLocal": "Maison",
        "surfaceM2": 95,
        "isVefa": false
      }
    ]
  },
  "5b3463cd6a59": {
    "id": "5b3463cd6a59",
    "label": "25 RUE DES FAUVETTES ST POL, Dunkerque",
    "lat": 51.025904,
    "lng": 2.330088,
    "transactions": [
      {
        "date": "2025-01-14",
        "priceEur": 202170,
        "typeLocal": "Maison",
        "surfaceM2": 104,
        "isVefa": false
      }
    ]
  },
  "05063b0b5f2c": {
    "id": "05063b0b5f2c",
    "label": "2397 AV DE PETITE SYNTHE, Dunkerque",
    "lat": 51.021847,
    "lng": 2.339701,
    "transactions": [
      {
        "date": "2025-01-23",
        "priceEur": 151050,
        "typeLocal": "Maison",
        "surfaceM2": 78,
        "isVefa": false
      }
    ]
  },
  "eaba723a412a": {
    "id": "eaba723a412a",
    "label": "415 RUE DE LA REPUBLIQUE SAINT POL, Dunkerque",
    "lat": 51.026915,
    "lng": 2.339413,
    "transactions": [
      {
        "date": "2025-04-16",
        "priceEur": 240000,
        "typeLocal": "Appartement",
        "surfaceM2": 14,
        "isVefa": false
      },
      {
        "date": "2025-04-16",
        "priceEur": 240000,
        "typeLocal": "Appartement",
        "surfaceM2": 35,
        "isVefa": false
      },
      {
        "date": "2025-04-16",
        "priceEur": 240000,
        "typeLocal": "Appartement",
        "surfaceM2": 21,
        "isVefa": false
      },
      {
        "date": "2025-04-16",
        "priceEur": 240000,
        "typeLocal": "Appartement",
        "surfaceM2": 50,
        "isVefa": false
      },
      {
        "date": "2025-04-16",
        "priceEur": 240000,
        "typeLocal": "Appartement",
        "surfaceM2": 10,
        "isVefa": false
      },
      {
        "date": "2025-04-16",
        "priceEur": 240000,
        "typeLocal": "Appartement",
        "surfaceM2": 15,
        "isVefa": false
      }
    ]
  },
  "bdff120479db": {
    "id": "bdff120479db",
    "label": "25 BD DE L AURORE SAINT POL, Dunkerque",
    "lat": 51.024295,
    "lng": 2.337816,
    "transactions": [
      {
        "date": "2025-04-14",
        "priceEur": 136500,
        "typeLocal": "Appartement",
        "surfaceM2": 84,
        "isVefa": false
      }
    ]
  }
}