{
  "9e75473cad1a": {
    "id": "9e75473cad1a",
    "label": "5039 LE BOURG, Mathonville",
    "lat": 49.622323,
    "lng": 1.38767,
    "transactions": [
      {
        "date": "2020-07-07",
        "priceEur": 174000,
        "typeLocal": "Maison",
        "surfaceM2": 121,
        "isVefa": false
      }
    ]
  },
  "a1d4adbcaafa": {
    "id": "a1d4adbcaafa",
    "label": "30 IMP DU PONT, Mathonville",
    "lat": 49.621274,
    "lng": 1.38639,
    "transactions": [
      {
        "date": "2020-11-13",
        "priceEur": 198500,
        "typeLocal": "Maison",
        "surfaceM2": 103,
        "isVefa": false
      }
    ]
  },
  "aeda89039398": {
    "id": "aeda89039398",
    "label": "5087 LE BOURG, Mathonville",
    "lat": 49.620892,
    "lng": 1.385628,
    "transactions": [
      {
        "date": "2021-08-20",
        "priceEur": 80000,
        "typeLocal": "Maison",
        "surfaceM2": 119,
        "isVefa": false
      }
    ]
  },
  "bdc68bab41fb": {
    "id": "bdc68bab41fb",
    "label": "87 RUE CROIX CANIVET, Mathonville",
    "lat": 49.619532,
    "lng": 1.388369,
    "transactions": [
      {
        "date": "2022-03-16",
        "priceEur": 194000,
        "typeLocal": "Maison",
        "surfaceM2": 115,
        "isVefa": false
      }
    ]
  },
  "156611103b31": {
    "id": "156611103b31",
    "label": "5066 PLAINE VERS EQUINEMARE, Mathonville",
    "lat": 49.620829,
    "lng": 1.38988,
    "transactions": [
      {
        "date": "2023-02-17",
        "priceEur": 160000,
        "typeLocal": "Maison",
        "surfaceM2": 99,
        "isVefa": false
      }
    ]
  },
  "8e4112ded490": {
    "id": "8e4112ded490",
    "label": "40 RTE DE SAINT SAENS, Mathonville",
    "lat": 49.621598,
    "lng": 1.384468,
    "transactions": [
      {
        "date": "2024-02-12",
        "priceEur": 125000,
        "typeLocal": "Maison",
        "surfaceM2": 158,
        "isVefa": false
      }
    ]
  },
  "bc0655e2c004": {
    "id": "bc0655e2c004",
    "label": "90 IMP DU PONT, Mathonville",
    "lat": 49.622049,
    "lng": 1.386197,
    "transactions": [
      {
        "date": "2025-02-07",
        "priceEur": 209000,
        "typeLocal": "Maison",
        "surfaceM2": 141,
        "isVefa": false
      }
    ]
  },
  "dd88a5ff08aa": {
    "id": "dd88a5ff08aa",
    "label": "18 IMP DU PONT, Mathonville",
    "lat": 49.621561,
    "lng": 1.385752,
    "transactions": [
      {
        "date": "2025-04-22",
        "priceEur": 121000,
        "typeLocal": "Maison",
        "surfaceM2": 73,
        "isVefa": false
      }
    ]
  }
}