{
  "5b47147a472d": {
    "id": "5b47147a472d",
    "label": "13 RUE DU HOME, Grainville-la-Teinturière",
    "lat": 49.746406,
    "lng": 0.644153,
    "transactions": [
      {
        "date": "2020-11-06",
        "priceEur": 207000,
        "typeLocal": "Maison",
        "surfaceM2": 105,
        "isVefa": false
      }
    ]
  },
  "cc4b4a7734c2": {
    "id": "cc4b4a7734c2",
    "label": "19 PL DU MARCHE, Grainville-la-Teinturière",
    "lat": 49.7499,
    "lng": 0.640553,
    "transactions": [
      {
        "date": "2020-11-16",
        "priceEur": 70500,
        "typeLocal": "Maison",
        "surfaceM2": 65,
        "isVefa": false
      }
    ]
  },
  "7246ee1e5301": {
    "id": "7246ee1e5301",
    "label": "30 RUE DE L EGLISE, Grainville-la-Teinturière",
    "lat": 49.747583,
    "lng": 0.642351,
    "transactions": [
      {
        "date": "2020-12-17",
        "priceEur": 322000,
        "typeLocal": "Maison",
        "surfaceM2": 215,
        "isVefa": false
      }
    ]
  },
  "b3dafdcfb81c": {
    "id": "b3dafdcfb81c",
    "label": "13 RTE DE L AUBE RUE, Grainville-la-Teinturière",
    "lat": 49.749274,
    "lng": 0.638847,
    "transactions": [
      {
        "date": "2021-03-30",
        "priceEur": 25000,
        "typeLocal": "Maison",
        "surfaceM2": 30,
        "isVefa": false
      }
    ]
  },
  "740b2e255c25": {
    "id": "740b2e255c25",
    "label": "13 RUE GLATIGNY, Grainville-la-Teinturière",
    "lat": 49.747,
    "lng": 0.639454,
    "transactions": [
      {
        "date": "2021-06-08",
        "priceEur": 139200,
        "typeLocal": "Maison",
        "surfaceM2": 34,
        "isVefa": false
      }
    ]
  },
  "103cc0e74b09": {
    "id": "103cc0e74b09",
    "label": "5 RTE DE BOSVILLE, Grainville-la-Teinturière",
    "lat": 49.749371,
    "lng": 0.64464,
    "transactions": [
      {
        "date": "2021-08-31",
        "priceEur": 67000,
        "typeLocal": "Maison",
        "surfaceM2": 61,
        "isVefa": false
      }
    ]
  },
  "cee601a538b0": {
    "id": "cee601a538b0",
    "label": "25 RTE DE L AUBE RUE, Grainville-la-Teinturière",
    "lat": 49.749564,
    "lng": 0.637592,
    "transactions": [
      {
        "date": "2022-02-21",
        "priceEur": 63000,
        "typeLocal": "Maison",
        "surfaceM2": 60,
        "isVefa": false
      }
    ]
  },
  "a24b94af7aac": {
    "id": "a24b94af7aac",
    "label": "9 RUE MALPALU, Grainville-la-Teinturière",
    "lat": 49.74776,
    "lng": 0.645214,
    "transactions": [
      {
        "date": "2022-04-27",
        "priceEur": 220000,
        "typeLocal": "Maison",
        "surfaceM2": 138,
        "isVefa": false
      }
    ]
  },
  "1cca292aa33d": {
    "id": "1cca292aa33d",
    "label": "4 RUE DE BECDELIEVRE, Grainville-la-Teinturière",
    "lat": 49.748561,
    "lng": 0.638991,
    "transactions": [
      {
        "date": "2022-06-01",
        "priceEur": 139900,
        "typeLocal": "Maison",
        "surfaceM2": 90,
        "isVefa": false
      }
    ]
  },
  "871da04b0b1c": {
    "id": "871da04b0b1c",
    "label": "5 GRANDE RUE, Grainville-la-Teinturière",
    "lat": 49.74842,
    "lng": 0.642105,
    "transactions": [
      {
        "date": "2022-11-18",
        "priceEur": 77000,
        "typeLocal": "Maison",
        "surfaceM2": 70,
        "isVefa": false
      }
    ]
  },
  "30445f0c59de": {
    "id": "30445f0c59de",
    "label": "15 RUE MALPALU, Grainville-la-Teinturière",
    "lat": 49.747264,
    "lng": 0.645694,
    "transactions": [
      {
        "date": "2022-12-12",
        "priceEur": 139000,
        "typeLocal": "Maison",
        "surfaceM2": 86,
        "isVefa": false
      }
    ]
  },
  "a084ed1dfada": {
    "id": "a084ed1dfada",
    "label": "8 LOT LA VAUJOUETTE 1, Grainville-la-Teinturière",
    "lat": 49.750312,
    "lng": 0.645116,
    "transactions": [
      {
        "date": "2022-12-28",
        "priceEur": 132000,
        "typeLocal": "Maison",
        "surfaceM2": 94,
        "isVefa": false
      }
    ]
  },
  "224d7b021505": {
    "id": "224d7b021505",
    "label": "15 LE COLOMBIER, Grainville-la-Teinturière",
    "lat": 49.750685,
    "lng": 0.644058,
    "transactions": [
      {
        "date": "2023-02-14",
        "priceEur": 150000,
        "typeLocal": "Maison",
        "surfaceM2": 110,
        "isVefa": false
      }
    ]
  },
  "41575bafde6d": {
    "id": "41575bafde6d",
    "label": "19 RTE DE L AUBE RUE, Grainville-la-Teinturière",
    "lat": 49.74943,
    "lng": 0.638547,
    "transactions": [
      {
        "date": "2023-02-08",
        "priceEur": 115100,
        "typeLocal": "Maison",
        "surfaceM2": 77,
        "isVefa": false
      }
    ]
  },
  "b7b7779508cd": {
    "id": "b7b7779508cd",
    "label": "15 RTE DE BOSVILLE, Grainville-la-Teinturière",
    "lat": 49.749713,
    "lng": 0.645353,
    "transactions": [
      {
        "date": "2023-02-28",
        "priceEur": 74000,
        "typeLocal": "Maison",
        "surfaceM2": 61,
        "isVefa": false
      }
    ]
  },
  "c97827fb0163": {
    "id": "c97827fb0163",
    "label": "1 RUE FOIRE DE LA CHANDELEUR, Grainville-la-Teinturière",
    "lat": 49.74854,
    "lng": 0.641204,
    "transactions": [
      {
        "date": "2023-03-28",
        "priceEur": 92499,
        "typeLocal": "Maison",
        "surfaceM2": 57,
        "isVefa": false
      }
    ]
  },
  "b297d2205eb3": {
    "id": "b297d2205eb3",
    "label": "14 RUE GLATIGNY, Grainville-la-Teinturière",
    "lat": 49.747401,
    "lng": 0.638735,
    "transactions": [
      {
        "date": "2023-09-14",
        "priceEur": 80000,
        "typeLocal": "Maison",
        "surfaceM2": 68,
        "isVefa": false
      }
    ]
  },
  "7d732ced2f00": {
    "id": "7d732ced2f00",
    "label": "7 LOTISSEMENT LE HOME, Grainville-la-Teinturière",
    "lat": 49.745892,
    "lng": 0.644959,
    "transactions": [
      {
        "date": "2023-12-01",
        "priceEur": 164000,
        "typeLocal": "Maison",
        "surfaceM2": 84,
        "isVefa": false
      }
    ]
  },
  "043e68e9d3f4": {
    "id": "043e68e9d3f4",
    "label": "18 RTE DE L AUBE RUE, Grainville-la-Teinturière",
    "lat": 49.749645,
    "lng": 0.63816,
    "transactions": [
      {
        "date": "2024-04-22",
        "priceEur": 90000,
        "typeLocal": "Maison",
        "surfaceM2": 70,
        "isVefa": false
      },
      {
        "date": "2024-04-22",
        "priceEur": 90000,
        "typeLocal": "Maison",
        "surfaceM2": 135,
        "isVefa": false
      }
    ]
  },
  "ffb43dd3a933": {
    "id": "ffb43dd3a933",
    "label": "14 RUE DE LA COUR SOUVERAINE, Grainville-la-Teinturière",
    "lat": 49.747994,
    "lng": 0.646029,
    "transactions": [
      {
        "date": "2024-05-14",
        "priceEur": 260100,
        "typeLocal": "Maison",
        "surfaceM2": 110,
        "isVefa": false
      }
    ]
  },
  "4d66b4e11302": {
    "id": "4d66b4e11302",
    "label": "7 PL DU MARCHE, Grainville-la-Teinturière",
    "lat": 49.749618,
    "lng": 0.640149,
    "transactions": [
      {
        "date": "2024-07-11",
        "priceEur": 260000,
        "typeLocal": "Maison",
        "surfaceM2": 176,
        "isVefa": false
      }
    ]
  },
  "d3cffc0ba969": {
    "id": "d3cffc0ba969",
    "label": "3 RUE GLATIGNY, Grainville-la-Teinturière",
    "lat": 49.746713,
    "lng": 0.64061,
    "transactions": [
      {
        "date": "2024-08-28",
        "priceEur": 279350,
        "typeLocal": "Maison",
        "surfaceM2": 124,
        "isVefa": false
      }
    ]
  },
  "694dc220adeb": {
    "id": "694dc220adeb",
    "label": "1 RUE DE LA COUR SOUVERAINE, Grainville-la-Teinturière",
    "lat": 49.748945,
    "lng": 0.644777,
    "transactions": [
      {
        "date": "2024-09-09",
        "priceEur": 110000,
        "typeLocal": "Maison",
        "surfaceM2": 70,
        "isVefa": false
      }
    ]
  },
  "ca4f29716607": {
    "id": "ca4f29716607",
    "label": "18 RTE DE BOSVILLE, Grainville-la-Teinturière",
    "lat": 49.749557,
    "lng": 0.647397,
    "transactions": [
      {
        "date": "2024-09-27",
        "priceEur": 227000,
        "typeLocal": "Maison",
        "surfaceM2": 64,
        "isVefa": false
      }
    ]
  },
  "07d94589b5f8": {
    "id": "07d94589b5f8",
    "label": "5 RTE D YVETOT, Grainville-la-Teinturière",
    "lat": 49.747872,
    "lng": 0.644186,
    "transactions": [
      {
        "date": "2024-10-22",
        "priceEur": 164900,
        "typeLocal": "Maison",
        "surfaceM2": 90,
        "isVefa": false
      }
    ]
  },
  "2b30bd04b986": {
    "id": "2b30bd04b986",
    "label": "23 RTE D YVETOT, Grainville-la-Teinturière",
    "lat": 49.747147,
    "lng": 0.646785,
    "transactions": [
      {
        "date": "2024-12-19",
        "priceEur": 150000,
        "typeLocal": "Maison",
        "surfaceM2": 65,
        "isVefa": false
      }
    ]
  },
  "503d99b83a9a": {
    "id": "503d99b83a9a",
    "label": "9 RTE DE BOSVILLE, Grainville-la-Teinturière",
    "lat": 49.749523,
    "lng": 0.644904,
    "transactions": [
      {
        "date": "2025-02-28",
        "priceEur": 80000,
        "typeLocal": "Maison",
        "surfaceM2": 61,
        "isVefa": false
      }
    ]
  },
  "458470bb1ebc": {
    "id": "458470bb1ebc",
    "label": "2 RUE MALPALU, Grainville-la-Teinturière",
    "lat": 49.747895,
    "lng": 0.643824,
    "transactions": [
      {
        "date": "2025-03-05",
        "priceEur": 110000,
        "typeLocal": "Maison",
        "surfaceM2": 45,
        "isVefa": false
      }
    ]
  },
  "c96bcfa3afb4": {
    "id": "c96bcfa3afb4",
    "label": "21 RTE D YVETOT, Grainville-la-Teinturière",
    "lat": 49.747037,
    "lng": 0.646005,
    "transactions": [
      {
        "date": "2025-04-30",
        "priceEur": 50000,
        "typeLocal": "Maison",
        "surfaceM2": 96,
        "isVefa": false
      }
    ]
  },
  "3891265ec6f8": {
    "id": "3891265ec6f8",
    "label": "22 RTE DE L AUBE RUE, Grainville-la-Teinturière",
    "lat": 49.74994,
    "lng": 0.638096,
    "transactions": [
      {
        "date": "2025-05-06",
        "priceEur": 185500,
        "typeLocal": "Maison",
        "surfaceM2": 96,
        "isVefa": false
      }
    ]
  }
}