{
  "2f2b4ac6f24f": {
    "id": "2f2b4ac6f24f",
    "label": "482 RTE D'HERUPPES, Nointot",
    "lat": 49.58254,
    "lng": 0.4685,
    "transactions": [
      {
        "date": "2020-12-17",
        "priceEur": 280000,
        "typeLocal": "Maison",
        "surfaceM2": 132,
        "isVefa": false
      }
    ]
  },
  "bfdf5949e31e": {
    "id": "bfdf5949e31e",
    "label": "5160 RTE DU BEAU SOLEIL, Nointot",
    "lat": 49.589156,
    "lng": 0.470495,
    "transactions": [
      {
        "date": "2021-06-08",
        "priceEur": 110000,
        "typeLocal": "Maison",
        "surfaceM2": 72,
        "isVefa": false
      }
    ]
  },
  "b1fd52cc5083": {
    "id": "b1fd52cc5083",
    "label": "668 RUE DES DEUX HAMEAUX, Nointot",
    "lat": 49.588656,
    "lng": 0.465963,
    "transactions": [
      {
        "date": "2021-12-27",
        "priceEur": 223000,
        "typeLocal": "Maison",
        "surfaceM2": 106,
        "isVefa": false
      }
    ]
  },
  "fead120c1318": {
    "id": "fead120c1318",
    "label": "12 CHE DU BEAU SOLEIL, Nointot",
    "lat": 49.586515,
    "lng": 0.468383,
    "transactions": [
      {
        "date": "2022-01-24",
        "priceEur": 196670,
        "typeLocal": "Maison",
        "surfaceM2": 122,
        "isVefa": false
      }
    ]
  },
  "aaa83ff1cd66": {
    "id": "aaa83ff1cd66",
    "label": "6E RUE EDOUARD DEBRAY, Bolbec",
    "lat": 49.583309,
    "lng": 0.469488,
    "transactions": [
      {
        "date": "2022-01-26",
        "priceEur": 185000,
        "typeLocal": "Maison",
        "surfaceM2": 95,
        "isVefa": false
      }
    ]
  },
  "256a717e63f7": {
    "id": "256a717e63f7",
    "label": "1100 RTE DU BEAU SOLEIL, Nointot",
    "lat": 49.586344,
    "lng": 0.467394,
    "transactions": [
      {
        "date": "2022-07-11",
        "priceEur": 135000,
        "typeLocal": "Maison",
        "surfaceM2": 97,
        "isVefa": false
      }
    ]
  },
  "267d8e34578a": {
    "id": "267d8e34578a",
    "label": "5327 RTE DE MIRVILLE, Nointot",
    "lat": 49.586507,
    "lng": 0.463139,
    "transactions": [
      {
        "date": "2022-08-04",
        "priceEur": 211000,
        "typeLocal": "Maison",
        "surfaceM2": 95,
        "isVefa": false
      }
    ]
  },
  "5c01d3616eb7": {
    "id": "5c01d3616eb7",
    "label": "886 RTE DU BEAU SOLEIL, Nointot",
    "lat": 49.588155,
    "lng": 0.468399,
    "transactions": [
      {
        "date": "2022-08-12",
        "priceEur": 170000,
        "typeLocal": "Maison",
        "surfaceM2": 75,
        "isVefa": false
      }
    ]
  },
  "826ef32d681c": {
    "id": "826ef32d681c",
    "label": "854 RTE DU BEAU SOLEIL, Nointot",
    "lat": 49.588333,
    "lng": 0.468669,
    "transactions": [
      {
        "date": "2023-09-05",
        "priceEur": 60000,
        "typeLocal": "Maison",
        "surfaceM2": 86,
        "isVefa": false
      }
    ]
  }
}