{
  "63ee6ed3886a": {
    "id": "63ee6ed3886a",
    "label": "5156 LE BOUT DE LA VILLE, Saint-Nicolas-de-la-Taille",
    "lat": 49.503499,
    "lng": 0.470907,
    "transactions": [
      {
        "date": "2020-10-09",
        "priceEur": 156000,
        "typeLocal": "Maison",
        "surfaceM2": 100,
        "isVefa": false
      }
    ]
  },
  "f918ea816feb": {
    "id": "f918ea816feb",
    "label": "5204 LE BOUT DE LA VILLE, Saint-Nicolas-de-la-Taille",
    "lat": 49.503548,
    "lng": 0.470306,
    "transactions": [
      {
        "date": "2021-10-22",
        "priceEur": 240000,
        "typeLocal": "Maison",
        "surfaceM2": 120,
        "isVefa": false
      }
    ]
  },
  "1d0d149171b1": {
    "id": "1d0d149171b1",
    "label": "5001 RUE DE LA PIERRE GANT, Saint-Nicolas-de-la-Taille",
    "lat": 49.499039,
    "lng": 0.469457,
    "transactions": [
      {
        "date": "2023-01-25",
        "priceEur": 240000,
        "typeLocal": "Maison",
        "surfaceM2": 67,
        "isVefa": false
      }
    ]
  },
  "496a542c1f57": {
    "id": "496a542c1f57",
    "label": "67 RUE DE LA PIERRE GANT, Saint-Nicolas-de-la-Taille",
    "lat": 49.503766,
    "lng": 0.471394,
    "transactions": [
      {
        "date": "2023-10-16",
        "priceEur": 152000,
        "typeLocal": "Maison",
        "surfaceM2": 95,
        "isVefa": false
      }
    ]
  },
  "6407c4071687": {
    "id": "6407c4071687",
    "label": "5 IMP DU VIVIER, Saint-Nicolas-de-la-Taille",
    "lat": 49.50173,
    "lng": 0.466618,
    "transactions": [
      {
        "date": "2024-05-30",
        "priceEur": 330000,
        "typeLocal": "Maison",
        "surfaceM2": 166,
        "isVefa": false
      }
    ]
  },
  "cc804ca5b104": {
    "id": "cc804ca5b104",
    "label": "4 IMP LA FONTAINE BROUISSERESSE, Saint-Nicolas-de-la-Taille",
    "lat": 49.501392,
    "lng": 0.471527,
    "transactions": [
      {
        "date": "2024-08-16",
        "priceEur": 270000,
        "typeLocal": "Maison",
        "surfaceM2": 60,
        "isVefa": false
      }
    ]
  },
  "6deabaf0a833": {
    "id": "6deabaf0a833",
    "label": "404 RUE DE LA PIERRE GANT, Saint-Nicolas-de-la-Taille",
    "lat": 49.500584,
    "lng": 0.470176,
    "transactions": [
      {
        "date": "2024-11-29",
        "priceEur": 195000,
        "typeLocal": "Maison",
        "surfaceM2": 86,
        "isVefa": false
      }
    ]
  },
  "17a01541691e": {
    "id": "17a01541691e",
    "label": "353 RUE DE LA PIERRE GANT, Saint-Nicolas-de-la-Taille",
    "lat": 49.501,
    "lng": 0.471161,
    "transactions": [
      {
        "date": "2025-04-10",
        "priceEur": 195000,
        "typeLocal": "Maison",
        "surfaceM2": 99,
        "isVefa": false
      }
    ]
  },
  "eeacbb821439": {
    "id": "eeacbb821439",
    "label": "3107 GR GRANDE RUE, Saint-Nicolas-de-la-Taille",
    "lat": 49.50337,
    "lng": 0.469614,
    "transactions": [
      {
        "date": "2025-04-25",
        "priceEur": 227000,
        "typeLocal": "Maison",
        "surfaceM2": 132,
        "isVefa": false
      }
    ]
  }
}