{
  "3f9b50362242": {
    "id": "3f9b50362242",
    "label": "14 RUE RENE CASSIN, Grabels",
    "lat": 43.644518,
    "lng": 3.808955,
    "transactions": [
      {
        "date": "2020-07-09",
        "priceEur": 415000,
        "typeLocal": "Maison",
        "surfaceM2": 127,
        "isVefa": false
      }
    ]
  },
  "3762953000ef": {
    "id": "3762953000ef",
    "label": "9175 RTE DE MONTFERRIER, Grabels",
    "lat": 43.649098,
    "lng": 3.802904,
    "transactions": [
      {
        "date": "2020-07-28",
        "priceEur": 77910,
        "typeLocal": "Maison",
        "surfaceM2": 73,
        "isVefa": false
      }
    ]
  },
  "605677a69422": {
    "id": "605677a69422",
    "label": "127B RUE DES CINSAULTS, Grabels",
    "lat": 43.648794,
    "lng": 3.808948,
    "transactions": [
      {
        "date": "2020-08-31",
        "priceEur": 251284,
        "typeLocal": "Maison",
        "surfaceM2": 76,
        "isVefa": false
      }
    ]
  },
  "5819f6106a5c": {
    "id": "5819f6106a5c",
    "label": "6 RTE DE MONTPELLIER, Grabels",
    "lat": 43.646255,
    "lng": 3.801555,
    "transactions": [
      {
        "date": "2022-07-12",
        "priceEur": 358000,
        "typeLocal": "Maison",
        "surfaceM2": 96,
        "isVefa": false
      },
      {
        "date": "2021-08-13",
        "priceEur": 404480,
        "typeLocal": "Maison",
        "surfaceM2": 96,
        "isVefa": false
      },
      {
        "date": "2020-08-14",
        "priceEur": 284000,
        "typeLocal": "Maison",
        "surfaceM2": 96,
        "isVefa": false
      }
    ]
  },
  "56a08153c154": {
    "id": "56a08153c154",
    "label": "135 RUE DES CINSAULTS, Grabels",
    "lat": 43.64889,
    "lng": 3.809504,
    "transactions": [
      {
        "date": "2021-02-01",
        "priceEur": 319000,
        "typeLocal": "Maison",
        "surfaceM2": 88,
        "isVefa": false
      },
      {
        "date": "2020-10-15",
        "priceEur": 304900,
        "typeLocal": "Maison",
        "surfaceM2": 88,
        "isVefa": false
      }
    ]
  },
  "c5228ba0814e": {
    "id": "c5228ba0814e",
    "label": "3 RTE DE MONTPELLIER, Grabels",
    "lat": 43.645994,
    "lng": 3.808998,
    "transactions": [
      {
        "date": "2020-10-26",
        "priceEur": 240000,
        "typeLocal": "Maison",
        "surfaceM2": 82,
        "isVefa": false
      }
    ]
  },
  "36a8a38a46cd": {
    "id": "36a8a38a46cd",
    "label": "23 RUE DES CINSAULTS, Grabels",
    "lat": 43.648145,
    "lng": 3.808326,
    "transactions": [
      {
        "date": "2024-04-05",
        "priceEur": 322800,
        "typeLocal": "Maison",
        "surfaceM2": 74,
        "isVefa": false
      },
      {
        "date": "2022-01-25",
        "priceEur": 329000,
        "typeLocal": "Maison",
        "surfaceM2": 75,
        "isVefa": false
      },
      {
        "date": "2020-11-10",
        "priceEur": 274800,
        "typeLocal": "Maison",
        "surfaceM2": 74,
        "isVefa": false
      }
    ]
  },
  "d40bd17fd5b2": {
    "id": "d40bd17fd5b2",
    "label": "24 LOT LE RIO, Grabels",
    "lat": 43.645515,
    "lng": 3.807123,
    "transactions": [
      {
        "date": "2020-11-30",
        "priceEur": 449000,
        "typeLocal": "Maison",
        "surfaceM2": 130,
        "isVefa": false
      }
    ]
  },
  "596abf3288c2": {
    "id": "596abf3288c2",
    "label": "2B RTE DE MONTFERRIER, Grabels",
    "lat": 43.649015,
    "lng": 3.80136,
    "transactions": [
      {
        "date": "2020-12-22",
        "priceEur": 455000,
        "typeLocal": "Appartement",
        "surfaceM2": 35,
        "isVefa": false
      },
      {
        "date": "2020-12-22",
        "priceEur": 455000,
        "typeLocal": "Appartement",
        "surfaceM2": 120,
        "isVefa": false
      },
      {
        "date": "2020-12-22",
        "priceEur": 455000,
        "typeLocal": "Appartement",
        "surfaceM2": 35,
        "isVefa": false
      },
      {
        "date": "2020-12-22",
        "priceEur": 455000,
        "typeLocal": "Appartement",
        "surfaceM2": 35,
        "isVefa": false
      }
    ]
  },
  "fa5e3a4fa554": {
    "id": "fa5e3a4fa554",
    "label": "3 LOT LE RIO, Grabels",
    "lat": 43.645795,
    "lng": 3.808136,
    "transactions": [
      {
        "date": "2020-12-10",
        "priceEur": 337000,
        "typeLocal": "Maison",
        "surfaceM2": 86,
        "isVefa": false
      }
    ]
  },
  "9e2a9a051d36": {
    "id": "9e2a9a051d36",
    "label": "18 RUE DES LAVANDES, Grabels",
    "lat": 43.651232,
    "lng": 3.810344,
    "transactions": [
      {
        "date": "2020-12-28",
        "priceEur": 487500,
        "typeLocal": "Maison",
        "surfaceM2": 139,
        "isVefa": false
      },
      {
        "date": "2020-12-28",
        "priceEur": 487500,
        "typeLocal": "Maison",
        "surfaceM2": 139,
        "isVefa": false
      }
    ]
  },
  "c3525b66ef72": {
    "id": "c3525b66ef72",
    "label": "9 LOT LE RIO, Grabels",
    "lat": 43.645444,
    "lng": 3.808253,
    "transactions": [
      {
        "date": "2021-01-14",
        "priceEur": 320000,
        "typeLocal": "Maison",
        "surfaceM2": 99,
        "isVefa": false
      }
    ]
  },
  "590f51bd499e": {
    "id": "590f51bd499e",
    "label": "2 LOT LA SOURCE DU RIEUMASSEL, Grabels",
    "lat": 43.646728,
    "lng": 3.807758,
    "transactions": [
      {
        "date": "2021-01-26",
        "priceEur": 348000,
        "typeLocal": "Maison",
        "surfaceM2": 130,
        "isVefa": false
      }
    ]
  },
  "d23ce0afcc88": {
    "id": "d23ce0afcc88",
    "label": "5 RUE DES CARIGNANS, Grabels",
    "lat": 43.65001,
    "lng": 3.811644,
    "transactions": [
      {
        "date": "2021-02-09",
        "priceEur": 176900,
        "typeLocal": "Maison",
        "surfaceM2": 44,
        "isVefa": false
      }
    ]
  },
  "0fd7ec480ebd": {
    "id": "0fd7ec480ebd",
    "label": "8A GARRIGUETTES, Grabels",
    "lat": 43.648313,
    "lng": 3.807559,
    "transactions": [
      {
        "date": "2021-02-19",
        "priceEur": 300000,
        "typeLocal": "Maison",
        "surfaceM2": 78,
        "isVefa": false
      }
    ]
  },
  "9855eb799ede": {
    "id": "9855eb799ede",
    "label": "7 LOT DOMAINE DES GENETS, Grabels",
    "lat": 43.646203,
    "lng": 3.811008,
    "transactions": [
      {
        "date": "2021-03-09",
        "priceEur": 315450,
        "typeLocal": "Maison",
        "surfaceM2": 81,
        "isVefa": false
      }
    ]
  },
  "6376db905349": {
    "id": "6376db905349",
    "label": "9 RUE DES CAPRIERS, Grabels",
    "lat": 43.649681,
    "lng": 3.806493,
    "transactions": [
      {
        "date": "2021-03-24",
        "priceEur": 554500,
        "typeLocal": "Maison",
        "surfaceM2": 130,
        "isVefa": false
      }
    ]
  },
  "c670f3f3cfd8": {
    "id": "c670f3f3cfd8",
    "label": "5 RUE DES APHYLLANTES, Grabels",
    "lat": 43.648645,
    "lng": 3.806074,
    "transactions": [
      {
        "date": "2021-04-23",
        "priceEur": 485000,
        "typeLocal": "Maison",
        "surfaceM2": 84,
        "isVefa": false
      }
    ]
  },
  "74c1e38e7052": {
    "id": "74c1e38e7052",
    "label": "191 RUE DES CINSAULTS, Grabels",
    "lat": 43.649453,
    "lng": 3.809972,
    "transactions": [
      {
        "date": "2021-04-15",
        "priceEur": 252200,
        "typeLocal": "Maison",
        "surfaceM2": 78,
        "isVefa": false
      }
    ]
  },
  "7fc000dd0b36": {
    "id": "7fc000dd0b36",
    "label": "12 RTE DE MONTPELLIER, Grabels",
    "lat": 43.64647,
    "lng": 3.806762,
    "transactions": [
      {
        "date": "2024-12-23",
        "priceEur": 280000,
        "typeLocal": "Appartement",
        "surfaceM2": 72,
        "isVefa": false
      },
      {
        "date": "2024-03-08",
        "priceEur": 260000,
        "typeLocal": "Appartement",
        "surfaceM2": 72,
        "isVefa": false
      },
      {
        "date": "2023-06-01",
        "priceEur": 254000,
        "typeLocal": "Appartement",
        "surfaceM2": 57,
        "isVefa": false
      },
      {
        "date": "2021-09-22",
        "priceEur": 210490,
        "typeLocal": "Appartement",
        "surfaceM2": 57,
        "isVefa": false
      },
      {
        "date": "2021-06-17",
        "priceEur": 255000,
        "typeLocal": "Appartement",
        "surfaceM2": 72,
        "isVefa": false
      },
      {
        "date": "2021-04-06",
        "priceEur": 230000,
        "typeLocal": "Appartement",
        "surfaceM2": 72,
        "isVefa": false
      }
    ]
  },
  "bd1d723da649": {
    "id": "bd1d723da649",
    "label": "1 IMP HERVE BAZIN, Grabels",
    "lat": 43.648093,
    "lng": 3.803448,
    "transactions": [
      {
        "date": "2021-06-03",
        "priceEur": 446000,
        "typeLocal": "Maison",
        "surfaceM2": 137,
        "isVefa": false
      }
    ]
  },
  "a6f56578b18a": {
    "id": "a6f56578b18a",
    "label": "36 RUE DU RIO, Grabels",
    "lat": 43.645572,
    "lng": 3.805529,
    "transactions": [
      {
        "date": "2021-06-17",
        "priceEur": 292393,
        "typeLocal": "Maison",
        "surfaceM2": 106,
        "isVefa": false
      }
    ]
  },
  "840c3c8fd1d4": {
    "id": "840c3c8fd1d4",
    "label": "9369 RUE DU GRAND CHAMP, Grabels",
    "lat": 43.64748,
    "lng": 3.804429,
    "transactions": [
      {
        "date": "2021-06-30",
        "priceEur": 285000,
        "typeLocal": "Maison",
        "surfaceM2": 103,
        "isVefa": false
      }
    ]
  },
  "9558ac9079df": {
    "id": "9558ac9079df",
    "label": "92 RUE DES CINSAULTS, Grabels",
    "lat": 43.648377,
    "lng": 3.809246,
    "transactions": [
      {
        "date": "2021-07-12",
        "priceEur": 169000,
        "typeLocal": "Appartement",
        "surfaceM2": 50,
        "isVefa": false
      }
    ]
  },
  "252d3fba4123": {
    "id": "252d3fba4123",
    "label": "16 RUE DES CAPRIERS, Grabels",
    "lat": 43.648863,
    "lng": 3.806591,
    "transactions": [
      {
        "date": "2021-07-19",
        "priceEur": 391300,
        "typeLocal": "Maison",
        "surfaceM2": 120,
        "isVefa": false
      }
    ]
  },
  "89f1a6be1fdd": {
    "id": "89f1a6be1fdd",
    "label": "486 RUE DES CARIGNANS, Grabels",
    "lat": 43.649685,
    "lng": 3.811701,
    "transactions": [
      {
        "date": "2021-07-15",
        "priceEur": 349370,
        "typeLocal": "Maison",
        "surfaceM2": 110,
        "isVefa": false
      }
    ]
  },
  "c8087fb98b10": {
    "id": "c8087fb98b10",
    "label": "1 RUE DES CARIGNANS, Grabels",
    "lat": 43.64776,
    "lng": 3.807465,
    "transactions": [
      {
        "date": "2021-07-23",
        "priceEur": 370000,
        "typeLocal": "Maison",
        "surfaceM2": 112,
        "isVefa": false
      }
    ]
  },
  "16e7def70be3": {
    "id": "16e7def70be3",
    "label": "2 IMP DU PONT, Grabels",
    "lat": 43.646108,
    "lng": 3.811336,
    "transactions": [
      {
        "date": "2021-07-15",
        "priceEur": 420000,
        "typeLocal": "Maison",
        "surfaceM2": 130,
        "isVefa": false
      }
    ]
  },
  "963b3f46546c": {
    "id": "963b3f46546c",
    "label": "6 RUE DU GRAND CHAMP, Grabels",
    "lat": 43.648145,
    "lng": 3.804257,
    "transactions": [
      {
        "date": "2021-07-09",
        "priceEur": 423000,
        "typeLocal": "Maison",
        "surfaceM2": 90,
        "isVefa": false
      }
    ]
  },
  "c499295f3b8a": {
    "id": "c499295f3b8a",
    "label": "18 RUE DES GARRIGUETTES, Grabels",
    "lat": 43.648774,
    "lng": 3.808636,
    "transactions": [
      {
        "date": "2021-07-09",
        "priceEur": 180000,
        "typeLocal": "Maison",
        "surfaceM2": 117,
        "isVefa": false
      }
    ]
  },
  "68ce9e41ac46": {
    "id": "68ce9e41ac46",
    "label": "145 RUE DE LA COLLINE, Grabels",
    "lat": 43.650728,
    "lng": 3.801975,
    "transactions": [
      {
        "date": "2021-08-13",
        "priceEur": 440000,
        "typeLocal": "Maison",
        "surfaceM2": 122,
        "isVefa": false
      }
    ]
  },
  "c42cf014f4ac": {
    "id": "c42cf014f4ac",
    "label": "27 RTE DE MONTPELLIER, Grabels",
    "lat": 43.646377,
    "lng": 3.809083,
    "transactions": [
      {
        "date": "2021-09-17",
        "priceEur": 160000,
        "typeLocal": "Appartement",
        "surfaceM2": 84,
        "isVefa": false
      }
    ]
  },
  "d3d9d3f28b70": {
    "id": "d3d9d3f28b70",
    "label": "10 RUE DES GARRIGUETTES, Grabels",
    "lat": 43.648381,
    "lng": 3.808257,
    "transactions": [
      {
        "date": "2024-12-02",
        "priceEur": 145000,
        "typeLocal": "Appartement",
        "surfaceM2": 42,
        "isVefa": false
      },
      {
        "date": "2023-08-01",
        "priceEur": 127500,
        "typeLocal": "Appartement",
        "surfaceM2": 42,
        "isVefa": false
      },
      {
        "date": "2022-03-30",
        "priceEur": 138500,
        "typeLocal": "Appartement",
        "surfaceM2": 44,
        "isVefa": false
      },
      {
        "date": "2021-09-03",
        "priceEur": 159200,
        "typeLocal": "Appartement",
        "surfaceM2": 42,
        "isVefa": false
      }
    ]
  },
  "e5e9a47868c5": {
    "id": "e5e9a47868c5",
    "label": "8 RUE DES APHYLLANTES, Grabels",
    "lat": 43.647874,
    "lng": 3.806832,
    "transactions": [
      {
        "date": "2021-10-04",
        "priceEur": 445000,
        "typeLocal": "Maison",
        "surfaceM2": 166,
        "isVefa": true
      }
    ]
  },
  "e7c2df9e5ad7": {
    "id": "e7c2df9e5ad7",
    "label": "10B RUE DE LA TREILLE, Grabels",
    "lat": 43.648293,
    "lng": 3.802374,
    "transactions": [
      {
        "date": "2024-02-07",
        "priceEur": 145500,
        "typeLocal": "Appartement",
        "surfaceM2": 48,
        "isVefa": false
      },
      {
        "date": "2022-11-21",
        "priceEur": 90000,
        "typeLocal": "Appartement",
        "surfaceM2": 65,
        "isVefa": false
      },
      {
        "date": "2021-09-30",
        "priceEur": 181600,
        "typeLocal": "Appartement",
        "surfaceM2": 48,
        "isVefa": false
      }
    ]
  },
  "a3fe7c10ecd9": {
    "id": "a3fe7c10ecd9",
    "label": "214 RUE DU GRAND CHAMP, Grabels",
    "lat": 43.648145,
    "lng": 3.804257,
    "transactions": [
      {
        "date": "2021-10-05",
        "priceEur": 309000,
        "typeLocal": "Maison",
        "surfaceM2": 105,
        "isVefa": false
      }
    ]
  },
  "30b033962abd": {
    "id": "30b033962abd",
    "label": "68 RUE DES CINSAULTS, Grabels",
    "lat": 43.648222,
    "lng": 3.809108,
    "transactions": [
      {
        "date": "2021-10-15",
        "priceEur": 175700,
        "typeLocal": "Appartement",
        "surfaceM2": 47,
        "isVefa": false
      }
    ]
  },
  "8f3590c77926": {
    "id": "8f3590c77926",
    "label": "27 RUE DES LAVANDES, Grabels",
    "lat": 43.651103,
    "lng": 3.80966,
    "transactions": [
      {
        "date": "2024-06-07",
        "priceEur": 402800,
        "typeLocal": "Maison",
        "surfaceM2": 90,
        "isVefa": false
      },
      {
        "date": "2021-10-25",
        "priceEur": 425000,
        "typeLocal": "Maison",
        "surfaceM2": 90,
        "isVefa": false
      }
    ]
  },
  "53515c093dce": {
    "id": "53515c093dce",
    "label": "267 RUE DES CINSAULTS, Grabels",
    "lat": 43.650131,
    "lng": 3.810811,
    "transactions": [
      {
        "date": "2022-12-20",
        "priceEur": 432800,
        "typeLocal": "Maison",
        "surfaceM2": 89,
        "isVefa": false
      },
      {
        "date": "2021-11-02",
        "priceEur": 345890,
        "typeLocal": "Maison",
        "surfaceM2": 89,
        "isVefa": false
      }
    ]
  },
  "f4283a82ea7a": {
    "id": "f4283a82ea7a",
    "label": "54 ALL FREDERIC MISTRAL, Grabels",
    "lat": 43.647154,
    "lng": 3.804664,
    "transactions": [
      {
        "date": "2021-10-29",
        "priceEur": 349450,
        "typeLocal": "Appartement",
        "surfaceM2": 88,
        "isVefa": false
      }
    ]
  },
  "90619b22ebf4": {
    "id": "90619b22ebf4",
    "label": "5 LOT LE RIO, Grabels",
    "lat": 43.645785,
    "lng": 3.808509,
    "transactions": [
      {
        "date": "2021-12-17",
        "priceEur": 411500,
        "typeLocal": "Maison",
        "surfaceM2": 143,
        "isVefa": false
      }
    ]
  },
  "3f79e53ddf17": {
    "id": "3f79e53ddf17",
    "label": "4 LOT VESSIERE, Grabels",
    "lat": 43.64734,
    "lng": 3.807467,
    "transactions": [
      {
        "date": "2021-12-10",
        "priceEur": 393000,
        "typeLocal": "Maison",
        "surfaceM2": 85,
        "isVefa": false
      }
    ]
  },
  "bcc7a7d2c28d": {
    "id": "bcc7a7d2c28d",
    "label": "6 RUE DES APHYLLANTES, Grabels",
    "lat": 43.64798,
    "lng": 3.806306,
    "transactions": [
      {
        "date": "2021-12-14",
        "priceEur": 411000,
        "typeLocal": "Maison",
        "surfaceM2": 82,
        "isVefa": false
      }
    ]
  },
  "a0fa212bed70": {
    "id": "a0fa212bed70",
    "label": "8 IMP DES GARRIGUETTES, Grabels",
    "lat": 43.647754,
    "lng": 3.806127,
    "transactions": [
      {
        "date": "2021-12-29",
        "priceEur": 325000,
        "typeLocal": "Maison",
        "surfaceM2": 83,
        "isVefa": false
      }
    ]
  },
  "87c6f990c81d": {
    "id": "87c6f990c81d",
    "label": "10 RTE DE MONTPELLIER, Grabels",
    "lat": 43.646422,
    "lng": 3.80218,
    "transactions": [
      {
        "date": "2021-12-29",
        "priceEur": 750000,
        "typeLocal": "Maison",
        "surfaceM2": 100,
        "isVefa": false
      },
      {
        "date": "2021-12-29",
        "priceEur": 750000,
        "typeLocal": "Maison",
        "surfaceM2": 100,
        "isVefa": false
      }
    ]
  },
  "3e61e1a3b0a8": {
    "id": "3e61e1a3b0a8",
    "label": "128 RUE DES CARIGNANS, Grabels",
    "lat": 43.647548,
    "lng": 3.808533,
    "transactions": [
      {
        "date": "2022-01-21",
        "priceEur": 387000,
        "typeLocal": "Maison",
        "surfaceM2": 100,
        "isVefa": false
      }
    ]
  },
  "d951cf42d717": {
    "id": "d951cf42d717",
    "label": "223 RUE DU GRAND CHAMP, Grabels",
    "lat": 43.64883,
    "lng": 3.803856,
    "transactions": [
      {
        "date": "2025-06-26",
        "priceEur": 233000,
        "typeLocal": "Appartement",
        "surfaceM2": 66,
        "isVefa": false
      },
      {
        "date": "2023-06-27",
        "priceEur": 199000,
        "typeLocal": "Appartement",
        "surfaceM2": 46,
        "isVefa": false
      },
      {
        "date": "2022-03-10",
        "priceEur": 172400,
        "typeLocal": "Appartement",
        "surfaceM2": 46,
        "isVefa": false
      }
    ]
  },
  "c98a2071a2b7": {
    "id": "c98a2071a2b7",
    "label": "9 RUE RENE CASSIN, Grabels",
    "lat": 43.644194,
    "lng": 3.808021,
    "transactions": [
      {
        "date": "2022-03-11",
        "priceEur": 539300,
        "typeLocal": "Maison",
        "surfaceM2": 119,
        "isVefa": false
      }
    ]
  },
  "d74af022873e": {
    "id": "d74af022873e",
    "label": "134 RUE DE LA COLLINE, Grabels",
    "lat": 43.651229,
    "lng": 3.803459,
    "transactions": [
      {
        "date": "2023-04-13",
        "priceEur": 598568.8,
        "typeLocal": "Maison",
        "surfaceM2": 164,
        "isVefa": false
      },
      {
        "date": "2022-03-30",
        "priceEur": 550000,
        "typeLocal": "Maison",
        "surfaceM2": 164,
        "isVefa": false
      }
    ]
  },
  "9edadbdaa30c": {
    "id": "9edadbdaa30c",
    "label": "8 RUE DES CEVENNES, Grabels",
    "lat": 43.645083,
    "lng": 3.809331,
    "transactions": [
      {
        "date": "2022-04-22",
        "priceEur": 588000,
        "typeLocal": "Maison",
        "surfaceM2": 153,
        "isVefa": false
      }
    ]
  },
  "a95f54a56f92": {
    "id": "a95f54a56f92",
    "label": "5284 ROMPUDE LONGUE, Grabels",
    "lat": 43.651214,
    "lng": 3.804545,
    "transactions": [
      {
        "date": "2022-06-03",
        "priceEur": 451000,
        "typeLocal": "Maison",
        "surfaceM2": 164,
        "isVefa": false
      }
    ]
  },
  "3b49a775bf08": {
    "id": "3b49a775bf08",
    "label": "19B RTE DE MONTFERRIER, Grabels",
    "lat": 43.650524,
    "lng": 3.804921,
    "transactions": [
      {
        "date": "2022-05-25",
        "priceEur": 689000,
        "typeLocal": "Maison",
        "surfaceM2": 140,
        "isVefa": false
      }
    ]
  },
  "343acfb58157": {
    "id": "343acfb58157",
    "label": "12 IMP DU MAS D'ARMAND, Grabels",
    "lat": 43.651888,
    "lng": 3.808862,
    "transactions": [
      {
        "date": "2022-07-07",
        "priceEur": 350000,
        "typeLocal": "Maison",
        "surfaceM2": 109,
        "isVefa": false
      }
    ]
  },
  "4b2593c7ef7c": {
    "id": "4b2593c7ef7c",
    "label": "11 RUE DES GARRIGUETTES, Grabels",
    "lat": 43.650137,
    "lng": 3.809711,
    "transactions": [
      {
        "date": "2023-07-20",
        "priceEur": 520000,
        "typeLocal": "Maison",
        "surfaceM2": 95,
        "isVefa": false
      },
      {
        "date": "2023-07-20",
        "priceEur": 520000,
        "typeLocal": "Maison",
        "surfaceM2": 95,
        "isVefa": false
      },
      {
        "date": "2022-07-29",
        "priceEur": 400000,
        "typeLocal": "Maison",
        "surfaceM2": 95,
        "isVefa": false
      },
      {
        "date": "2022-07-29",
        "priceEur": 400000,
        "typeLocal": "Maison",
        "surfaceM2": 95,
        "isVefa": false
      }
    ]
  },
  "c4fa18c2c83a": {
    "id": "c4fa18c2c83a",
    "label": "8 LOT PLEIN SOLEIL, Grabels",
    "lat": 43.646735,
    "lng": 3.811889,
    "transactions": [
      {
        "date": "2022-09-30",
        "priceEur": 473000,
        "typeLocal": "Maison",
        "surfaceM2": 111,
        "isVefa": false
      }
    ]
  },
  "149d253e364b": {
    "id": "149d253e364b",
    "label": "205 RUE DE LA CROIX DE GUILLERY, Grabels",
    "lat": 43.644321,
    "lng": 3.80218,
    "transactions": [
      {
        "date": "2022-09-14",
        "priceEur": 11040,
        "typeLocal": "Maison",
        "surfaceM2": 79,
        "isVefa": false
      }
    ]
  },
  "06d74f2f6b68": {
    "id": "06d74f2f6b68",
    "label": "4 LOT LES CIGALES, Grabels",
    "lat": 43.646422,
    "lng": 3.803697,
    "transactions": [
      {
        "date": "2022-10-10",
        "priceEur": 440000,
        "typeLocal": "Maison",
        "surfaceM2": 110,
        "isVefa": false
      }
    ]
  },
  "2c3348e0cb2f": {
    "id": "2c3348e0cb2f",
    "label": "30 LOT LE RIO, Grabels",
    "lat": 43.644986,
    "lng": 3.806472,
    "transactions": [
      {
        "date": "2022-10-18",
        "priceEur": 473900,
        "typeLocal": "Maison",
        "surfaceM2": 130,
        "isVefa": false
      }
    ]
  },
  "ebece57c8329": {
    "id": "ebece57c8329",
    "label": "1 IMP DES GARRIGUETTES, Grabels",
    "lat": 43.64726,
    "lng": 3.805827,
    "transactions": [
      {
        "date": "2022-10-14",
        "priceEur": 658460,
        "typeLocal": "Maison",
        "surfaceM2": 172,
        "isVefa": false
      },
      {
        "date": "2022-10-14",
        "priceEur": 658460,
        "typeLocal": "Appartement",
        "surfaceM2": 24,
        "isVefa": false
      }
    ]
  },
  "5ea61a27eefb": {
    "id": "5ea61a27eefb",
    "label": "32 RTE DE MONTFERRIER, Grabels",
    "lat": 43.650245,
    "lng": 3.806802,
    "transactions": [
      {
        "date": "2022-11-07",
        "priceEur": 1000000,
        "typeLocal": "Maison",
        "surfaceM2": 102,
        "isVefa": false
      },
      {
        "date": "2022-11-07",
        "priceEur": 1000000,
        "typeLocal": "Maison",
        "surfaceM2": 102,
        "isVefa": false
      }
    ]
  },
  "20704d42ff96": {
    "id": "20704d42ff96",
    "label": "8 IMP CLOS SAINT JEAN, Grabels",
    "lat": 43.651111,
    "lng": 3.812131,
    "transactions": [
      {
        "date": "2022-11-04",
        "priceEur": 584033,
        "typeLocal": "Maison",
        "surfaceM2": 89,
        "isVefa": false
      }
    ]
  },
  "5590f75acdc5": {
    "id": "5590f75acdc5",
    "label": "325 RUE DES CARIGNANS, Grabels",
    "lat": 43.648492,
    "lng": 3.810083,
    "transactions": [
      {
        "date": "2022-10-21",
        "priceEur": 270000,
        "typeLocal": "Maison",
        "surfaceM2": 90,
        "isVefa": false
      }
    ]
  },
  "6f549e78a7f5": {
    "id": "6f549e78a7f5",
    "label": "331 RUE DES CARIGNANS, Grabels",
    "lat": 43.648506,
    "lng": 3.810543,
    "transactions": [
      {
        "date": "2022-11-09",
        "priceEur": 385200,
        "typeLocal": "Maison",
        "surfaceM2": 105,
        "isVefa": false
      }
    ]
  },
  "229baff4a993": {
    "id": "229baff4a993",
    "label": "2 RUE DU PETIT HOUX, Grabels",
    "lat": 43.650866,
    "lng": 3.807014,
    "transactions": [
      {
        "date": "2022-11-04",
        "priceEur": 385900,
        "typeLocal": "Maison",
        "surfaceM2": 103,
        "isVefa": false
      }
    ]
  },
  "70333ca1604d": {
    "id": "70333ca1604d",
    "label": "2 RUE DES CEVENNES, Grabels",
    "lat": 43.645731,
    "lng": 3.809856,
    "transactions": [
      {
        "date": "2022-11-18",
        "priceEur": 529600,
        "typeLocal": "Maison",
        "surfaceM2": 120,
        "isVefa": false
      }
    ]
  },
  "1a8d56108906": {
    "id": "1a8d56108906",
    "label": "162B RUE DES CARIGNANS, Grabels",
    "lat": 43.649044,
    "lng": 3.810131,
    "transactions": [
      {
        "date": "2022-11-16",
        "priceEur": 363300,
        "typeLocal": "Maison",
        "surfaceM2": 100,
        "isVefa": false
      }
    ]
  },
  "2a97258c1624": {
    "id": "2a97258c1624",
    "label": "2B IMP DE LA COMBETTE, Grabels",
    "lat": 43.648891,
    "lng": 3.801486,
    "transactions": [
      {
        "date": "2022-09-21",
        "priceEur": 340000,
        "typeLocal": "Maison",
        "surfaceM2": 79,
        "isVefa": false
      },
      {
        "date": "2022-09-21",
        "priceEur": 340000,
        "typeLocal": "Maison",
        "surfaceM2": 79,
        "isVefa": false
      }
    ]
  },
  "671625d5d703": {
    "id": "671625d5d703",
    "label": "95 RUE DES CINSAULTS, Grabels",
    "lat": 43.648526,
    "lng": 3.808944,
    "transactions": [
      {
        "date": "2023-01-17",
        "priceEur": 347000,
        "typeLocal": "Maison",
        "surfaceM2": 100,
        "isVefa": false
      }
    ]
  },
  "cb5cf821f6d8": {
    "id": "cb5cf821f6d8",
    "label": "5948 RIEUMASSEL, Grabels",
    "lat": 43.646664,
    "lng": 3.808865,
    "transactions": [
      {
        "date": "2023-01-18",
        "priceEur": 449800,
        "typeLocal": "Maison",
        "surfaceM2": 111,
        "isVefa": false
      }
    ]
  },
  "4e3e2d320329": {
    "id": "4e3e2d320329",
    "label": "120 RUE DE LA TREILLE, Grabels",
    "lat": 43.648293,
    "lng": 3.802374,
    "transactions": [
      {
        "date": "2023-03-28",
        "priceEur": 270000,
        "typeLocal": "Appartement",
        "surfaceM2": 67,
        "isVefa": false
      }
    ]
  },
  "294d5e525502": {
    "id": "294d5e525502",
    "label": "4 IMP PIERRE RONSARD, Grabels",
    "lat": 43.647902,
    "lng": 3.803239,
    "transactions": [
      {
        "date": "2023-03-24",
        "priceEur": 579805,
        "typeLocal": "Maison",
        "surfaceM2": 152,
        "isVefa": false
      }
    ]
  },
  "e9dc774604b1": {
    "id": "e9dc774604b1",
    "label": "247 CHE DU PERDIGAL, Grabels",
    "lat": 43.644188,
    "lng": 3.810913,
    "transactions": [
      {
        "date": "2024-05-31",
        "priceEur": 373000,
        "typeLocal": "Appartement",
        "surfaceM2": 68,
        "isVefa": false
      },
      {
        "date": "2024-05-31",
        "priceEur": 373000,
        "typeLocal": "Appartement",
        "surfaceM2": 68,
        "isVefa": false
      },
      {
        "date": "2023-05-05",
        "priceEur": 384600,
        "typeLocal": "Maison",
        "surfaceM2": 104,
        "isVefa": false
      }
    ]
  },
  "5d2d28435661": {
    "id": "5d2d28435661",
    "label": "449 RUE DES CARIGNANS, Grabels",
    "lat": 43.649479,
    "lng": 3.811448,
    "transactions": [
      {
        "date": "2023-05-09",
        "priceEur": 267000,
        "typeLocal": "Maison",
        "surfaceM2": 73,
        "isVefa": false
      }
    ]
  },
  "2b3286262ea4": {
    "id": "2b3286262ea4",
    "label": "19A RTE DE MONTFERRIER, Grabels",
    "lat": 43.650428,
    "lng": 3.804559,
    "transactions": [
      {
        "date": "2023-06-01",
        "priceEur": 620000,
        "typeLocal": "Maison",
        "surfaceM2": 140,
        "isVefa": false
      }
    ]
  },
  "223836c2eecb": {
    "id": "223836c2eecb",
    "label": "9 LOT LES GRILLONS, Grabels",
    "lat": 43.645855,
    "lng": 3.80583,
    "transactions": [
      {
        "date": "2023-06-29",
        "priceEur": 350000,
        "typeLocal": "Maison",
        "surfaceM2": 151,
        "isVefa": false
      }
    ]
  },
  "dc69efff4542": {
    "id": "dc69efff4542",
    "label": "240 RUE DES CARIGNANS, Grabels",
    "lat": 43.647533,
    "lng": 3.810318,
    "transactions": [
      {
        "date": "2023-08-16",
        "priceEur": 539000,
        "typeLocal": "Maison",
        "surfaceM2": 135,
        "isVefa": false
      }
    ]
  },
  "6e8abe893fd8": {
    "id": "6e8abe893fd8",
    "label": "273 RUE DES CINSAULTS, Grabels",
    "lat": 43.650075,
    "lng": 3.811449,
    "transactions": [
      {
        "date": "2024-09-03",
        "priceEur": 295700,
        "typeLocal": "Maison",
        "surfaceM2": 71,
        "isVefa": false
      },
      {
        "date": "2023-09-19",
        "priceEur": 266700,
        "typeLocal": "Maison",
        "surfaceM2": 77,
        "isVefa": false
      }
    ]
  },
  "868b0f7df52e": {
    "id": "868b0f7df52e",
    "label": "14 LOT LES CIGALES, Grabels",
    "lat": 43.64598,
    "lng": 3.803737,
    "transactions": [
      {
        "date": "2023-12-01",
        "priceEur": 370000,
        "typeLocal": "Maison",
        "surfaceM2": 104,
        "isVefa": false
      },
      {
        "date": "2023-09-20",
        "priceEur": 240000,
        "typeLocal": "Maison",
        "surfaceM2": 104,
        "isVefa": false
      }
    ]
  },
  "a57edc3fe035": {
    "id": "a57edc3fe035",
    "label": "228E RUE DES CINSAULTS, Grabels",
    "lat": 43.649338,
    "lng": 3.811112,
    "transactions": [
      {
        "date": "2023-11-10",
        "priceEur": 375000,
        "typeLocal": "Maison",
        "surfaceM2": 104,
        "isVefa": false
      }
    ]
  },
  "d643ff5f2eb8": {
    "id": "d643ff5f2eb8",
    "label": "254 RUE DES CINSAULTS, Grabels",
    "lat": 43.649726,
    "lng": 3.810877,
    "transactions": [
      {
        "date": "2023-12-11",
        "priceEur": 250000,
        "typeLocal": "Maison",
        "surfaceM2": 65,
        "isVefa": false
      }
    ]
  },
  "1c41085f62e9": {
    "id": "1c41085f62e9",
    "label": "263 RUE DES CINSAULTS, Grabels",
    "lat": 43.650095,
    "lng": 3.811029,
    "transactions": [
      {
        "date": "2024-03-08",
        "priceEur": 350850,
        "typeLocal": "Maison",
        "surfaceM2": 90,
        "isVefa": false
      }
    ]
  },
  "b5d5bef0df60": {
    "id": "b5d5bef0df60",
    "label": "1 LOT GUIZARD, Grabels",
    "lat": 43.64864,
    "lng": 3.807448,
    "transactions": [
      {
        "date": "2024-05-07",
        "priceEur": 390000,
        "typeLocal": "Maison",
        "surfaceM2": 105,
        "isVefa": false
      }
    ]
  },
  "7318b1ef28ab": {
    "id": "7318b1ef28ab",
    "label": "222 RUE DES CINSAULTS, Grabels",
    "lat": 43.649426,
    "lng": 3.810509,
    "transactions": [
      {
        "date": "2024-05-13",
        "priceEur": 278800,
        "typeLocal": "Maison",
        "surfaceM2": 65,
        "isVefa": false
      }
    ]
  },
  "0c6633de5690": {
    "id": "0c6633de5690",
    "label": "70 RUE DE LA COLLINE, Grabels",
    "lat": 43.650743,
    "lng": 3.803687,
    "transactions": [
      {
        "date": "2024-07-08",
        "priceEur": 601000,
        "typeLocal": "Maison",
        "surfaceM2": 120,
        "isVefa": false
      }
    ]
  },
  "d8e96e5cfa4a": {
    "id": "d8e96e5cfa4a",
    "label": "193B RUE DES CINSAULTS, Grabels",
    "lat": 43.649604,
    "lng": 3.810143,
    "transactions": [
      {
        "date": "2024-08-02",
        "priceEur": 307400,
        "typeLocal": "Maison",
        "surfaceM2": 76,
        "isVefa": false
      }
    ]
  },
  "2b97d7569ec6": {
    "id": "2b97d7569ec6",
    "label": "18 LOT LE RIO, Grabels",
    "lat": 43.645833,
    "lng": 3.807368,
    "transactions": [
      {
        "date": "2024-07-17",
        "priceEur": 350000,
        "typeLocal": "Maison",
        "surfaceM2": 95,
        "isVefa": false
      }
    ]
  },
  "c1bb134c0f46": {
    "id": "c1bb134c0f46",
    "label": "15 RUE RENE CASSIN, Grabels",
    "lat": 43.644565,
    "lng": 3.808461,
    "transactions": [
      {
        "date": "2024-09-12",
        "priceEur": 559410,
        "typeLocal": "Maison",
        "surfaceM2": 161,
        "isVefa": false
      }
    ]
  },
  "9a97d43492b1": {
    "id": "9a97d43492b1",
    "label": "6 RUE DES CARIGNANS, Grabels",
    "lat": 43.649968,
    "lng": 3.811858,
    "transactions": [
      {
        "date": "2024-10-10",
        "priceEur": 278000,
        "typeLocal": "Maison",
        "surfaceM2": 68,
        "isVefa": false
      }
    ]
  },
  "98983f11330f": {
    "id": "98983f11330f",
    "label": "88 RUE DE LA COLLINE, Grabels",
    "lat": 43.650841,
    "lng": 3.80312,
    "transactions": [
      {
        "date": "2024-10-22",
        "priceEur": 536000,
        "typeLocal": "Maison",
        "surfaceM2": 143,
        "isVefa": false
      }
    ]
  },
  "320311e47934": {
    "id": "320311e47934",
    "label": "70 CHE DE GUILLERY, Grabels",
    "lat": 43.644039,
    "lng": 3.811403,
    "transactions": [
      {
        "date": "2024-10-22",
        "priceEur": 403000,
        "typeLocal": "Maison",
        "surfaceM2": 83,
        "isVefa": false
      }
    ]
  },
  "70584f507f33": {
    "id": "70584f507f33",
    "label": "5044 RIEUMASSEL, Grabels",
    "lat": 43.644196,
    "lng": 3.811369,
    "transactions": [
      {
        "date": "2024-11-21",
        "priceEur": 245000,
        "typeLocal": "Maison",
        "surfaceM2": 54,
        "isVefa": false
      }
    ]
  },
  "7409f244e4de": {
    "id": "7409f244e4de",
    "label": "64 RUE DES CINSAULTS, Grabels",
    "lat": 43.648179,
    "lng": 3.809012,
    "transactions": [
      {
        "date": "2025-02-24",
        "priceEur": 445500,
        "typeLocal": "Maison",
        "surfaceM2": 160,
        "isVefa": false
      }
    ]
  },
  "56f4a61f371e": {
    "id": "56f4a61f371e",
    "label": "30 RTE DE MONTFERRIER, Grabels",
    "lat": 43.650708,
    "lng": 3.806633,
    "transactions": [
      {
        "date": "2025-03-24",
        "priceEur": 292400,
        "typeLocal": "Maison",
        "surfaceM2": 100,
        "isVefa": false
      }
    ]
  },
  "4b0a5d540eb7": {
    "id": "4b0a5d540eb7",
    "label": "261 RUE DE LA CROIX DE GUILLERY, Grabels",
    "lat": 43.644405,
    "lng": 3.803068,
    "transactions": [
      {
        "date": "2025-03-31",
        "priceEur": 397000,
        "typeLocal": "Maison",
        "surfaceM2": 126,
        "isVefa": false
      },
      {
        "date": "2025-03-31",
        "priceEur": 397000,
        "typeLocal": "Maison",
        "surfaceM2": 126,
        "isVefa": false
      }
    ]
  }
}