{
  "97992fe04c6d": {
    "id": "97992fe04c6d",
    "label": "15 IMP DE L'HORTUS, Saint-Gély-du-Fesc",
    "lat": 43.698668,
    "lng": 3.804931,
    "transactions": [
      {
        "date": "2020-07-01",
        "priceEur": 295000,
        "typeLocal": "Maison",
        "surfaceM2": 88,
        "isVefa": false
      }
    ]
  },
  "84b6e136585b": {
    "id": "84b6e136585b",
    "label": "172 RUE DE LA TRAVERSIERE, Saint-Gély-du-Fesc",
    "lat": 43.691794,
    "lng": 3.80691,
    "transactions": [
      {
        "date": "2020-08-25",
        "priceEur": 392600,
        "typeLocal": "Maison",
        "surfaceM2": 124,
        "isVefa": false
      }
    ]
  },
  "d2b6ee94baa2": {
    "id": "d2b6ee94baa2",
    "label": "54 IMP DU CARROSSE, Saint-Gély-du-Fesc",
    "lat": 43.69848,
    "lng": 3.803724,
    "transactions": [
      {
        "date": "2020-09-23",
        "priceEur": 303135,
        "typeLocal": "Maison",
        "surfaceM2": 88,
        "isVefa": false
      }
    ]
  },
  "d60050defe30": {
    "id": "d60050defe30",
    "label": "18 IMP DU CARROSSE, Saint-Gély-du-Fesc",
    "lat": 43.698762,
    "lng": 3.803488,
    "transactions": [
      {
        "date": "2020-10-29",
        "priceEur": 370000,
        "typeLocal": "Maison",
        "surfaceM2": 103,
        "isVefa": false
      }
    ]
  },
  "c8708bbf26c2": {
    "id": "c8708bbf26c2",
    "label": "17 RUE DE VALENE, Saint-Gély-du-Fesc",
    "lat": 43.694223,
    "lng": 3.804471,
    "transactions": [
      {
        "date": "2023-09-27",
        "priceEur": 215000,
        "typeLocal": "Appartement",
        "surfaceM2": 41,
        "isVefa": false
      },
      {
        "date": "2022-06-13",
        "priceEur": 411000,
        "typeLocal": "Appartement",
        "surfaceM2": 94,
        "isVefa": false
      },
      {
        "date": "2020-12-04",
        "priceEur": 235200,
        "typeLocal": "Appartement",
        "surfaceM2": 55,
        "isVefa": false
      }
    ]
  },
  "becd61647cd2": {
    "id": "becd61647cd2",
    "label": "256 RUE DE COULONDRES, Saint-Gély-du-Fesc",
    "lat": 43.694902,
    "lng": 3.808306,
    "transactions": [
      {
        "date": "2022-11-29",
        "priceEur": 330970,
        "typeLocal": "Maison",
        "surfaceM2": 88,
        "isVefa": false
      },
      {
        "date": "2020-12-07",
        "priceEur": 283500,
        "typeLocal": "Maison",
        "surfaceM2": 88,
        "isVefa": false
      }
    ]
  },
  "470079369662": {
    "id": "470079369662",
    "label": "137 RUE DES LILAS, Saint-Gély-du-Fesc",
    "lat": 43.694365,
    "lng": 3.801495,
    "transactions": [
      {
        "date": "2020-12-07",
        "priceEur": 283000,
        "typeLocal": "Maison",
        "surfaceM2": 92,
        "isVefa": false
      }
    ]
  },
  "535366e51c03": {
    "id": "535366e51c03",
    "label": "211 RUE DES BOUTONS D OR, Saint-Gély-du-Fesc",
    "lat": 43.695094,
    "lng": 3.810963,
    "transactions": [
      {
        "date": "2020-12-21",
        "priceEur": 326700,
        "typeLocal": "Maison",
        "surfaceM2": 91,
        "isVefa": false
      }
    ]
  },
  "2193fb60f87e": {
    "id": "2193fb60f87e",
    "label": "220 RUE DU CHAMP DE LA BLANCHE, Saint-Gély-du-Fesc",
    "lat": 43.697117,
    "lng": 3.80798,
    "transactions": [
      {
        "date": "2021-01-14",
        "priceEur": 320000,
        "typeLocal": "Maison",
        "surfaceM2": 81,
        "isVefa": false
      }
    ]
  },
  "d878f8f6123a": {
    "id": "d878f8f6123a",
    "label": "126 RUE DES LILAS, Saint-Gély-du-Fesc",
    "lat": 43.694365,
    "lng": 3.801495,
    "transactions": [
      {
        "date": "2021-02-08",
        "priceEur": 310000,
        "typeLocal": "Maison",
        "surfaceM2": 92,
        "isVefa": false
      }
    ]
  },
  "1b956d4daec3": {
    "id": "1b956d4daec3",
    "label": "270 GR GRAND RUE, Saint-Gély-du-Fesc",
    "lat": 43.692912,
    "lng": 3.805967,
    "transactions": [
      {
        "date": "2021-02-10",
        "priceEur": 169850,
        "typeLocal": "Appartement",
        "surfaceM2": 80,
        "isVefa": false
      }
    ]
  },
  "9c87b0f96e95": {
    "id": "9c87b0f96e95",
    "label": "161 RUE DE LA CANNELLE, Saint-Gély-du-Fesc",
    "lat": 43.692087,
    "lng": 3.803286,
    "transactions": [
      {
        "date": "2021-02-22",
        "priceEur": 408500,
        "typeLocal": "Maison",
        "surfaceM2": 77,
        "isVefa": false
      }
    ]
  },
  "215948c16918": {
    "id": "215948c16918",
    "label": "242 RUE DES CADES, Saint-Gély-du-Fesc",
    "lat": 43.695028,
    "lng": 3.811718,
    "transactions": [
      {
        "date": "2021-03-26",
        "priceEur": 567400,
        "typeLocal": "Maison",
        "surfaceM2": 152,
        "isVefa": false
      },
      {
        "date": "2021-03-26",
        "priceEur": 567400,
        "typeLocal": "Maison",
        "surfaceM2": 152,
        "isVefa": false
      }
    ]
  },
  "ec5afd320ae1": {
    "id": "ec5afd320ae1",
    "label": "32 PL DE VERDUN, Saint-Gély-du-Fesc",
    "lat": 43.692151,
    "lng": 3.803587,
    "transactions": [
      {
        "date": "2021-04-13",
        "priceEur": 188000,
        "typeLocal": "Maison",
        "surfaceM2": 65,
        "isVefa": false
      }
    ]
  },
  "c0c82f6433d0": {
    "id": "c0c82f6433d0",
    "label": "89 RUE DE LA FREGERE, Saint-Gély-du-Fesc",
    "lat": 43.69499,
    "lng": 3.806469,
    "transactions": [
      {
        "date": "2021-05-10",
        "priceEur": 345570,
        "typeLocal": "Maison",
        "surfaceM2": 103,
        "isVefa": false
      }
    ]
  },
  "254349b66b45": {
    "id": "254349b66b45",
    "label": "185 RUE DU BOSC, Saint-Gély-du-Fesc",
    "lat": 43.691759,
    "lng": 3.812038,
    "transactions": [
      {
        "date": "2021-10-28",
        "priceEur": 410000,
        "typeLocal": "Maison",
        "surfaceM2": 140,
        "isVefa": false
      },
      {
        "date": "2021-05-10",
        "priceEur": 395000,
        "typeLocal": "Maison",
        "surfaceM2": 140,
        "isVefa": false
      }
    ]
  },
  "e2dffda0b02b": {
    "id": "e2dffda0b02b",
    "label": "108 RUE DU DEVOIS, Saint-Gély-du-Fesc",
    "lat": 43.694267,
    "lng": 3.809077,
    "transactions": [
      {
        "date": "2021-05-06",
        "priceEur": 176340,
        "typeLocal": "Maison",
        "surfaceM2": 88,
        "isVefa": false
      }
    ]
  },
  "0f4833098602": {
    "id": "0f4833098602",
    "label": "126 RUE DU BOSC, Saint-Gély-du-Fesc",
    "lat": 43.691973,
    "lng": 3.812206,
    "transactions": [
      {
        "date": "2021-04-27",
        "priceEur": 500000,
        "typeLocal": "Maison",
        "surfaceM2": 130,
        "isVefa": false
      },
      {
        "date": "2021-04-27",
        "priceEur": 500000,
        "typeLocal": "Maison",
        "surfaceM2": 130,
        "isVefa": false
      }
    ]
  },
  "9f11ffa3a46e": {
    "id": "9f11ffa3a46e",
    "label": "40 RUE DE LA CANNELLE, Saint-Gély-du-Fesc",
    "lat": 43.692646,
    "lng": 3.804623,
    "transactions": [
      {
        "date": "2021-04-27",
        "priceEur": 197030,
        "typeLocal": "Maison",
        "surfaceM2": 75,
        "isVefa": false
      }
    ]
  },
  "14d66ab2bc08": {
    "id": "14d66ab2bc08",
    "label": "126 RUE PICA TALEN, Saint-Gély-du-Fesc",
    "lat": 43.697539,
    "lng": 3.803495,
    "transactions": [
      {
        "date": "2021-05-28",
        "priceEur": 314000,
        "typeLocal": "Maison",
        "surfaceM2": 90,
        "isVefa": false
      }
    ]
  },
  "e58ba3d27770": {
    "id": "e58ba3d27770",
    "label": "38 RUE DES GRENACHES, Saint-Gély-du-Fesc",
    "lat": 43.698052,
    "lng": 3.803798,
    "transactions": [
      {
        "date": "2021-05-26",
        "priceEur": 302550,
        "typeLocal": "Maison",
        "surfaceM2": 88,
        "isVefa": false
      }
    ]
  },
  "31cf67f063a5": {
    "id": "31cf67f063a5",
    "label": "214 RUE DU PATUS, Saint-Gély-du-Fesc",
    "lat": 43.691794,
    "lng": 3.80691,
    "transactions": [
      {
        "date": "2021-05-17",
        "priceEur": 377350,
        "typeLocal": "Maison",
        "surfaceM2": 92,
        "isVefa": false
      }
    ]
  },
  "a44b1b78fba1": {
    "id": "a44b1b78fba1",
    "label": "303 GR GRAND RUE, Saint-Gély-du-Fesc",
    "lat": 43.693144,
    "lng": 3.805516,
    "transactions": [
      {
        "date": "2022-01-14",
        "priceEur": 363300,
        "typeLocal": "Maison",
        "surfaceM2": 116,
        "isVefa": false
      },
      {
        "date": "2021-06-07",
        "priceEur": 108500,
        "typeLocal": "Appartement",
        "surfaceM2": 17,
        "isVefa": false
      }
    ]
  },
  "66882f1bd720": {
    "id": "66882f1bd720",
    "label": "109 RUE DU CHAMP DE LA BLANCHE, Saint-Gély-du-Fesc",
    "lat": 43.69602,
    "lng": 3.807805,
    "transactions": [
      {
        "date": "2021-07-07",
        "priceEur": 581300,
        "typeLocal": "Maison",
        "surfaceM2": 160,
        "isVefa": false
      }
    ]
  },
  "f98f94b091af": {
    "id": "f98f94b091af",
    "label": "64 RUE DES ROCAILLES, Saint-Gély-du-Fesc",
    "lat": 43.694075,
    "lng": 3.807932,
    "transactions": [
      {
        "date": "2024-01-26",
        "priceEur": 350600,
        "typeLocal": "Maison",
        "surfaceM2": 88,
        "isVefa": false
      },
      {
        "date": "2021-07-08",
        "priceEur": 310540,
        "typeLocal": "Maison",
        "surfaceM2": 88,
        "isVefa": false
      }
    ]
  },
  "40233970f27e": {
    "id": "40233970f27e",
    "label": "27 IMP DU CARROSSE, Saint-Gély-du-Fesc",
    "lat": 43.698931,
    "lng": 3.803848,
    "transactions": [
      {
        "date": "2021-07-05",
        "priceEur": 357450,
        "typeLocal": "Maison",
        "surfaceM2": 88,
        "isVefa": false
      }
    ]
  },
  "17e034612b09": {
    "id": "17e034612b09",
    "label": "80 ALL DE LA CANNELLE, Saint-Gély-du-Fesc",
    "lat": 43.692977,
    "lng": 3.802576,
    "transactions": [
      {
        "date": "2021-07-09",
        "priceEur": 879230,
        "typeLocal": "Maison",
        "surfaceM2": 227,
        "isVefa": false
      },
      {
        "date": "2021-07-09",
        "priceEur": 879230,
        "typeLocal": "Maison",
        "surfaceM2": 227,
        "isVefa": false
      }
    ]
  },
  "72a5f3a0b1aa": {
    "id": "72a5f3a0b1aa",
    "label": "173 RUE DES BOUTONS D OR, Saint-Gély-du-Fesc",
    "lat": 43.695438,
    "lng": 3.811224,
    "transactions": [
      {
        "date": "2025-02-03",
        "priceEur": 489850,
        "typeLocal": "Maison",
        "surfaceM2": 98,
        "isVefa": false
      },
      {
        "date": "2021-06-24",
        "priceEur": 409400,
        "typeLocal": "Maison",
        "surfaceM2": 98,
        "isVefa": false
      }
    ]
  },
  "daccdda772be": {
    "id": "daccdda772be",
    "label": "24 RUE DE L HORTUS, Saint-Gély-du-Fesc",
    "lat": 43.69826,
    "lng": 3.805049,
    "transactions": [
      {
        "date": "2021-07-20",
        "priceEur": 323100,
        "typeLocal": "Maison",
        "surfaceM2": 83,
        "isVefa": false
      }
    ]
  },
  "9d5c4d89d261": {
    "id": "9d5c4d89d261",
    "label": "18 RUE DU CLAU, Saint-Gély-du-Fesc",
    "lat": 43.698259,
    "lng": 3.807477,
    "transactions": [
      {
        "date": "2021-07-19",
        "priceEur": 581625,
        "typeLocal": "Maison",
        "surfaceM2": 131,
        "isVefa": false
      }
    ]
  },
  "9bce597a0bdf": {
    "id": "9bce597a0bdf",
    "label": "253 RUE DES BOUTONS D OR, Saint-Gély-du-Fesc",
    "lat": 43.694797,
    "lng": 3.810473,
    "transactions": [
      {
        "date": "2022-06-16",
        "priceEur": 364000,
        "typeLocal": "Maison",
        "surfaceM2": 103,
        "isVefa": false
      },
      {
        "date": "2021-08-16",
        "priceEur": 364000,
        "typeLocal": "Maison",
        "surfaceM2": 103,
        "isVefa": false
      }
    ]
  },
  "a90baebc8f80": {
    "id": "a90baebc8f80",
    "label": "12 RUE DES AMANDIERS, Saint-Gély-du-Fesc",
    "lat": 43.695839,
    "lng": 3.803521,
    "transactions": [
      {
        "date": "2021-08-27",
        "priceEur": 355055,
        "typeLocal": "Maison",
        "surfaceM2": 115,
        "isVefa": false
      }
    ]
  },
  "6b6b7ea9da9c": {
    "id": "6b6b7ea9da9c",
    "label": "267 RUE DU BOSC, Saint-Gély-du-Fesc",
    "lat": 43.692625,
    "lng": 3.811322,
    "transactions": [
      {
        "date": "2021-08-25",
        "priceEur": 308000,
        "typeLocal": "Maison",
        "surfaceM2": 134,
        "isVefa": false
      },
      {
        "date": "2021-08-25",
        "priceEur": 308000,
        "typeLocal": "Maison",
        "surfaceM2": 134,
        "isVefa": false
      },
      {
        "date": "2021-08-25",
        "priceEur": 420000,
        "typeLocal": "Maison",
        "surfaceM2": 134,
        "isVefa": false
      },
      {
        "date": "2021-08-25",
        "priceEur": 420000,
        "typeLocal": "Maison",
        "surfaceM2": 134,
        "isVefa": false
      }
    ]
  },
  "a03ce7ce5f09": {
    "id": "a03ce7ce5f09",
    "label": "2 CLOS DU PETIT PARIS, Saint-Gély-du-Fesc",
    "lat": 43.693121,
    "lng": 3.804305,
    "transactions": [
      {
        "date": "2021-09-10",
        "priceEur": 839200,
        "typeLocal": "Maison",
        "surfaceM2": 170,
        "isVefa": false
      }
    ]
  },
  "d107fc37cf0d": {
    "id": "d107fc37cf0d",
    "label": "105 RUE DE LA FREGERE, Saint-Gély-du-Fesc",
    "lat": 43.694767,
    "lng": 3.806477,
    "transactions": [
      {
        "date": "2021-09-23",
        "priceEur": 327700,
        "typeLocal": "Maison",
        "surfaceM2": 103,
        "isVefa": false
      }
    ]
  },
  "c6ba9314afe7": {
    "id": "c6ba9314afe7",
    "label": "426 GR GRAND RUE, Saint-Gély-du-Fesc",
    "lat": 43.69429,
    "lng": 3.805871,
    "transactions": [
      {
        "date": "2021-09-30",
        "priceEur": 465600,
        "typeLocal": "Maison",
        "surfaceM2": 135,
        "isVefa": false
      }
    ]
  },
  "cab997fec4de": {
    "id": "cab997fec4de",
    "label": "95 RUE DE LA FREGERE, Saint-Gély-du-Fesc",
    "lat": 43.694898,
    "lng": 3.806447,
    "transactions": [
      {
        "date": "2021-09-07",
        "priceEur": 98000,
        "typeLocal": "Maison",
        "surfaceM2": 92,
        "isVefa": false
      }
    ]
  },
  "36a3e5ffa8ff": {
    "id": "36a3e5ffa8ff",
    "label": "90 RUE DU MAS DE FINET, Saint-Gély-du-Fesc",
    "lat": 43.69731,
    "lng": 3.80646,
    "transactions": [
      {
        "date": "2022-06-14",
        "priceEur": 208000,
        "typeLocal": "Appartement",
        "surfaceM2": 40,
        "isVefa": false
      },
      {
        "date": "2022-03-07",
        "priceEur": 283200,
        "typeLocal": "Maison",
        "surfaceM2": 53,
        "isVefa": false
      },
      {
        "date": "2021-09-27",
        "priceEur": 280930,
        "typeLocal": "Maison",
        "surfaceM2": 53,
        "isVefa": false
      }
    ]
  },
  "d70d1aebb2be": {
    "id": "d70d1aebb2be",
    "label": "109 RUE DU ROSSIGNOL, Saint-Gély-du-Fesc",
    "lat": 43.698571,
    "lng": 3.809714,
    "transactions": [
      {
        "date": "2021-10-19",
        "priceEur": 451500,
        "typeLocal": "Maison",
        "surfaceM2": 138,
        "isVefa": false
      }
    ]
  },
  "51af13323226": {
    "id": "51af13323226",
    "label": "135 RUE DE LA CANNELLE, Saint-Gély-du-Fesc",
    "lat": 43.692286,
    "lng": 3.803444,
    "transactions": [
      {
        "date": "2021-10-01",
        "priceEur": 241000,
        "typeLocal": "Maison",
        "surfaceM2": 75,
        "isVefa": false
      }
    ]
  },
  "3e713e051408": {
    "id": "3e713e051408",
    "label": "26B CLOS DU JEU DE BOULES, Saint-Gély-du-Fesc",
    "lat": 43.693455,
    "lng": 3.804813,
    "transactions": [
      {
        "date": "2021-11-24",
        "priceEur": 483080,
        "typeLocal": "Maison",
        "surfaceM2": 121,
        "isVefa": false
      }
    ]
  },
  "b538d2a7d48e": {
    "id": "b538d2a7d48e",
    "label": "311 RUE DU PATUS, Saint-Gély-du-Fesc",
    "lat": 43.692178,
    "lng": 3.809331,
    "transactions": [
      {
        "date": "2021-12-02",
        "priceEur": 583870,
        "typeLocal": "Maison",
        "surfaceM2": 139,
        "isVefa": false
      }
    ]
  },
  "7aa8367f3417": {
    "id": "7aa8367f3417",
    "label": "181 GR GRAND RUE, Saint-Gély-du-Fesc",
    "lat": 43.692058,
    "lng": 3.805989,
    "transactions": [
      {
        "date": "2021-12-22",
        "priceEur": 600000,
        "typeLocal": "Maison",
        "surfaceM2": 178,
        "isVefa": false
      }
    ]
  },
  "3e059db9e874": {
    "id": "3e059db9e874",
    "label": "153 AV DU PIC ST LOUP, Saint-Gély-du-Fesc",
    "lat": 43.691794,
    "lng": 3.80691,
    "transactions": [
      {
        "date": "2021-12-28",
        "priceEur": 400000,
        "typeLocal": "Maison",
        "surfaceM2": 124,
        "isVefa": false
      }
    ]
  },
  "4b3e7abb71f7": {
    "id": "4b3e7abb71f7",
    "label": "48 RUE DES LAURIERS, Saint-Gély-du-Fesc",
    "lat": 43.696816,
    "lng": 3.802673,
    "transactions": [
      {
        "date": "2021-12-22",
        "priceEur": 645635,
        "typeLocal": "Maison",
        "surfaceM2": 104,
        "isVefa": false
      }
    ]
  },
  "5188474d9667": {
    "id": "5188474d9667",
    "label": "345 GR GRAND RUE, Saint-Gély-du-Fesc",
    "lat": 43.693538,
    "lng": 3.805429,
    "transactions": [
      {
        "date": "2022-06-17",
        "priceEur": 369490,
        "typeLocal": "Appartement",
        "surfaceM2": 99,
        "isVefa": false
      },
      {
        "date": "2022-01-17",
        "priceEur": 55000,
        "typeLocal": "Appartement",
        "surfaceM2": 23,
        "isVefa": false
      }
    ]
  },
  "75a5a05e1e6d": {
    "id": "75a5a05e1e6d",
    "label": "59 RUE PICA TALEN, Saint-Gély-du-Fesc",
    "lat": 43.697773,
    "lng": 3.804372,
    "transactions": [
      {
        "date": "2022-02-03",
        "priceEur": 216430,
        "typeLocal": "Maison",
        "surfaceM2": 88,
        "isVefa": false
      }
    ]
  },
  "861f7e613aef": {
    "id": "861f7e613aef",
    "label": "3 RUE DU PETIT PARIS, Saint-Gély-du-Fesc",
    "lat": 43.692913,
    "lng": 3.804752,
    "transactions": [
      {
        "date": "2022-02-04",
        "priceEur": 155000,
        "typeLocal": "Maison",
        "surfaceM2": 50,
        "isVefa": false
      }
    ]
  },
  "497aa6d1aaf3": {
    "id": "497aa6d1aaf3",
    "label": "32 CLOS DU JEU DE BOULES, Saint-Gély-du-Fesc",
    "lat": 43.693329,
    "lng": 3.805044,
    "transactions": [
      {
        "date": "2022-03-04",
        "priceEur": 507400,
        "typeLocal": "Appartement",
        "surfaceM2": 155,
        "isVefa": false
      },
      {
        "date": "2022-02-18",
        "priceEur": 452515,
        "typeLocal": "Appartement",
        "surfaceM2": 134,
        "isVefa": false
      }
    ]
  },
  "2c9b15b8f338": {
    "id": "2c9b15b8f338",
    "label": "69 RUE CHAMP DE LA CROIX, Saint-Gély-du-Fesc",
    "lat": 43.695853,
    "lng": 3.802405,
    "transactions": [
      {
        "date": "2022-02-18",
        "priceEur": 411000,
        "typeLocal": "Maison",
        "surfaceM2": 108,
        "isVefa": false
      }
    ]
  },
  "72ab5c598c14": {
    "id": "72ab5c598c14",
    "label": "199 RUE DU PATUS, Saint-Gély-du-Fesc",
    "lat": 43.692257,
    "lng": 3.807874,
    "transactions": [
      {
        "date": "2022-02-08",
        "priceEur": 370000,
        "typeLocal": "Maison",
        "surfaceM2": 109,
        "isVefa": false
      }
    ]
  },
  "85651d9e34e8": {
    "id": "85651d9e34e8",
    "label": "73 RUE DE VALENE, Saint-Gély-du-Fesc",
    "lat": 43.694223,
    "lng": 3.804471,
    "transactions": [
      {
        "date": "2022-03-14",
        "priceEur": 4000,
        "typeLocal": "Maison",
        "surfaceM2": 96,
        "isVefa": false
      }
    ]
  },
  "2b269dbb23b8": {
    "id": "2b269dbb23b8",
    "label": "82 RUE DU JEU DE MAIL, Saint-Gély-du-Fesc",
    "lat": 43.697186,
    "lng": 3.808714,
    "transactions": [
      {
        "date": "2022-03-21",
        "priceEur": 457000,
        "typeLocal": "Maison",
        "surfaceM2": 92,
        "isVefa": false
      }
    ]
  },
  "3565b0df71da": {
    "id": "3565b0df71da",
    "label": "294 RUE DES BOUTONS D OR, Saint-Gély-du-Fesc",
    "lat": 43.694431,
    "lng": 3.810158,
    "transactions": [
      {
        "date": "2022-03-31",
        "priceEur": 410000,
        "typeLocal": "Maison",
        "surfaceM2": 141,
        "isVefa": false
      },
      {
        "date": "2022-03-31",
        "priceEur": 410000,
        "typeLocal": "Appartement",
        "surfaceM2": 20,
        "isVefa": false
      }
    ]
  },
  "8ec83648c093": {
    "id": "8ec83648c093",
    "label": "7 RUE DU PETIT PARIS, Saint-Gély-du-Fesc",
    "lat": 43.692987,
    "lng": 3.80475,
    "transactions": [
      {
        "date": "2022-04-14",
        "priceEur": 103000,
        "typeLocal": "Maison",
        "surfaceM2": 57,
        "isVefa": false
      }
    ]
  },
  "6800a73040c3": {
    "id": "6800a73040c3",
    "label": "5 RUE DU PETIT PARIS, Saint-Gély-du-Fesc",
    "lat": 43.69295,
    "lng": 3.804763,
    "transactions": [
      {
        "date": "2022-04-14",
        "priceEur": 103000,
        "typeLocal": "Appartement",
        "surfaceM2": 28,
        "isVefa": false
      }
    ]
  },
  "716735dec2a9": {
    "id": "716735dec2a9",
    "label": "98 RUE DES LILAS, Saint-Gély-du-Fesc",
    "lat": 43.694365,
    "lng": 3.801495,
    "transactions": [
      {
        "date": "2022-04-28",
        "priceEur": 345000,
        "typeLocal": "Maison",
        "surfaceM2": 92,
        "isVefa": false
      }
    ]
  },
  "d6c895400fdf": {
    "id": "d6c895400fdf",
    "label": "43 RUE DE VALENE, Saint-Gély-du-Fesc",
    "lat": 43.694223,
    "lng": 3.804471,
    "transactions": [
      {
        "date": "2023-03-30",
        "priceEur": 419800,
        "typeLocal": "Appartement",
        "surfaceM2": 90,
        "isVefa": false
      },
      {
        "date": "2022-06-08",
        "priceEur": 230000,
        "typeLocal": "Appartement",
        "surfaceM2": 55,
        "isVefa": false
      }
    ]
  },
  "e6071f51b056": {
    "id": "e6071f51b056",
    "label": "186 RUE DU PETIT PARIS, Saint-Gély-du-Fesc",
    "lat": 43.694165,
    "lng": 3.803928,
    "transactions": [
      {
        "date": "2025-03-10",
        "priceEur": 419000,
        "typeLocal": "Appartement",
        "surfaceM2": 97,
        "isVefa": false
      },
      {
        "date": "2023-07-04",
        "priceEur": 355000,
        "typeLocal": "Appartement",
        "surfaceM2": 100,
        "isVefa": false
      },
      {
        "date": "2022-06-20",
        "priceEur": 380000,
        "typeLocal": "Appartement",
        "surfaceM2": 97,
        "isVefa": false
      }
    ]
  },
  "cecb9adda4ac": {
    "id": "cecb9adda4ac",
    "label": "258 RUE DU CLAU, Saint-Gély-du-Fesc",
    "lat": 43.696993,
    "lng": 3.80999,
    "transactions": [
      {
        "date": "2022-06-29",
        "priceEur": 668840,
        "typeLocal": "Maison",
        "surfaceM2": 174,
        "isVefa": false
      }
    ]
  },
  "7d08f357d1f6": {
    "id": "7d08f357d1f6",
    "label": "53 RUE DE LA FREGERE, Saint-Gély-du-Fesc",
    "lat": 43.695352,
    "lng": 3.806374,
    "transactions": [
      {
        "date": "2022-06-30",
        "priceEur": 398600,
        "typeLocal": "Maison",
        "surfaceM2": 100,
        "isVefa": false
      }
    ]
  },
  "d2f76680089c": {
    "id": "d2f76680089c",
    "label": "254 GR GRAND RUE, Saint-Gély-du-Fesc",
    "lat": 43.692781,
    "lng": 3.805947,
    "transactions": [
      {
        "date": "2022-08-25",
        "priceEur": 435000,
        "typeLocal": "Appartement",
        "surfaceM2": 58,
        "isVefa": false
      },
      {
        "date": "2022-08-25",
        "priceEur": 435000,
        "typeLocal": "Appartement",
        "surfaceM2": 56,
        "isVefa": false
      }
    ]
  },
  "31e88f6f35ca": {
    "id": "31e88f6f35ca",
    "label": "326 RUE DU MAS DE FINET, Saint-Gély-du-Fesc",
    "lat": 43.698875,
    "lng": 3.807997,
    "transactions": [
      {
        "date": "2022-10-03",
        "priceEur": 491500,
        "typeLocal": "Maison",
        "surfaceM2": 138,
        "isVefa": false
      }
    ]
  },
  "eb018f5976b6": {
    "id": "eb018f5976b6",
    "label": "62 IMP DU CARROSSE, Saint-Gély-du-Fesc",
    "lat": 43.698415,
    "lng": 3.803814,
    "transactions": [
      {
        "date": "2022-10-03",
        "priceEur": 357300,
        "typeLocal": "Maison",
        "surfaceM2": 88,
        "isVefa": false
      }
    ]
  },
  "e7190ae14cc8": {
    "id": "e7190ae14cc8",
    "label": "164 RUE PUECH DE BRISSAC, Saint-Gély-du-Fesc",
    "lat": 43.698658,
    "lng": 3.802839,
    "transactions": [
      {
        "date": "2022-11-07",
        "priceEur": 410965,
        "typeLocal": "Maison",
        "surfaceM2": 105,
        "isVefa": false
      }
    ]
  },
  "42dd28cfd241": {
    "id": "42dd28cfd241",
    "label": "206 RUE DE COULONDRES, Saint-Gély-du-Fesc",
    "lat": 43.694595,
    "lng": 3.807744,
    "transactions": [
      {
        "date": "2022-11-09",
        "priceEur": 355000,
        "typeLocal": "Maison",
        "surfaceM2": 88,
        "isVefa": false
      }
    ]
  },
  "97ccba0afaaa": {
    "id": "97ccba0afaaa",
    "label": "69 RUE PUECH DE BRISSAC, Saint-Gély-du-Fesc",
    "lat": 43.699264,
    "lng": 3.803764,
    "transactions": [
      {
        "date": "2022-12-23",
        "priceEur": 343650,
        "typeLocal": "Maison",
        "surfaceM2": 88,
        "isVefa": false
      }
    ]
  },
  "186f5becde20": {
    "id": "186f5becde20",
    "label": "350 RUE DE VALENE, Saint-Gély-du-Fesc",
    "lat": 43.695615,
    "lng": 3.801328,
    "transactions": [
      {
        "date": "2023-01-18",
        "priceEur": 580000,
        "typeLocal": "Appartement",
        "surfaceM2": 150,
        "isVefa": false
      }
    ]
  },
  "c23672948df9": {
    "id": "c23672948df9",
    "label": "85 RUE DE LA CANNELLE, Saint-Gély-du-Fesc",
    "lat": 43.692549,
    "lng": 3.802318,
    "transactions": [
      {
        "date": "2023-01-18",
        "priceEur": 379500,
        "typeLocal": "Maison",
        "surfaceM2": 92,
        "isVefa": false
      }
    ]
  },
  "02191aaa7709": {
    "id": "02191aaa7709",
    "label": "90 PL DE L EGLISE, Saint-Gély-du-Fesc",
    "lat": 43.692924,
    "lng": 3.804638,
    "transactions": [
      {
        "date": "2023-01-31",
        "priceEur": 140000,
        "typeLocal": "Maison",
        "surfaceM2": 39,
        "isVefa": false
      }
    ]
  },
  "9cbdd8a2c02c": {
    "id": "9cbdd8a2c02c",
    "label": "179 AV DES CEVENNES, Saint-Gély-du-Fesc",
    "lat": 43.697807,
    "lng": 3.804823,
    "transactions": [
      {
        "date": "2023-01-31",
        "priceEur": 437000,
        "typeLocal": "Appartement",
        "surfaceM2": 151,
        "isVefa": false
      }
    ]
  },
  "c74604379b47": {
    "id": "c74604379b47",
    "label": "90 ALL DE LA CANNELLE, Saint-Gély-du-Fesc",
    "lat": 43.693051,
    "lng": 3.802297,
    "transactions": [
      {
        "date": "2023-02-09",
        "priceEur": 730171,
        "typeLocal": "Maison",
        "surfaceM2": 144,
        "isVefa": false
      },
      {
        "date": "2023-02-09",
        "priceEur": 730171,
        "typeLocal": "Maison",
        "surfaceM2": 144,
        "isVefa": false
      }
    ]
  },
  "4d7c0ea2f610": {
    "id": "4d7c0ea2f610",
    "label": "65 RUE DES CARAVETTES, Saint-Gély-du-Fesc",
    "lat": 43.697988,
    "lng": 3.801336,
    "transactions": [
      {
        "date": "2024-01-22",
        "priceEur": 616500,
        "typeLocal": "Appartement",
        "surfaceM2": 108,
        "isVefa": false
      },
      {
        "date": "2023-02-02",
        "priceEur": 230150,
        "typeLocal": "Appartement",
        "surfaceM2": 45,
        "isVefa": false
      }
    ]
  },
  "03860d8d6513": {
    "id": "03860d8d6513",
    "label": "248 RUE DES BOUTONS D OR, Saint-Gély-du-Fesc",
    "lat": 43.69508,
    "lng": 3.810353,
    "transactions": [
      {
        "date": "2023-02-07",
        "priceEur": 410000,
        "typeLocal": "Maison",
        "surfaceM2": 106,
        "isVefa": false
      }
    ]
  },
  "e180f07168f7": {
    "id": "e180f07168f7",
    "label": "409 GR GRAND RUE, Saint-Gély-du-Fesc",
    "lat": 43.694223,
    "lng": 3.804471,
    "transactions": [
      {
        "date": "2023-02-17",
        "priceEur": 365100,
        "typeLocal": "Appartement",
        "surfaceM2": 113,
        "isVefa": false
      }
    ]
  },
  "4769c0787262": {
    "id": "4769c0787262",
    "label": "28 CLOS DU JEU DE BOULES, Saint-Gély-du-Fesc",
    "lat": 43.693404,
    "lng": 3.805285,
    "transactions": [
      {
        "date": "2023-04-12",
        "priceEur": 130000,
        "typeLocal": "Maison",
        "surfaceM2": 27,
        "isVefa": false
      }
    ]
  },
  "73d72ea001f1": {
    "id": "73d72ea001f1",
    "label": "106 RUE DES LILAS, Saint-Gély-du-Fesc",
    "lat": 43.694365,
    "lng": 3.801495,
    "transactions": [
      {
        "date": "2023-04-13",
        "priceEur": 360000,
        "typeLocal": "Maison",
        "surfaceM2": 92,
        "isVefa": false
      }
    ]
  },
  "69a223c62f02": {
    "id": "69a223c62f02",
    "label": "37 IMP DU CARROSSE, Saint-Gély-du-Fesc",
    "lat": 43.698867,
    "lng": 3.803926,
    "transactions": [
      {
        "date": "2023-04-11",
        "priceEur": 318900,
        "typeLocal": "Maison",
        "surfaceM2": 88,
        "isVefa": false
      }
    ]
  },
  "cd2803698934": {
    "id": "cd2803698934",
    "label": "611 GR GRAND RUE, Saint-Gély-du-Fesc",
    "lat": 43.695844,
    "lng": 3.805538,
    "transactions": [
      {
        "date": "2024-09-23",
        "priceEur": 370000,
        "typeLocal": "Maison",
        "surfaceM2": 105,
        "isVefa": false
      },
      {
        "date": "2023-04-06",
        "priceEur": 151000,
        "typeLocal": "Appartement",
        "surfaceM2": 43,
        "isVefa": false
      }
    ]
  },
  "61a48e6964ea": {
    "id": "61a48e6964ea",
    "label": "168 RUE DU ROSSIGNOL, Saint-Gély-du-Fesc",
    "lat": 43.698555,
    "lng": 3.810375,
    "transactions": [
      {
        "date": "2023-04-20",
        "priceEur": 345650,
        "typeLocal": "Maison",
        "surfaceM2": 83,
        "isVefa": false
      }
    ]
  },
  "6dc657e53b17": {
    "id": "6dc657e53b17",
    "label": "10 RUE DES LAVANDINS, Saint-Gély-du-Fesc",
    "lat": 43.695208,
    "lng": 3.806832,
    "transactions": [
      {
        "date": "2024-12-13",
        "priceEur": 135000,
        "typeLocal": "Appartement",
        "surfaceM2": 38,
        "isVefa": false
      },
      {
        "date": "2024-08-27",
        "priceEur": 136500,
        "typeLocal": "Appartement",
        "surfaceM2": 43,
        "isVefa": false
      },
      {
        "date": "2024-07-05",
        "priceEur": 127050,
        "typeLocal": "Appartement",
        "surfaceM2": 34,
        "isVefa": false
      },
      {
        "date": "2023-05-02",
        "priceEur": 145000,
        "typeLocal": "Appartement",
        "surfaceM2": 35,
        "isVefa": false
      }
    ]
  },
  "21927a05fe93": {
    "id": "21927a05fe93",
    "label": "61 AV DES CEVENNES, Saint-Gély-du-Fesc",
    "lat": 43.697012,
    "lng": 3.805278,
    "transactions": [
      {
        "date": "2023-05-02",
        "priceEur": 245000,
        "typeLocal": "Appartement",
        "surfaceM2": 67,
        "isVefa": false
      }
    ]
  },
  "647da5466bac": {
    "id": "647da5466bac",
    "label": "181 RUE DE LA CANNELLE, Saint-Gély-du-Fesc",
    "lat": 43.691879,
    "lng": 3.803252,
    "transactions": [
      {
        "date": "2023-05-26",
        "priceEur": 700000,
        "typeLocal": "Maison",
        "surfaceM2": 143,
        "isVefa": false
      }
    ]
  },
  "057d7aeed481": {
    "id": "057d7aeed481",
    "label": "26 RUE DES ROCAILLES, Saint-Gély-du-Fesc",
    "lat": 43.694215,
    "lng": 3.807338,
    "transactions": [
      {
        "date": "2023-06-09",
        "priceEur": 305000,
        "typeLocal": "Maison",
        "surfaceM2": 103,
        "isVefa": false
      }
    ]
  },
  "d3ef3c0bdff7": {
    "id": "d3ef3c0bdff7",
    "label": "673 GR GRAND RUE, Saint-Gély-du-Fesc",
    "lat": 43.696447,
    "lng": 3.80566,
    "transactions": [
      {
        "date": "2023-06-15",
        "priceEur": 427775,
        "typeLocal": "Maison",
        "surfaceM2": 96,
        "isVefa": false
      }
    ]
  },
  "d50e4d5b5ba2": {
    "id": "d50e4d5b5ba2",
    "label": "57 RUE DES LAURIERS, Saint-Gély-du-Fesc",
    "lat": 43.696554,
    "lng": 3.802498,
    "transactions": [
      {
        "date": "2023-06-23",
        "priceEur": 40000,
        "typeLocal": "Maison",
        "surfaceM2": 104,
        "isVefa": false
      }
    ]
  },
  "12da6d538d4d": {
    "id": "12da6d538d4d",
    "label": "133 AV DU MAS DE FINET, Saint-Gély-du-Fesc",
    "lat": 43.697943,
    "lng": 3.805945,
    "transactions": [
      {
        "date": "2023-06-29",
        "priceEur": 811400,
        "typeLocal": "Maison",
        "surfaceM2": 168,
        "isVefa": false
      }
    ]
  },
  "ac86f9b8d3a5": {
    "id": "ac86f9b8d3a5",
    "label": "301 RUE DU CHAMP DE LA BLANCHE, Saint-Gély-du-Fesc",
    "lat": 43.698092,
    "lng": 3.807882,
    "transactions": [
      {
        "date": "2023-07-20",
        "priceEur": 541000,
        "typeLocal": "Maison",
        "surfaceM2": 106,
        "isVefa": false
      }
    ]
  },
  "619209e7398b": {
    "id": "619209e7398b",
    "label": "223 RUE DU BOSC, Saint-Gély-du-Fesc",
    "lat": 43.692332,
    "lng": 3.8114,
    "transactions": [
      {
        "date": "2023-07-27",
        "priceEur": 616520,
        "typeLocal": "Maison",
        "surfaceM2": 110,
        "isVefa": false
      },
      {
        "date": "2023-07-27",
        "priceEur": 616520,
        "typeLocal": "Maison",
        "surfaceM2": 110,
        "isVefa": false
      }
    ]
  },
  "b96a168c4e6b": {
    "id": "b96a168c4e6b",
    "label": "32 RUE DU FOURNIL, Saint-Gély-du-Fesc",
    "lat": 43.692553,
    "lng": 3.805446,
    "transactions": [
      {
        "date": "2023-07-27",
        "priceEur": 193065,
        "typeLocal": "Maison",
        "surfaceM2": 102,
        "isVefa": false
      }
    ]
  },
  "d900a45541b9": {
    "id": "d900a45541b9",
    "label": "136 RUE PICA TALEN, Saint-Gély-du-Fesc",
    "lat": 43.697463,
    "lng": 3.803441,
    "transactions": [
      {
        "date": "2023-08-21",
        "priceEur": 395000,
        "typeLocal": "Maison",
        "surfaceM2": 90,
        "isVefa": false
      }
    ]
  },
  "1d3ac4dde5bc": {
    "id": "1d3ac4dde5bc",
    "label": "20 PL DE VERDUN, Saint-Gély-du-Fesc",
    "lat": 43.692221,
    "lng": 3.803682,
    "transactions": [
      {
        "date": "2023-08-04",
        "priceEur": 468000,
        "typeLocal": "Maison",
        "surfaceM2": 80,
        "isVefa": false
      }
    ]
  },
  "9ab06d8b734d": {
    "id": "9ab06d8b734d",
    "label": "73 RUE DES LAVANDINS, Saint-Gély-du-Fesc",
    "lat": 43.696383,
    "lng": 3.806855,
    "transactions": [
      {
        "date": "2023-09-14",
        "priceEur": 350000,
        "typeLocal": "Maison",
        "surfaceM2": 92,
        "isVefa": false
      }
    ]
  },
  "abab4c0de848": {
    "id": "abab4c0de848",
    "label": "135 RUE DE L HORTUS, Saint-Gély-du-Fesc",
    "lat": 43.699469,
    "lng": 3.805176,
    "transactions": [
      {
        "date": "2023-09-25",
        "priceEur": 520875,
        "typeLocal": "Maison",
        "surfaceM2": 109,
        "isVefa": false
      }
    ]
  },
  "f001ec77033f": {
    "id": "f001ec77033f",
    "label": "8 CLOS DU PETIT PARIS, Saint-Gély-du-Fesc",
    "lat": 43.693041,
    "lng": 3.804169,
    "transactions": [
      {
        "date": "2023-09-27",
        "priceEur": 240000,
        "typeLocal": "Maison",
        "surfaceM2": 65,
        "isVefa": false
      }
    ]
  },
  "f73300eed46a": {
    "id": "f73300eed46a",
    "label": "7 RUE DU PRESBYTERE, Saint-Gély-du-Fesc",
    "lat": 43.693058,
    "lng": 3.80404,
    "transactions": [
      {
        "date": "2023-09-27",
        "priceEur": 240000,
        "typeLocal": "Maison",
        "surfaceM2": 260,
        "isVefa": false
      }
    ]
  },
  "14447f0ef8e1": {
    "id": "14447f0ef8e1",
    "label": "62 RUE DES LILAS, Saint-Gély-du-Fesc",
    "lat": 43.694365,
    "lng": 3.801495,
    "transactions": [
      {
        "date": "2023-10-04",
        "priceEur": 336000,
        "typeLocal": "Maison",
        "surfaceM2": 92,
        "isVefa": false
      }
    ]
  },
  "7858c7141046": {
    "id": "7858c7141046",
    "label": "45 RUE DE LA CANNELLE, Saint-Gély-du-Fesc",
    "lat": 43.692417,
    "lng": 3.802742,
    "transactions": [
      {
        "date": "2023-10-24",
        "priceEur": 350000,
        "typeLocal": "Maison",
        "surfaceM2": 81,
        "isVefa": false
      }
    ]
  },
  "a2306c6e536a": {
    "id": "a2306c6e536a",
    "label": "152 RUE DES BOUTONS D OR, Saint-Gély-du-Fesc",
    "lat": 43.695799,
    "lng": 3.811002,
    "transactions": [
      {
        "date": "2023-11-24",
        "priceEur": 96000,
        "typeLocal": "Maison",
        "surfaceM2": 95,
        "isVefa": false
      }
    ]
  },
  "21a6831d7a9d": {
    "id": "21a6831d7a9d",
    "label": "254 RUE DES BOUTONS D OR, Saint-Gély-du-Fesc",
    "lat": 43.695,
    "lng": 3.810184,
    "transactions": [
      {
        "date": "2023-12-12",
        "priceEur": 450338,
        "typeLocal": "Maison",
        "surfaceM2": 75,
        "isVefa": false
      }
    ]
  },
  "882a4625adc6": {
    "id": "882a4625adc6",
    "label": "189 RUE DE LA CANNELLE, Saint-Gély-du-Fesc",
    "lat": 43.691925,
    "lng": 3.802839,
    "transactions": [
      {
        "date": "2023-12-26",
        "priceEur": 470000,
        "typeLocal": "Maison",
        "surfaceM2": 100,
        "isVefa": false
      }
    ]
  },
  "7955f6dd3b6d": {
    "id": "7955f6dd3b6d",
    "label": "39 RUE DU PATUS, Saint-Gély-du-Fesc",
    "lat": 43.692948,
    "lng": 3.806255,
    "transactions": [
      {
        "date": "2023-12-29",
        "priceEur": 314840,
        "typeLocal": "Maison",
        "surfaceM2": 110,
        "isVefa": false
      }
    ]
  },
  "03bca6efae9d": {
    "id": "03bca6efae9d",
    "label": "203 GR GRAND RUE, Saint-Gély-du-Fesc",
    "lat": 43.69218,
    "lng": 3.805971,
    "transactions": [
      {
        "date": "2023-12-29",
        "priceEur": 42000,
        "typeLocal": "Maison",
        "surfaceM2": 70,
        "isVefa": false
      }
    ]
  },
  "14244cb44501": {
    "id": "14244cb44501",
    "label": "57 RUE DE LA CANNELLE, Saint-Gély-du-Fesc",
    "lat": 43.692487,
    "lng": 3.802504,
    "transactions": [
      {
        "date": "2024-03-26",
        "priceEur": 346500,
        "typeLocal": "Maison",
        "surfaceM2": 92,
        "isVefa": false
      }
    ]
  },
  "70b5e987b3b0": {
    "id": "70b5e987b3b0",
    "label": "76 RUE DE LA CANNELLE, Saint-Gély-du-Fesc",
    "lat": 43.692542,
    "lng": 3.804215,
    "transactions": [
      {
        "date": "2024-04-16",
        "priceEur": 292000,
        "typeLocal": "Appartement",
        "surfaceM2": 74,
        "isVefa": false
      }
    ]
  },
  "fb8150b61873": {
    "id": "fb8150b61873",
    "label": "293 RUE DE VALENE, Saint-Gély-du-Fesc",
    "lat": 43.694365,
    "lng": 3.801495,
    "transactions": [
      {
        "date": "2024-04-23",
        "priceEur": 389990,
        "typeLocal": "Maison",
        "surfaceM2": 92,
        "isVefa": false
      },
      {
        "date": "2024-04-23",
        "priceEur": 389990,
        "typeLocal": "Maison",
        "surfaceM2": 92,
        "isVefa": false
      }
    ]
  },
  "f7a3159dc2d0": {
    "id": "f7a3159dc2d0",
    "label": "68 RUE DE LA FONTGRANDE, Saint-Gély-du-Fesc",
    "lat": 43.692262,
    "lng": 3.805047,
    "transactions": [
      {
        "date": "2024-04-22",
        "priceEur": 280000,
        "typeLocal": "Maison",
        "surfaceM2": 80,
        "isVefa": false
      }
    ]
  },
  "eb392d5fe0f5": {
    "id": "eb392d5fe0f5",
    "label": "635 GR GRAND RUE, Saint-Gély-du-Fesc",
    "lat": 43.69619,
    "lng": 3.805455,
    "transactions": [
      {
        "date": "2024-04-30",
        "priceEur": 512000,
        "typeLocal": "Maison",
        "surfaceM2": 100,
        "isVefa": false
      }
    ]
  },
  "02c8fd87b0cc": {
    "id": "02c8fd87b0cc",
    "label": "35 RUE DES GRENACHES, Saint-Gély-du-Fesc",
    "lat": 43.697762,
    "lng": 3.803387,
    "transactions": [
      {
        "date": "2024-05-27",
        "priceEur": 268000,
        "typeLocal": "Maison",
        "surfaceM2": 88,
        "isVefa": false
      }
    ]
  },
  "610abcddc0de": {
    "id": "610abcddc0de",
    "label": "242 AV DU MAS DE FINET, Saint-Gély-du-Fesc",
    "lat": 43.698383,
    "lng": 3.807637,
    "transactions": [
      {
        "date": "2024-06-07",
        "priceEur": 487900,
        "typeLocal": "Maison",
        "surfaceM2": 160,
        "isVefa": false
      }
    ]
  },
  "c60526f4a860": {
    "id": "c60526f4a860",
    "label": "94 RUE DU BAYLE, Saint-Gély-du-Fesc",
    "lat": 43.697098,
    "lng": 3.804047,
    "transactions": [
      {
        "date": "2024-06-12",
        "priceEur": 293400,
        "typeLocal": "Appartement",
        "surfaceM2": 121,
        "isVefa": false
      }
    ]
  },
  "62b15464ecdb": {
    "id": "62b15464ecdb",
    "label": "144 RUE PUECH DE BRISSAC, Saint-Gély-du-Fesc",
    "lat": 43.698793,
    "lng": 3.803026,
    "transactions": [
      {
        "date": "2024-06-25",
        "priceEur": 369240,
        "typeLocal": "Maison",
        "surfaceM2": 88,
        "isVefa": false
      }
    ]
  },
  "a47d104874ab": {
    "id": "a47d104874ab",
    "label": "30 PL DE L EGLISE, Saint-Gély-du-Fesc",
    "lat": 43.693026,
    "lng": 3.805433,
    "transactions": [
      {
        "date": "2024-06-25",
        "priceEur": 165000,
        "typeLocal": "Maison",
        "surfaceM2": 102,
        "isVefa": false
      }
    ]
  },
  "78065765c15d": {
    "id": "78065765c15d",
    "label": "63 ALL D'AUGUSTA, Saint-Gély-du-Fesc",
    "lat": 43.697977,
    "lng": 3.810382,
    "transactions": [
      {
        "date": "2024-07-25",
        "priceEur": 834000,
        "typeLocal": "Maison",
        "surfaceM2": 165,
        "isVefa": false
      }
    ]
  },
  "7b2ca75c47ee": {
    "id": "7b2ca75c47ee",
    "label": "57 RUE DES PINS, Saint-Gély-du-Fesc",
    "lat": 43.696068,
    "lng": 3.808823,
    "transactions": [
      {
        "date": "2024-08-19",
        "priceEur": 1215000,
        "typeLocal": "Maison",
        "surfaceM2": 200,
        "isVefa": false
      },
      {
        "date": "2024-08-19",
        "priceEur": 1215000,
        "typeLocal": "Maison",
        "surfaceM2": 200,
        "isVefa": false
      }
    ]
  },
  "42a5eb5651fd": {
    "id": "42a5eb5651fd",
    "label": "543 GR GRAND RUE, Saint-Gély-du-Fesc",
    "lat": 43.695424,
    "lng": 3.805323,
    "transactions": [
      {
        "date": "2024-08-21",
        "priceEur": 420000,
        "typeLocal": "Appartement",
        "surfaceM2": 106,
        "isVefa": false
      }
    ]
  },
  "92ade83f74ca": {
    "id": "92ade83f74ca",
    "label": "54 RUE CHAMP DE LA CROIX, Saint-Gély-du-Fesc",
    "lat": 43.696221,
    "lng": 3.8027,
    "transactions": [
      {
        "date": "2024-08-02",
        "priceEur": 304000,
        "typeLocal": "Maison",
        "surfaceM2": 84,
        "isVefa": false
      }
    ]
  },
  "ae80d116680c": {
    "id": "ae80d116680c",
    "label": "156 AV DU MAS DE FINET, Saint-Gély-du-Fesc",
    "lat": 43.69772,
    "lng": 3.806853,
    "transactions": [
      {
        "date": "2024-08-29",
        "priceEur": 770000,
        "typeLocal": "Maison",
        "surfaceM2": 228,
        "isVefa": true
      },
      {
        "date": "2024-08-29",
        "priceEur": 770000,
        "typeLocal": "Maison",
        "surfaceM2": 228,
        "isVefa": true
      }
    ]
  },
  "9753590f39d5": {
    "id": "9753590f39d5",
    "label": "42 RUE DES LAURIERS, Saint-Gély-du-Fesc",
    "lat": 43.696833,
    "lng": 3.802864,
    "transactions": [
      {
        "date": "2024-08-30",
        "priceEur": 386330,
        "typeLocal": "Maison",
        "surfaceM2": 108,
        "isVefa": false
      }
    ]
  },
  "8c3746d79cae": {
    "id": "8c3746d79cae",
    "label": "15 RUE DES ROCAILLES, Saint-Gély-du-Fesc",
    "lat": 43.694394,
    "lng": 3.807544,
    "transactions": [
      {
        "date": "2024-10-08",
        "priceEur": 168282,
        "typeLocal": "Maison",
        "surfaceM2": 87,
        "isVefa": false
      }
    ]
  },
  "6ef5b09f3a96": {
    "id": "6ef5b09f3a96",
    "label": "13 RUE DE LA FREGERE, Saint-Gély-du-Fesc",
    "lat": 43.695623,
    "lng": 3.805784,
    "transactions": [
      {
        "date": "2024-10-30",
        "priceEur": 406500,
        "typeLocal": "Maison",
        "surfaceM2": 147,
        "isVefa": false
      }
    ]
  },
  "62c2a1ee9856": {
    "id": "62c2a1ee9856",
    "label": "45 RUE DES FRENES, Saint-Gély-du-Fesc",
    "lat": 43.694388,
    "lng": 3.802074,
    "transactions": [
      {
        "date": "2024-10-30",
        "priceEur": 317000,
        "typeLocal": "Maison",
        "surfaceM2": 82,
        "isVefa": false
      }
    ]
  },
  "ac55482b00b1": {
    "id": "ac55482b00b1",
    "label": "11 RUE DE LA TRAVERSIERE, Saint-Gély-du-Fesc",
    "lat": 43.691794,
    "lng": 3.80691,
    "transactions": [
      {
        "date": "2024-11-27",
        "priceEur": 385650,
        "typeLocal": "Maison",
        "surfaceM2": 87,
        "isVefa": false
      }
    ]
  },
  "fc145b3df556": {
    "id": "fc145b3df556",
    "label": "36 RUE DE L HORTUS, Saint-Gély-du-Fesc",
    "lat": 43.697925,
    "lng": 3.805347,
    "transactions": [
      {
        "date": "2024-12-12",
        "priceEur": 464500,
        "typeLocal": "Maison",
        "surfaceM2": 101,
        "isVefa": false
      }
    ]
  },
  "dbd2c0f203c6": {
    "id": "dbd2c0f203c6",
    "label": "252 RUE DE COULONDRES, Saint-Gély-du-Fesc",
    "lat": 43.694857,
    "lng": 3.80822,
    "transactions": [
      {
        "date": "2024-12-23",
        "priceEur": 320000,
        "typeLocal": "Maison",
        "surfaceM2": 88,
        "isVefa": false
      }
    ]
  },
  "6678373132a1": {
    "id": "6678373132a1",
    "label": "232 RUE DE LA CRX DE TRICOUX, Saint-Gély-du-Fesc",
    "lat": 43.69886,
    "lng": 3.809389,
    "transactions": [
      {
        "date": "2025-01-31",
        "priceEur": 398000,
        "typeLocal": "Maison",
        "surfaceM2": 104,
        "isVefa": false
      }
    ]
  },
  "200a48ce347a": {
    "id": "200a48ce347a",
    "label": "56 RUE DU DEVOIS, Saint-Gély-du-Fesc",
    "lat": 43.694689,
    "lng": 3.808759,
    "transactions": [
      {
        "date": "2025-02-05",
        "priceEur": 293500,
        "typeLocal": "Maison",
        "surfaceM2": 88,
        "isVefa": false
      }
    ]
  },
  "6ec0cca50c5e": {
    "id": "6ec0cca50c5e",
    "label": "177 ALL DU CLAU, Saint-Gély-du-Fesc",
    "lat": 43.699217,
    "lng": 3.809916,
    "transactions": [
      {
        "date": "2025-02-28",
        "priceEur": 345000,
        "typeLocal": "Maison",
        "surfaceM2": 89,
        "isVefa": false
      }
    ]
  },
  "406260aefea9": {
    "id": "406260aefea9",
    "label": "46 RUE DES AMANDIERS, Saint-Gély-du-Fesc",
    "lat": 43.69572,
    "lng": 3.804092,
    "transactions": [
      {
        "date": "2025-05-15",
        "priceEur": 437000,
        "typeLocal": "Maison",
        "surfaceM2": 100,
        "isVefa": false
      }
    ]
  },
  "5b3cfce6b3b7": {
    "id": "5b3cfce6b3b7",
    "label": "171 ALL DU CLAU, Saint-Gély-du-Fesc",
    "lat": 43.699452,
    "lng": 3.809524,
    "transactions": [
      {
        "date": "2025-05-28",
        "priceEur": 360000,
        "typeLocal": "Maison",
        "surfaceM2": 71,
        "isVefa": false
      }
    ]
  },
  "ac2506dfcffa": {
    "id": "ac2506dfcffa",
    "label": "39 RUE DES AIRES, Saint-Gély-du-Fesc",
    "lat": 43.69275,
    "lng": 3.803128,
    "transactions": [
      {
        "date": "2025-06-20",
        "priceEur": 678200,
        "typeLocal": "Maison",
        "surfaceM2": 156,
        "isVefa": false
      }
    ]
  }
}