{
  "0b5989900915": {
    "id": "0b5989900915",
    "label": "9 RUE HENRI DE VERGY, Juvignac",
    "lat": 43.617786,
    "lng": 3.802245,
    "transactions": [
      {
        "date": "2023-10-31",
        "priceEur": 314950,
        "typeLocal": "Maison",
        "surfaceM2": 83,
        "isVefa": false
      },
      {
        "date": "2020-07-09",
        "priceEur": 272000,
        "typeLocal": "Maison",
        "surfaceM2": 83,
        "isVefa": false
      }
    ]
  },
  "f98e891bd3e6": {
    "id": "f98e891bd3e6",
    "label": "5 RUE DES BERGERONNETTES, Juvignac",
    "lat": 43.614117,
    "lng": 3.809923,
    "transactions": [
      {
        "date": "2020-07-24",
        "priceEur": 300000,
        "typeLocal": "Maison",
        "surfaceM2": 100,
        "isVefa": false
      }
    ]
  },
  "28c708d5adb6": {
    "id": "28c708d5adb6",
    "label": "26A RUE DES VENEURS, Juvignac",
    "lat": 43.618579,
    "lng": 3.8013,
    "transactions": [
      {
        "date": "2020-08-21",
        "priceEur": 295000,
        "typeLocal": "Maison",
        "surfaceM2": 93,
        "isVefa": false
      }
    ]
  },
  "70f3b3eee946": {
    "id": "70f3b3eee946",
    "label": "44 RUE DU POUMPIDOU, Juvignac",
    "lat": 43.613778,
    "lng": 3.80129,
    "transactions": [
      {
        "date": "2025-03-17",
        "priceEur": 215000,
        "typeLocal": "Appartement",
        "surfaceM2": 69,
        "isVefa": false
      },
      {
        "date": "2025-02-25",
        "priceEur": 14000,
        "typeLocal": "Appartement",
        "surfaceM2": 66,
        "isVefa": false
      },
      {
        "date": "2024-09-13",
        "priceEur": 185000,
        "typeLocal": "Appartement",
        "surfaceM2": 66,
        "isVefa": false
      },
      {
        "date": "2024-09-04",
        "priceEur": 149000,
        "typeLocal": "Appartement",
        "surfaceM2": 47,
        "isVefa": false
      },
      {
        "date": "2024-08-07",
        "priceEur": 86500,
        "typeLocal": "Appartement",
        "surfaceM2": 23,
        "isVefa": false
      },
      {
        "date": "2024-06-24",
        "priceEur": 84000,
        "typeLocal": "Appartement",
        "surfaceM2": 23,
        "isVefa": false
      },
      {
        "date": "2024-05-23",
        "priceEur": 76900,
        "typeLocal": "Appartement",
        "surfaceM2": 23,
        "isVefa": false
      },
      {
        "date": "2024-04-02",
        "priceEur": 169260,
        "typeLocal": "Appartement",
        "surfaceM2": 59,
        "isVefa": false
      },
      {
        "date": "2024-01-26",
        "priceEur": 174000,
        "typeLocal": "Appartement",
        "surfaceM2": 59,
        "isVefa": false
      },
      {
        "date": "2023-12-22",
        "priceEur": 140190,
        "typeLocal": "Appartement",
        "surfaceM2": 35,
        "isVefa": false
      },
      {
        "date": "2023-10-17",
        "priceEur": 113000,
        "typeLocal": "Appartement",
        "surfaceM2": 29,
        "isVefa": false
      },
      {
        "date": "2023-06-12",
        "priceEur": 193400,
        "typeLocal": "Appartement",
        "surfaceM2": 61,
        "isVefa": false
      },
      {
        "date": "2023-06-09",
        "priceEur": 10000,
        "typeLocal": "Appartement",
        "surfaceM2": 23,
        "isVefa": false
      },
      {
        "date": "2022-04-28",
        "priceEur": 135050,
        "typeLocal": "Appartement",
        "surfaceM2": 45,
        "isVefa": false
      },
      {
        "date": "2022-01-27",
        "priceEur": 110700,
        "typeLocal": "Appartement",
        "surfaceM2": 29,
        "isVefa": false
      },
      {
        "date": "2021-10-19",
        "priceEur": 183000,
        "typeLocal": "Appartement",
        "surfaceM2": 43,
        "isVefa": false
      },
      {
        "date": "2021-08-31",
        "priceEur": 194000,
        "typeLocal": "Appartement",
        "surfaceM2": 67,
        "isVefa": false
      },
      {
        "date": "2021-07-07",
        "priceEur": 203800,
        "typeLocal": "Appartement",
        "surfaceM2": 62,
        "isVefa": false
      },
      {
        "date": "2021-06-18",
        "priceEur": 143000,
        "typeLocal": "Appartement",
        "surfaceM2": 43,
        "isVefa": false
      },
      {
        "date": "2020-12-17",
        "priceEur": 81300,
        "typeLocal": "Appartement",
        "surfaceM2": 23,
        "isVefa": false
      },
      {
        "date": "2020-09-21",
        "priceEur": 222000,
        "typeLocal": "Appartement",
        "surfaceM2": 66,
        "isVefa": false
      },
      {
        "date": "2020-07-31",
        "priceEur": 140000,
        "typeLocal": "Appartement",
        "surfaceM2": 47,
        "isVefa": false
      }
    ]
  },
  "b62b2e95674f": {
    "id": "b62b2e95674f",
    "label": "6 RUE DES URANIES, Juvignac",
    "lat": 43.616633,
    "lng": 3.803614,
    "transactions": [
      {
        "date": "2022-09-14",
        "priceEur": 279300,
        "typeLocal": "Maison",
        "surfaceM2": 102,
        "isVefa": false
      },
      {
        "date": "2020-09-03",
        "priceEur": 282750,
        "typeLocal": "Maison",
        "surfaceM2": 102,
        "isVefa": false
      }
    ]
  },
  "c31c5b81f5d1": {
    "id": "c31c5b81f5d1",
    "label": "1117 AV DE L'EUROPE, Juvignac",
    "lat": 43.613645,
    "lng": 3.803161,
    "transactions": [
      {
        "date": "2024-08-01",
        "priceEur": 364546,
        "typeLocal": "Appartement",
        "surfaceM2": 108,
        "isVefa": false
      },
      {
        "date": "2021-12-13",
        "priceEur": 123000,
        "typeLocal": "Appartement",
        "surfaceM2": 37,
        "isVefa": false
      },
      {
        "date": "2020-09-02",
        "priceEur": 186188,
        "typeLocal": "Appartement",
        "surfaceM2": 56,
        "isVefa": false
      }
    ]
  },
  "957ef33c3c98": {
    "id": "957ef33c3c98",
    "label": "18 RUE PROMETHEE, Juvignac",
    "lat": 43.618515,
    "lng": 3.80493,
    "transactions": [
      {
        "date": "2020-08-31",
        "priceEur": 320000,
        "typeLocal": "Maison",
        "surfaceM2": 91,
        "isVefa": false
      }
    ]
  },
  "b78aa68c7e0c": {
    "id": "b78aa68c7e0c",
    "label": "533 RUE JUPITER, Juvignac",
    "lat": 43.618576,
    "lng": 3.809723,
    "transactions": [
      {
        "date": "2025-05-15",
        "priceEur": 158800,
        "typeLocal": "Appartement",
        "surfaceM2": 45,
        "isVefa": false
      },
      {
        "date": "2025-04-02",
        "priceEur": 142000,
        "typeLocal": "Appartement",
        "surfaceM2": 47,
        "isVefa": false
      },
      {
        "date": "2025-03-11",
        "priceEur": 183720,
        "typeLocal": "Appartement",
        "surfaceM2": 61,
        "isVefa": false
      },
      {
        "date": "2025-02-21",
        "priceEur": 163400,
        "typeLocal": "Appartement",
        "surfaceM2": 38,
        "isVefa": false
      },
      {
        "date": "2024-12-16",
        "priceEur": 177630,
        "typeLocal": "Appartement",
        "surfaceM2": 57,
        "isVefa": false
      },
      {
        "date": "2024-11-15",
        "priceEur": 181470,
        "typeLocal": "Appartement",
        "surfaceM2": 59,
        "isVefa": false
      },
      {
        "date": "2024-10-09",
        "priceEur": 137500,
        "typeLocal": "Appartement",
        "surfaceM2": 46,
        "isVefa": false
      },
      {
        "date": "2024-06-13",
        "priceEur": 141150,
        "typeLocal": "Appartement",
        "surfaceM2": 42,
        "isVefa": false
      },
      {
        "date": "2024-05-06",
        "priceEur": 208650,
        "typeLocal": "Appartement",
        "surfaceM2": 65,
        "isVefa": false
      },
      {
        "date": "2024-04-30",
        "priceEur": 218000,
        "typeLocal": "Appartement",
        "surfaceM2": 67,
        "isVefa": false
      },
      {
        "date": "2024-02-19",
        "priceEur": 198000,
        "typeLocal": "Appartement",
        "surfaceM2": 61,
        "isVefa": false
      },
      {
        "date": "2024-01-12",
        "priceEur": 144000,
        "typeLocal": "Appartement",
        "surfaceM2": 47,
        "isVefa": false
      },
      {
        "date": "2023-12-21",
        "priceEur": 199500,
        "typeLocal": "Appartement",
        "surfaceM2": 62,
        "isVefa": false
      },
      {
        "date": "2023-11-09",
        "priceEur": 181000,
        "typeLocal": "Appartement",
        "surfaceM2": 60,
        "isVefa": false
      },
      {
        "date": "2023-09-20",
        "priceEur": 153600,
        "typeLocal": "Appartement",
        "surfaceM2": 40,
        "isVefa": false
      },
      {
        "date": "2023-09-07",
        "priceEur": 217000,
        "typeLocal": "Appartement",
        "surfaceM2": 65,
        "isVefa": false
      },
      {
        "date": "2023-07-19",
        "priceEur": 143000,
        "typeLocal": "Appartement",
        "surfaceM2": 48,
        "isVefa": false
      },
      {
        "date": "2023-06-29",
        "priceEur": 162000,
        "typeLocal": "Appartement",
        "surfaceM2": 52,
        "isVefa": false
      },
      {
        "date": "2023-06-23",
        "priceEur": 166900,
        "typeLocal": "Appartement",
        "surfaceM2": 50,
        "isVefa": false
      },
      {
        "date": "2023-06-20",
        "priceEur": 166950,
        "typeLocal": "Appartement",
        "surfaceM2": 47,
        "isVefa": false
      },
      {
        "date": "2023-06-19",
        "priceEur": 152400,
        "typeLocal": "Appartement",
        "surfaceM2": 47,
        "isVefa": false
      },
      {
        "date": "2023-05-30",
        "priceEur": 142000,
        "typeLocal": "Appartement",
        "surfaceM2": 36,
        "isVefa": false
      },
      {
        "date": "2023-05-23",
        "priceEur": 172000,
        "typeLocal": "Appartement",
        "surfaceM2": 48,
        "isVefa": false
      },
      {
        "date": "2023-05-02",
        "priceEur": 223270,
        "typeLocal": "Appartement",
        "surfaceM2": 66,
        "isVefa": false
      },
      {
        "date": "2023-04-13",
        "priceEur": 200000,
        "typeLocal": "Appartement",
        "surfaceM2": 58,
        "isVefa": false
      },
      {
        "date": "2023-01-20",
        "priceEur": 159000,
        "typeLocal": "Appartement",
        "surfaceM2": 46,
        "isVefa": false
      },
      {
        "date": "2022-12-14",
        "priceEur": 145500,
        "typeLocal": "Appartement",
        "surfaceM2": 40,
        "isVefa": false
      },
      {
        "date": "2022-12-13",
        "priceEur": 150000,
        "typeLocal": "Appartement",
        "surfaceM2": 38,
        "isVefa": false
      },
      {
        "date": "2022-11-16",
        "priceEur": 145000,
        "typeLocal": "Appartement",
        "surfaceM2": 37,
        "isVefa": false
      },
      {
        "date": "2022-11-09",
        "priceEur": 213000,
        "typeLocal": "Appartement",
        "surfaceM2": 59,
        "isVefa": false
      },
      {
        "date": "2022-10-04",
        "priceEur": 168730,
        "typeLocal": "Appartement",
        "surfaceM2": 51,
        "isVefa": false
      },
      {
        "date": "2022-09-08",
        "priceEur": 150000,
        "typeLocal": "Appartement",
        "surfaceM2": 47,
        "isVefa": false
      },
      {
        "date": "2022-07-29",
        "priceEur": 145000,
        "typeLocal": "Appartement",
        "surfaceM2": 38,
        "isVefa": false
      },
      {
        "date": "2022-06-30",
        "priceEur": 304500,
        "typeLocal": "Appartement",
        "surfaceM2": 61,
        "isVefa": false
      },
      {
        "date": "2022-05-17",
        "priceEur": 149650,
        "typeLocal": "Appartement",
        "surfaceM2": 42,
        "isVefa": false
      },
      {
        "date": "2022-03-18",
        "priceEur": 155000,
        "typeLocal": "Appartement",
        "surfaceM2": 37,
        "isVefa": false
      },
      {
        "date": "2021-12-03",
        "priceEur": 143385,
        "typeLocal": "Appartement",
        "surfaceM2": 40,
        "isVefa": false
      },
      {
        "date": "2021-11-10",
        "priceEur": 178650,
        "typeLocal": "Appartement",
        "surfaceM2": 58,
        "isVefa": false
      },
      {
        "date": "2021-04-27",
        "priceEur": 210000,
        "typeLocal": "Appartement",
        "surfaceM2": 59,
        "isVefa": false
      },
      {
        "date": "2020-10-28",
        "priceEur": 184000,
        "typeLocal": "Appartement",
        "surfaceM2": 64,
        "isVefa": false
      },
      {
        "date": "2020-08-21",
        "priceEur": 227309,
        "typeLocal": "Appartement",
        "surfaceM2": 66,
        "isVefa": false
      }
    ]
  },
  "dd19dab1e79a": {
    "id": "dd19dab1e79a",
    "label": "49 RUE DES CIGALES, Juvignac",
    "lat": 43.616827,
    "lng": 3.806548,
    "transactions": [
      {
        "date": "2020-08-27",
        "priceEur": 267000,
        "typeLocal": "Maison",
        "surfaceM2": 97,
        "isVefa": false
      }
    ]
  },
  "2a1971139a98": {
    "id": "2a1971139a98",
    "label": "558 RUE JUPITER, Juvignac",
    "lat": 43.618915,
    "lng": 3.80831,
    "transactions": [
      {
        "date": "2020-09-16",
        "priceEur": 268000,
        "typeLocal": "Maison",
        "surfaceM2": 83,
        "isVefa": false
      }
    ]
  },
  "52e93a7398db": {
    "id": "52e93a7398db",
    "label": "8 RUE DES MAGNANARELLES, Juvignac",
    "lat": 43.613413,
    "lng": 3.803852,
    "transactions": [
      {
        "date": "2024-09-13",
        "priceEur": 149000,
        "typeLocal": "Appartement",
        "surfaceM2": 48,
        "isVefa": false
      },
      {
        "date": "2024-07-22",
        "priceEur": 129870,
        "typeLocal": "Appartement",
        "surfaceM2": 48,
        "isVefa": false
      },
      {
        "date": "2024-06-28",
        "priceEur": 320000,
        "typeLocal": "Appartement",
        "surfaceM2": 82,
        "isVefa": false
      },
      {
        "date": "2024-06-28",
        "priceEur": 310000,
        "typeLocal": "Appartement",
        "surfaceM2": 82,
        "isVefa": false
      },
      {
        "date": "2024-01-16",
        "priceEur": 255350,
        "typeLocal": "Appartement",
        "surfaceM2": 78,
        "isVefa": false
      },
      {
        "date": "2023-06-08",
        "priceEur": 230000,
        "typeLocal": "Appartement",
        "surfaceM2": 68,
        "isVefa": false
      },
      {
        "date": "2022-08-25",
        "priceEur": 154230,
        "typeLocal": "Appartement",
        "surfaceM2": 49,
        "isVefa": false
      },
      {
        "date": "2022-06-23",
        "priceEur": 245000,
        "typeLocal": "Appartement",
        "surfaceM2": 84,
        "isVefa": false
      },
      {
        "date": "2022-03-24",
        "priceEur": 220471,
        "typeLocal": "Appartement",
        "surfaceM2": 84,
        "isVefa": false
      },
      {
        "date": "2021-11-02",
        "priceEur": 137560,
        "typeLocal": "Appartement",
        "surfaceM2": 48,
        "isVefa": false
      },
      {
        "date": "2021-06-08",
        "priceEur": 149000,
        "typeLocal": "Appartement",
        "surfaceM2": 48,
        "isVefa": false
      },
      {
        "date": "2021-05-17",
        "priceEur": 166300,
        "typeLocal": "Appartement",
        "surfaceM2": 48,
        "isVefa": false
      },
      {
        "date": "2020-12-14",
        "priceEur": 137500,
        "typeLocal": "Appartement",
        "surfaceM2": 46,
        "isVefa": false
      },
      {
        "date": "2020-10-09",
        "priceEur": 154400,
        "typeLocal": "Appartement",
        "surfaceM2": 48,
        "isVefa": false
      }
    ]
  },
  "7a30ba4d2a09": {
    "id": "7a30ba4d2a09",
    "label": "1127 AV DE L'EUROPE, Juvignac",
    "lat": 43.613645,
    "lng": 3.803161,
    "transactions": [
      {
        "date": "2025-03-31",
        "priceEur": 199370,
        "typeLocal": "Appartement",
        "surfaceM2": 67,
        "isVefa": false
      },
      {
        "date": "2024-10-22",
        "priceEur": 170000,
        "typeLocal": "Appartement",
        "surfaceM2": 46,
        "isVefa": false
      },
      {
        "date": "2023-10-03",
        "priceEur": 270990,
        "typeLocal": "Appartement",
        "surfaceM2": 76,
        "isVefa": false
      },
      {
        "date": "2023-04-11",
        "priceEur": 197500,
        "typeLocal": "Appartement",
        "surfaceM2": 53,
        "isVefa": false
      },
      {
        "date": "2022-12-12",
        "priceEur": 241510,
        "typeLocal": "Appartement",
        "surfaceM2": 67,
        "isVefa": false
      },
      {
        "date": "2021-12-27",
        "priceEur": 200230,
        "typeLocal": "Appartement",
        "surfaceM2": 56,
        "isVefa": false
      },
      {
        "date": "2021-10-12",
        "priceEur": 202700,
        "typeLocal": "Appartement",
        "surfaceM2": 56,
        "isVefa": false
      },
      {
        "date": "2021-07-23",
        "priceEur": 290000,
        "typeLocal": "Appartement",
        "surfaceM2": 76,
        "isVefa": false
      },
      {
        "date": "2020-09-24",
        "priceEur": 325000,
        "typeLocal": "Appartement",
        "surfaceM2": 91,
        "isVefa": false
      }
    ]
  },
  "4e0b55f8e665": {
    "id": "4e0b55f8e665",
    "label": "125 RUE GANYMEDE, Juvignac",
    "lat": 43.616865,
    "lng": 3.811295,
    "transactions": [
      {
        "date": "2023-05-17",
        "priceEur": 143000,
        "typeLocal": "Appartement",
        "surfaceM2": 41,
        "isVefa": false
      },
      {
        "date": "2022-06-28",
        "priceEur": 187000,
        "typeLocal": "Appartement",
        "surfaceM2": 63,
        "isVefa": false
      },
      {
        "date": "2020-10-12",
        "priceEur": 158126,
        "typeLocal": "Appartement",
        "surfaceM2": 41,
        "isVefa": false
      }
    ]
  },
  "c1a0639fbd42": {
    "id": "c1a0639fbd42",
    "label": "48 RUE DES ALOUETTES, Juvignac",
    "lat": 43.616082,
    "lng": 3.804388,
    "transactions": [
      {
        "date": "2022-03-22",
        "priceEur": 362420,
        "typeLocal": "Maison",
        "surfaceM2": 97,
        "isVefa": false
      },
      {
        "date": "2020-10-12",
        "priceEur": 285000,
        "typeLocal": "Maison",
        "surfaceM2": 97,
        "isVefa": false
      }
    ]
  },
  "8f0218fa8de9": {
    "id": "8f0218fa8de9",
    "label": "2 RUE DU POUMPIDOU, Juvignac",
    "lat": 43.612915,
    "lng": 3.805011,
    "transactions": [
      {
        "date": "2024-06-04",
        "priceEur": 168000,
        "typeLocal": "Appartement",
        "surfaceM2": 45,
        "isVefa": false
      },
      {
        "date": "2022-08-22",
        "priceEur": 112500,
        "typeLocal": "Appartement",
        "surfaceM2": 80,
        "isVefa": false
      },
      {
        "date": "2020-10-06",
        "priceEur": 220000,
        "typeLocal": "Appartement",
        "surfaceM2": 69,
        "isVefa": false
      }
    ]
  },
  "c804aa560355": {
    "id": "c804aa560355",
    "label": "14 RUE DU BOUTON DE VENERIE, Juvignac",
    "lat": 43.617132,
    "lng": 3.802265,
    "transactions": [
      {
        "date": "2024-11-29",
        "priceEur": 337450,
        "typeLocal": "Maison",
        "surfaceM2": 100,
        "isVefa": false
      },
      {
        "date": "2020-11-05",
        "priceEur": 245000,
        "typeLocal": "Maison",
        "surfaceM2": 100,
        "isVefa": false
      }
    ]
  },
  "f523ea696e7a": {
    "id": "f523ea696e7a",
    "label": "9 RUE DES FAUVETTES, Juvignac",
    "lat": 43.615381,
    "lng": 3.803942,
    "transactions": [
      {
        "date": "2020-10-15",
        "priceEur": 276000,
        "typeLocal": "Maison",
        "surfaceM2": 97,
        "isVefa": false
      }
    ]
  },
  "9a5fbcca69be": {
    "id": "9a5fbcca69be",
    "label": "5 IMP DES MOUETTES, Juvignac",
    "lat": 43.614361,
    "lng": 3.802884,
    "transactions": [
      {
        "date": "2020-10-20",
        "priceEur": 610000,
        "typeLocal": "Appartement",
        "surfaceM2": 80,
        "isVefa": false
      },
      {
        "date": "2020-10-20",
        "priceEur": 610000,
        "typeLocal": "Appartement",
        "surfaceM2": 38,
        "isVefa": false
      }
    ]
  },
  "7870d5a06be5": {
    "id": "7870d5a06be5",
    "label": "305 RUE JUPITER, Juvignac",
    "lat": 43.618309,
    "lng": 3.810087,
    "transactions": [
      {
        "date": "2024-12-02",
        "priceEur": 177780,
        "typeLocal": "Appartement",
        "surfaceM2": 59,
        "isVefa": false
      },
      {
        "date": "2024-09-17",
        "priceEur": 177100,
        "typeLocal": "Appartement",
        "surfaceM2": 60,
        "isVefa": false
      },
      {
        "date": "2024-09-10",
        "priceEur": 247000,
        "typeLocal": "Appartement",
        "surfaceM2": 84,
        "isVefa": false
      },
      {
        "date": "2024-06-24",
        "priceEur": 227896,
        "typeLocal": "Appartement",
        "surfaceM2": 59,
        "isVefa": false
      },
      {
        "date": "2024-05-27",
        "priceEur": 199000,
        "typeLocal": "Appartement",
        "surfaceM2": 60,
        "isVefa": false
      },
      {
        "date": "2024-05-15",
        "priceEur": 133397,
        "typeLocal": "Appartement",
        "surfaceM2": 38,
        "isVefa": false
      },
      {
        "date": "2024-04-29",
        "priceEur": 191000,
        "typeLocal": "Appartement",
        "surfaceM2": 58,
        "isVefa": false
      },
      {
        "date": "2023-11-21",
        "priceEur": 72500,
        "typeLocal": "Appartement",
        "surfaceM2": 39,
        "isVefa": false
      },
      {
        "date": "2023-10-16",
        "priceEur": 146000,
        "typeLocal": "Appartement",
        "surfaceM2": 39,
        "isVefa": false
      },
      {
        "date": "2023-06-30",
        "priceEur": 191000,
        "typeLocal": "Appartement",
        "surfaceM2": 60,
        "isVefa": false
      },
      {
        "date": "2023-02-16",
        "priceEur": 141425,
        "typeLocal": "Appartement",
        "surfaceM2": 39,
        "isVefa": false
      },
      {
        "date": "2022-09-15",
        "priceEur": 100000,
        "typeLocal": "Appartement",
        "surfaceM2": 36,
        "isVefa": false
      },
      {
        "date": "2022-08-12",
        "priceEur": 214765,
        "typeLocal": "Appartement",
        "surfaceM2": 58,
        "isVefa": false
      },
      {
        "date": "2022-08-08",
        "priceEur": 326000,
        "typeLocal": "Appartement",
        "surfaceM2": 84,
        "isVefa": false
      },
      {
        "date": "2022-04-13",
        "priceEur": 230000,
        "typeLocal": "Appartement",
        "surfaceM2": 59,
        "isVefa": false
      },
      {
        "date": "2021-11-22",
        "priceEur": 181020,
        "typeLocal": "Appartement",
        "surfaceM2": 60,
        "isVefa": false
      },
      {
        "date": "2021-06-24",
        "priceEur": 176000,
        "typeLocal": "Appartement",
        "surfaceM2": 60,
        "isVefa": false
      },
      {
        "date": "2021-04-07",
        "priceEur": 119500,
        "typeLocal": "Appartement",
        "surfaceM2": 38,
        "isVefa": false
      },
      {
        "date": "2021-02-15",
        "priceEur": 200200,
        "typeLocal": "Appartement",
        "surfaceM2": 61,
        "isVefa": false
      },
      {
        "date": "2020-10-29",
        "priceEur": 174160,
        "typeLocal": "Appartement",
        "surfaceM2": 58,
        "isVefa": false
      }
    ]
  },
  "3dc8462cd4a3": {
    "id": "3dc8462cd4a3",
    "label": "6 RUE DU POUMPIDOU, Juvignac",
    "lat": 43.613413,
    "lng": 3.803852,
    "transactions": [
      {
        "date": "2020-12-04",
        "priceEur": 160050,
        "typeLocal": "Appartement",
        "surfaceM2": 47,
        "isVefa": false
      }
    ]
  },
  "5c88da496182": {
    "id": "5c88da496182",
    "label": "46T RUE DE L ESTRAGON, Juvignac",
    "lat": 43.6158,
    "lng": 3.80656,
    "transactions": [
      {
        "date": "2020-12-08",
        "priceEur": 347000,
        "typeLocal": "Maison",
        "surfaceM2": 116,
        "isVefa": false
      }
    ]
  },
  "f951dc5782c4": {
    "id": "f951dc5782c4",
    "label": "11 IMP DES MOUETTES, Juvignac",
    "lat": 43.614458,
    "lng": 3.802402,
    "transactions": [
      {
        "date": "2020-11-26",
        "priceEur": 165000,
        "typeLocal": "Maison",
        "surfaceM2": 85,
        "isVefa": false
      }
    ]
  },
  "b005df864cde": {
    "id": "b005df864cde",
    "label": "63 RUE DES ALOUETTES, Juvignac",
    "lat": 43.615497,
    "lng": 3.803476,
    "transactions": [
      {
        "date": "2020-12-22",
        "priceEur": 225000,
        "typeLocal": "Maison",
        "surfaceM2": 102,
        "isVefa": false
      }
    ]
  },
  "211a49f2a3cf": {
    "id": "211a49f2a3cf",
    "label": "196 RUE JUPITER, Juvignac",
    "lat": 43.618083,
    "lng": 3.812236,
    "transactions": [
      {
        "date": "2025-02-28",
        "priceEur": 161780,
        "typeLocal": "Appartement",
        "surfaceM2": 43,
        "isVefa": false
      },
      {
        "date": "2024-10-08",
        "priceEur": 159670,
        "typeLocal": "Appartement",
        "surfaceM2": 45,
        "isVefa": false
      },
      {
        "date": "2024-07-01",
        "priceEur": 214100,
        "typeLocal": "Appartement",
        "surfaceM2": 56,
        "isVefa": false
      },
      {
        "date": "2023-11-24",
        "priceEur": 185000,
        "typeLocal": "Appartement",
        "surfaceM2": 56,
        "isVefa": false
      },
      {
        "date": "2023-08-31",
        "priceEur": 172000,
        "typeLocal": "Appartement",
        "surfaceM2": 59,
        "isVefa": false
      },
      {
        "date": "2020-12-16",
        "priceEur": 158000,
        "typeLocal": "Appartement",
        "surfaceM2": 45,
        "isVefa": false
      }
    ]
  },
  "c041a5056eb9": {
    "id": "c041a5056eb9",
    "label": "18 RUE HIMALIA, Juvignac",
    "lat": 43.619166,
    "lng": 3.807639,
    "transactions": [
      {
        "date": "2021-01-04",
        "priceEur": 337800,
        "typeLocal": "Maison",
        "surfaceM2": 85,
        "isVefa": false
      }
    ]
  },
  "d7b2c89ddd82": {
    "id": "d7b2c89ddd82",
    "label": "74 RUE HIMALIA, Juvignac",
    "lat": 43.618457,
    "lng": 3.807428,
    "transactions": [
      {
        "date": "2021-01-14",
        "priceEur": 290520,
        "typeLocal": "Maison",
        "surfaceM2": 84,
        "isVefa": false
      }
    ]
  },
  "d09b22e36e8c": {
    "id": "d09b22e36e8c",
    "label": "8 RUE DES MESANGES, Juvignac",
    "lat": 43.616271,
    "lng": 3.807357,
    "transactions": [
      {
        "date": "2021-02-04",
        "priceEur": 301610,
        "typeLocal": "Maison",
        "surfaceM2": 112,
        "isVefa": false
      }
    ]
  },
  "6a7d5fc90cf8": {
    "id": "6a7d5fc90cf8",
    "label": "143 RUE JUPITER, Juvignac",
    "lat": 43.617527,
    "lng": 3.811918,
    "transactions": [
      {
        "date": "2021-05-25",
        "priceEur": 132790,
        "typeLocal": "Appartement",
        "surfaceM2": 35,
        "isVefa": false
      },
      {
        "date": "2021-02-11",
        "priceEur": 140240,
        "typeLocal": "Appartement",
        "surfaceM2": 35,
        "isVefa": false
      }
    ]
  },
  "ee5eb070ada9": {
    "id": "ee5eb070ada9",
    "label": "1137 AV DE L'EUROPE, Juvignac",
    "lat": 43.613645,
    "lng": 3.803161,
    "transactions": [
      {
        "date": "2024-10-14",
        "priceEur": 127750,
        "typeLocal": "Appartement",
        "surfaceM2": 37,
        "isVefa": false
      },
      {
        "date": "2024-08-12",
        "priceEur": 244100,
        "typeLocal": "Appartement",
        "surfaceM2": 76,
        "isVefa": false
      },
      {
        "date": "2023-02-06",
        "priceEur": 215200,
        "typeLocal": "Appartement",
        "surfaceM2": 60,
        "isVefa": false
      },
      {
        "date": "2022-08-26",
        "priceEur": 405000,
        "typeLocal": "Appartement",
        "surfaceM2": 108,
        "isVefa": false
      },
      {
        "date": "2022-06-28",
        "priceEur": 193000,
        "typeLocal": "Appartement",
        "surfaceM2": 54,
        "isVefa": false
      },
      {
        "date": "2021-02-26",
        "priceEur": 477500,
        "typeLocal": "Appartement",
        "surfaceM2": 108,
        "isVefa": false
      }
    ]
  },
  "346beadb0090": {
    "id": "346beadb0090",
    "label": "47 POUMPIDOU, Juvignac",
    "lat": 43.612255,
    "lng": 3.802892,
    "transactions": [
      {
        "date": "2021-02-24",
        "priceEur": 288500,
        "typeLocal": "Maison",
        "surfaceM2": 80,
        "isVefa": false
      }
    ]
  },
  "b823f0d0c945": {
    "id": "b823f0d0c945",
    "label": "6 RUE HIMALIA, Juvignac",
    "lat": 43.618753,
    "lng": 3.807909,
    "transactions": [
      {
        "date": "2021-02-23",
        "priceEur": 279500,
        "typeLocal": "Maison",
        "surfaceM2": 85,
        "isVefa": false
      }
    ]
  },
  "8e62942dfb8c": {
    "id": "8e62942dfb8c",
    "label": "120 RUE CALLISTO, Juvignac",
    "lat": 43.616228,
    "lng": 3.811795,
    "transactions": [
      {
        "date": "2025-04-23",
        "priceEur": 150000,
        "typeLocal": "Appartement",
        "surfaceM2": 63,
        "isVefa": false
      },
      {
        "date": "2021-03-18",
        "priceEur": 205000,
        "typeLocal": "Appartement",
        "surfaceM2": 86,
        "isVefa": false
      },
      {
        "date": "2021-03-18",
        "priceEur": 205000,
        "typeLocal": "Appartement",
        "surfaceM2": 86,
        "isVefa": false
      },
      {
        "date": "2021-03-16",
        "priceEur": 199000,
        "typeLocal": "Appartement",
        "surfaceM2": 86,
        "isVefa": false
      }
    ]
  },
  "d999ceb39051": {
    "id": "d999ceb39051",
    "label": "167 RUE GANYMEDE, Juvignac",
    "lat": 43.616865,
    "lng": 3.811295,
    "transactions": [
      {
        "date": "2022-04-11",
        "priceEur": 89550,
        "typeLocal": "Appartement",
        "surfaceM2": 26,
        "isVefa": false
      },
      {
        "date": "2021-03-22",
        "priceEur": 136706,
        "typeLocal": "Appartement",
        "surfaceM2": 35,
        "isVefa": false
      }
    ]
  },
  "568ad530360c": {
    "id": "568ad530360c",
    "label": "573 RUE JUPITER, Juvignac",
    "lat": 43.618132,
    "lng": 3.807862,
    "transactions": [
      {
        "date": "2024-06-28",
        "priceEur": 180600,
        "typeLocal": "Appartement",
        "surfaceM2": 60,
        "isVefa": false
      },
      {
        "date": "2022-09-20",
        "priceEur": 213900,
        "typeLocal": "Appartement",
        "surfaceM2": 62,
        "isVefa": false
      },
      {
        "date": "2021-12-01",
        "priceEur": 184870,
        "typeLocal": "Appartement",
        "surfaceM2": 60,
        "isVefa": false
      },
      {
        "date": "2021-04-13",
        "priceEur": 190150,
        "typeLocal": "Appartement",
        "surfaceM2": 55,
        "isVefa": false
      }
    ]
  },
  "eaa533111a45": {
    "id": "eaa533111a45",
    "label": "5 RUE DES CIGALES, Juvignac",
    "lat": 43.615912,
    "lng": 3.808773,
    "transactions": [
      {
        "date": "2021-04-20",
        "priceEur": 232000,
        "typeLocal": "Maison",
        "surfaceM2": 98,
        "isVefa": false
      }
    ]
  },
  "158cf22a789e": {
    "id": "158cf22a789e",
    "label": "5048 CTRE COMMERCIAL L EPICENTRE, Juvignac",
    "lat": 43.613582,
    "lng": 3.810684,
    "transactions": [
      {
        "date": "2023-08-29",
        "priceEur": 107000,
        "typeLocal": "Appartement",
        "surfaceM2": 45,
        "isVefa": false
      },
      {
        "date": "2021-04-22",
        "priceEur": 85844,
        "typeLocal": "Appartement",
        "surfaceM2": 45,
        "isVefa": false
      }
    ]
  },
  "ae2cabeac547": {
    "id": "ae2cabeac547",
    "label": "1 IMP DES MOUETTES, Juvignac",
    "lat": 43.614568,
    "lng": 3.803136,
    "transactions": [
      {
        "date": "2021-05-04",
        "priceEur": 212000,
        "typeLocal": "Maison",
        "surfaceM2": 76,
        "isVefa": false
      }
    ]
  },
  "b924d68cb0d9": {
    "id": "b924d68cb0d9",
    "label": "6 RUE NEPTUNE, Juvignac",
    "lat": 43.619422,
    "lng": 3.805813,
    "transactions": [
      {
        "date": "2021-06-07",
        "priceEur": 537640,
        "typeLocal": "Maison",
        "surfaceM2": 143,
        "isVefa": false
      }
    ]
  },
  "a29c513225a9": {
    "id": "a29c513225a9",
    "label": "1 RUE DES FAUVETTES, Juvignac",
    "lat": 43.615109,
    "lng": 3.803238,
    "transactions": [
      {
        "date": "2021-06-09",
        "priceEur": 361710,
        "typeLocal": "Maison",
        "surfaceM2": 102,
        "isVefa": false
      }
    ]
  },
  "8471b0f8f548": {
    "id": "8471b0f8f548",
    "label": "73 RUE DES CIGALES, Juvignac",
    "lat": 43.616902,
    "lng": 3.803734,
    "transactions": [
      {
        "date": "2021-07-09",
        "priceEur": 339600,
        "typeLocal": "Maison",
        "surfaceM2": 86,
        "isVefa": false
      }
    ]
  },
  "ded28aa07abf": {
    "id": "ded28aa07abf",
    "label": "8 RUE DES FAUVETTES, Juvignac",
    "lat": 43.615106,
    "lng": 3.804393,
    "transactions": [
      {
        "date": "2021-06-21",
        "priceEur": 235000,
        "typeLocal": "Maison",
        "surfaceM2": 107,
        "isVefa": false
      }
    ]
  },
  "7b23ef375c79": {
    "id": "7b23ef375c79",
    "label": "603 RUE JUPITER, Juvignac",
    "lat": 43.617931,
    "lng": 3.807582,
    "transactions": [
      {
        "date": "2025-03-19",
        "priceEur": 125500,
        "typeLocal": "Appartement",
        "surfaceM2": 41,
        "isVefa": false
      },
      {
        "date": "2025-02-07",
        "priceEur": 127400,
        "typeLocal": "Appartement",
        "surfaceM2": 42,
        "isVefa": false
      },
      {
        "date": "2023-05-31",
        "priceEur": 204000,
        "typeLocal": "Appartement",
        "surfaceM2": 65,
        "isVefa": false
      },
      {
        "date": "2021-07-06",
        "priceEur": 149000,
        "typeLocal": "Appartement",
        "surfaceM2": 37,
        "isVefa": false
      }
    ]
  },
  "015a02b5a3f1": {
    "id": "015a02b5a3f1",
    "label": "16 RUE NEPTUNE, Juvignac",
    "lat": 43.620061,
    "lng": 3.806691,
    "transactions": [
      {
        "date": "2021-06-30",
        "priceEur": 517500,
        "typeLocal": "Maison",
        "surfaceM2": 132,
        "isVefa": false
      }
    ]
  },
  "76cb47be0fea": {
    "id": "76cb47be0fea",
    "label": "26 RUE PROMETHEE, Juvignac",
    "lat": 43.618945,
    "lng": 3.804836,
    "transactions": [
      {
        "date": "2021-07-13",
        "priceEur": 327300,
        "typeLocal": "Maison",
        "surfaceM2": 89,
        "isVefa": false
      }
    ]
  },
  "5c478766b24a": {
    "id": "5c478766b24a",
    "label": "3 RUE DES KERMES, Juvignac",
    "lat": 43.615278,
    "lng": 3.805558,
    "transactions": [
      {
        "date": "2021-07-16",
        "priceEur": 428000,
        "typeLocal": "Maison",
        "surfaceM2": 125,
        "isVefa": false
      }
    ]
  },
  "f878fcf2b57f": {
    "id": "f878fcf2b57f",
    "label": "8 RUE DE LA QUETE AUX BOIS, Juvignac",
    "lat": 43.617327,
    "lng": 3.801717,
    "transactions": [
      {
        "date": "2021-08-03",
        "priceEur": 245700,
        "typeLocal": "Maison",
        "surfaceM2": 80,
        "isVefa": false
      }
    ]
  },
  "e3e977b355d4": {
    "id": "e3e977b355d4",
    "label": "32 RUE DES VENEURS, Juvignac",
    "lat": 43.618762,
    "lng": 3.802176,
    "transactions": [
      {
        "date": "2021-07-15",
        "priceEur": 285000,
        "typeLocal": "Maison",
        "surfaceM2": 94,
        "isVefa": false
      }
    ]
  },
  "e2b4d84296a4": {
    "id": "e2b4d84296a4",
    "label": "1 RUE DU ROMARIN, Juvignac",
    "lat": 43.614658,
    "lng": 3.811279,
    "transactions": [
      {
        "date": "2021-07-09",
        "priceEur": 485000,
        "typeLocal": "Maison",
        "surfaceM2": 105,
        "isVefa": false
      }
    ]
  },
  "c55b106a92b0": {
    "id": "c55b106a92b0",
    "label": "287 RUE JUPITER, Juvignac",
    "lat": 43.617937,
    "lng": 3.811186,
    "transactions": [
      {
        "date": "2025-06-27",
        "priceEur": 160000,
        "typeLocal": "Appartement",
        "surfaceM2": 41,
        "isVefa": false
      },
      {
        "date": "2025-03-24",
        "priceEur": 171780,
        "typeLocal": "Appartement",
        "surfaceM2": 51,
        "isVefa": false
      },
      {
        "date": "2025-03-21",
        "priceEur": 143750,
        "typeLocal": "Appartement",
        "surfaceM2": 43,
        "isVefa": false
      },
      {
        "date": "2025-01-07",
        "priceEur": 197300,
        "typeLocal": "Appartement",
        "surfaceM2": 68,
        "isVefa": false
      },
      {
        "date": "2024-12-03",
        "priceEur": 133500,
        "typeLocal": "Appartement",
        "surfaceM2": 40,
        "isVefa": false
      },
      {
        "date": "2024-10-29",
        "priceEur": 138000,
        "typeLocal": "Appartement",
        "surfaceM2": 40,
        "isVefa": false
      },
      {
        "date": "2024-10-23",
        "priceEur": 193600,
        "typeLocal": "Appartement",
        "surfaceM2": 64,
        "isVefa": false
      },
      {
        "date": "2024-09-20",
        "priceEur": 147500,
        "typeLocal": "Appartement",
        "surfaceM2": 42,
        "isVefa": false
      },
      {
        "date": "2024-06-26",
        "priceEur": 92050,
        "typeLocal": "Appartement",
        "surfaceM2": 29,
        "isVefa": false
      },
      {
        "date": "2024-06-13",
        "priceEur": 128000,
        "typeLocal": "Appartement",
        "surfaceM2": 42,
        "isVefa": false
      },
      {
        "date": "2024-06-13",
        "priceEur": 143000,
        "typeLocal": "Appartement",
        "surfaceM2": 65,
        "isVefa": false
      },
      {
        "date": "2024-05-31",
        "priceEur": 203000,
        "typeLocal": "Appartement",
        "surfaceM2": 68,
        "isVefa": false
      },
      {
        "date": "2024-01-11",
        "priceEur": 183000,
        "typeLocal": "Appartement",
        "surfaceM2": 68,
        "isVefa": false
      },
      {
        "date": "2022-06-17",
        "priceEur": 249000,
        "typeLocal": "Appartement",
        "surfaceM2": 74,
        "isVefa": false
      },
      {
        "date": "2021-12-28",
        "priceEur": 150500,
        "typeLocal": "Appartement",
        "surfaceM2": 46,
        "isVefa": false
      },
      {
        "date": "2021-08-05",
        "priceEur": 217000,
        "typeLocal": "Appartement",
        "surfaceM2": 68,
        "isVefa": false
      }
    ]
  },
  "2d587fa05df9": {
    "id": "2d587fa05df9",
    "label": "3 RUE PROMETHEE, Juvignac",
    "lat": 43.61866,
    "lng": 3.804402,
    "transactions": [
      {
        "date": "2021-08-13",
        "priceEur": 537830,
        "typeLocal": "Maison",
        "surfaceM2": 144,
        "isVefa": false
      }
    ]
  },
  "8afca0e5d179": {
    "id": "8afca0e5d179",
    "label": "554 RUE JUPITER, Juvignac",
    "lat": 43.618824,
    "lng": 3.808471,
    "transactions": [
      {
        "date": "2021-08-06",
        "priceEur": 295700,
        "typeLocal": "Maison",
        "surfaceM2": 85,
        "isVefa": false
      }
    ]
  },
  "993df8e08ffe": {
    "id": "993df8e08ffe",
    "label": "15 RUE DES ALOUETTES, Juvignac",
    "lat": 43.615055,
    "lng": 3.809363,
    "transactions": [
      {
        "date": "2021-08-02",
        "priceEur": 232750,
        "typeLocal": "Maison",
        "surfaceM2": 107,
        "isVefa": false
      }
    ]
  },
  "c8ffd6fc974d": {
    "id": "c8ffd6fc974d",
    "label": "3 RUE DES ALOUETTES, Juvignac",
    "lat": 43.614507,
    "lng": 3.80999,
    "transactions": [
      {
        "date": "2021-08-06",
        "priceEur": 405080,
        "typeLocal": "Maison",
        "surfaceM2": 133,
        "isVefa": false
      }
    ]
  },
  "62a0eff6d351": {
    "id": "62a0eff6d351",
    "label": "3 RUE NEPTUNE, Juvignac",
    "lat": 43.619358,
    "lng": 3.805508,
    "transactions": [
      {
        "date": "2021-08-17",
        "priceEur": 406000,
        "typeLocal": "Maison",
        "surfaceM2": 119,
        "isVefa": false
      }
    ]
  },
  "09a22e4c6001": {
    "id": "09a22e4c6001",
    "label": "1 RUE DES CIGALES, Juvignac",
    "lat": 43.615762,
    "lng": 3.808623,
    "transactions": [
      {
        "date": "2021-08-31",
        "priceEur": 264000,
        "typeLocal": "Maison",
        "surfaceM2": 88,
        "isVefa": false
      }
    ]
  },
  "a16936a7082c": {
    "id": "a16936a7082c",
    "label": "66 RUE DE L ESTRAGON, Juvignac",
    "lat": 43.616461,
    "lng": 3.806885,
    "transactions": [
      {
        "date": "2021-08-26",
        "priceEur": 341500,
        "typeLocal": "Maison",
        "surfaceM2": 97,
        "isVefa": false
      }
    ]
  },
  "a2ae10b1378b": {
    "id": "a2ae10b1378b",
    "label": "20 RUE DES SONNEURS, Juvignac",
    "lat": 43.618086,
    "lng": 3.801292,
    "transactions": [
      {
        "date": "2021-09-20",
        "priceEur": 175000,
        "typeLocal": "Maison",
        "surfaceM2": 114,
        "isVefa": false
      }
    ]
  },
  "17c418308d0b": {
    "id": "17c418308d0b",
    "label": "27 RUE HIMALIA, Juvignac",
    "lat": 43.618526,
    "lng": 3.80654,
    "transactions": [
      {
        "date": "2021-10-18",
        "priceEur": 372000,
        "typeLocal": "Maison",
        "surfaceM2": 104,
        "isVefa": false
      }
    ]
  },
  "35be166fb90a": {
    "id": "35be166fb90a",
    "label": "4 IMP NESO, Juvignac",
    "lat": 43.619835,
    "lng": 3.805141,
    "transactions": [
      {
        "date": "2021-10-01",
        "priceEur": 341405,
        "typeLocal": "Maison",
        "surfaceM2": 116,
        "isVefa": false
      }
    ]
  },
  "893e5aa22bdb": {
    "id": "893e5aa22bdb",
    "label": "22 RUE HENRI DE VERGY, Juvignac",
    "lat": 43.617504,
    "lng": 3.802506,
    "transactions": [
      {
        "date": "2021-10-06",
        "priceEur": 282000,
        "typeLocal": "Maison",
        "surfaceM2": 103,
        "isVefa": false
      }
    ]
  },
  "bfeea69de357": {
    "id": "bfeea69de357",
    "label": "60 RUE DES BERGERONNETTES, Juvignac",
    "lat": 43.614966,
    "lng": 3.803014,
    "transactions": [
      {
        "date": "2021-12-17",
        "priceEur": 332530,
        "typeLocal": "Maison",
        "surfaceM2": 97,
        "isVefa": false
      }
    ]
  },
  "78a638e2524f": {
    "id": "78a638e2524f",
    "label": "6 RUE DES FAUVETTES, Juvignac",
    "lat": 43.615094,
    "lng": 3.804248,
    "transactions": [
      {
        "date": "2021-12-16",
        "priceEur": 330000,
        "typeLocal": "Maison",
        "surfaceM2": 107,
        "isVefa": false
      }
    ]
  },
  "d01b92925671": {
    "id": "d01b92925671",
    "label": "1237 AV DE L'EUROPE, Juvignac",
    "lat": 43.613786,
    "lng": 3.801988,
    "transactions": [
      {
        "date": "2022-07-22",
        "priceEur": 273000,
        "typeLocal": "Appartement",
        "surfaceM2": 66,
        "isVefa": false
      },
      {
        "date": "2021-12-20",
        "priceEur": 200000,
        "typeLocal": "Appartement",
        "surfaceM2": 61,
        "isVefa": false
      }
    ]
  },
  "f4bce4e19741": {
    "id": "f4bce4e19741",
    "label": "4 IMP PROTEE, Juvignac",
    "lat": 43.61938,
    "lng": 3.806068,
    "transactions": [
      {
        "date": "2021-12-27",
        "priceEur": 343000,
        "typeLocal": "Maison",
        "surfaceM2": 48,
        "isVefa": false
      }
    ]
  },
  "1d1d7b24eaad": {
    "id": "1d1d7b24eaad",
    "label": "11 RUE DES BERGERONNETTES, Juvignac",
    "lat": 43.614092,
    "lng": 3.809523,
    "transactions": [
      {
        "date": "2021-12-23",
        "priceEur": 240000,
        "typeLocal": "Maison",
        "surfaceM2": 86,
        "isVefa": false
      }
    ]
  },
  "7a30c21d9483": {
    "id": "7a30c21d9483",
    "label": "47 RUE DES CIGALES, Juvignac",
    "lat": 43.616831,
    "lng": 3.80664,
    "transactions": [
      {
        "date": "2022-01-14",
        "priceEur": 265000,
        "typeLocal": "Maison",
        "surfaceM2": 97,
        "isVefa": false
      }
    ]
  },
  "e6ff2f24a206": {
    "id": "e6ff2f24a206",
    "label": "475 RUE DE LA VOIE LACTEE, Juvignac",
    "lat": 43.617139,
    "lng": 3.810932,
    "transactions": [
      {
        "date": "2023-07-25",
        "priceEur": 149000,
        "typeLocal": "Appartement",
        "surfaceM2": 43,
        "isVefa": false
      },
      {
        "date": "2022-03-03",
        "priceEur": 146000,
        "typeLocal": "Appartement",
        "surfaceM2": 39,
        "isVefa": false
      },
      {
        "date": "2022-02-02",
        "priceEur": 156000,
        "typeLocal": "Appartement",
        "surfaceM2": 43,
        "isVefa": false
      }
    ]
  },
  "c9ebb5d03e28": {
    "id": "c9ebb5d03e28",
    "label": "2 RUE JUPITER, Juvignac",
    "lat": 43.618653,
    "lng": 3.808057,
    "transactions": [
      {
        "date": "2022-02-24",
        "priceEur": 319000,
        "typeLocal": "Maison",
        "surfaceM2": 86,
        "isVefa": false
      }
    ]
  },
  "fb10a0985126": {
    "id": "fb10a0985126",
    "label": "49 RUE DU POUMPIDOU, Juvignac",
    "lat": 43.612712,
    "lng": 3.802377,
    "transactions": [
      {
        "date": "2025-06-25",
        "priceEur": 68000,
        "typeLocal": "Appartement",
        "surfaceM2": 23,
        "isVefa": false
      },
      {
        "date": "2024-10-10",
        "priceEur": 186010,
        "typeLocal": "Appartement",
        "surfaceM2": 77,
        "isVefa": false
      },
      {
        "date": "2022-02-28",
        "priceEur": 83700,
        "typeLocal": "Appartement",
        "surfaceM2": 28,
        "isVefa": false
      }
    ]
  },
  "641257722fed": {
    "id": "641257722fed",
    "label": "7 RUE DU ROMARIN, Juvignac",
    "lat": 43.614553,
    "lng": 3.812065,
    "transactions": [
      {
        "date": "2022-03-23",
        "priceEur": 357030,
        "typeLocal": "Maison",
        "surfaceM2": 92,
        "isVefa": false
      }
    ]
  },
  "b9156c01e566": {
    "id": "b9156c01e566",
    "label": "8 RUE PROMETHEE, Juvignac",
    "lat": 43.618335,
    "lng": 3.804402,
    "transactions": [
      {
        "date": "2022-03-28",
        "priceEur": 450000,
        "typeLocal": "Maison",
        "surfaceM2": 121,
        "isVefa": false
      }
    ]
  },
  "eec7917055fc": {
    "id": "eec7917055fc",
    "label": "43 RUE DES DAPHNES, Juvignac",
    "lat": 43.614894,
    "lng": 3.806755,
    "transactions": [
      {
        "date": "2022-06-10",
        "priceEur": 279000,
        "typeLocal": "Maison",
        "surfaceM2": 86,
        "isVefa": false
      }
    ]
  },
  "68bd280aef4a": {
    "id": "68bd280aef4a",
    "label": "5 RUE ARTEMIS, Juvignac",
    "lat": 43.619673,
    "lng": 3.80187,
    "transactions": [
      {
        "date": "2022-06-20",
        "priceEur": 552420,
        "typeLocal": "Maison",
        "surfaceM2": 182,
        "isVefa": false
      }
    ]
  },
  "4fdca9fca997": {
    "id": "4fdca9fca997",
    "label": "21 RUE DE L ESTRAGON, Juvignac",
    "lat": 43.616414,
    "lng": 3.806305,
    "transactions": [
      {
        "date": "2022-06-09",
        "priceEur": 310000,
        "typeLocal": "Maison",
        "surfaceM2": 97,
        "isVefa": false
      }
    ]
  },
  "c3b444ef90dd": {
    "id": "c3b444ef90dd",
    "label": "1207 AV DE L'EUROPE, Juvignac",
    "lat": 43.613786,
    "lng": 3.801988,
    "transactions": [
      {
        "date": "2024-12-20",
        "priceEur": 175250,
        "typeLocal": "Appartement",
        "surfaceM2": 58,
        "isVefa": false
      },
      {
        "date": "2024-05-07",
        "priceEur": 165500,
        "typeLocal": "Appartement",
        "surfaceM2": 67,
        "isVefa": false
      },
      {
        "date": "2023-05-02",
        "priceEur": 227000,
        "typeLocal": "Appartement",
        "surfaceM2": 63,
        "isVefa": false
      },
      {
        "date": "2023-01-26",
        "priceEur": 238500,
        "typeLocal": "Appartement",
        "surfaceM2": 67,
        "isVefa": false
      },
      {
        "date": "2022-11-28",
        "priceEur": 146500,
        "typeLocal": "Appartement",
        "surfaceM2": 39,
        "isVefa": false
      },
      {
        "date": "2022-06-30",
        "priceEur": 215000,
        "typeLocal": "Appartement",
        "surfaceM2": 69,
        "isVefa": false
      }
    ]
  },
  "7cc7ef49d9b3": {
    "id": "7cc7ef49d9b3",
    "label": "77 RUE DES BERGERONNETTES, Juvignac",
    "lat": 43.61441,
    "lng": 3.806202,
    "transactions": [
      {
        "date": "2022-06-20",
        "priceEur": 462500,
        "typeLocal": "Maison",
        "surfaceM2": 148,
        "isVefa": false
      }
    ]
  },
  "1e993bd79a2f": {
    "id": "1e993bd79a2f",
    "label": "6 RUE DES KERMES, Juvignac",
    "lat": 43.614904,
    "lng": 3.805892,
    "transactions": [
      {
        "date": "2022-06-30",
        "priceEur": 311000,
        "typeLocal": "Maison",
        "surfaceM2": 97,
        "isVefa": false
      }
    ]
  },
  "720bc4589ec6": {
    "id": "720bc4589ec6",
    "label": "1 RUE DE L ESTRAGON, Juvignac",
    "lat": 43.616919,
    "lng": 3.8047,
    "transactions": [
      {
        "date": "2022-07-18",
        "priceEur": 365755,
        "typeLocal": "Maison",
        "surfaceM2": 102,
        "isVefa": false
      }
    ]
  },
  "e3bb9f1dd35a": {
    "id": "e3bb9f1dd35a",
    "label": "56 RUE DE L ESTRAGON, Juvignac",
    "lat": 43.616153,
    "lng": 3.806779,
    "transactions": [
      {
        "date": "2022-07-06",
        "priceEur": 295000,
        "typeLocal": "Maison",
        "surfaceM2": 102,
        "isVefa": false
      }
    ]
  },
  "818ced1cfdf1": {
    "id": "818ced1cfdf1",
    "label": "74 RUE DE L ESTRAGON, Juvignac",
    "lat": 43.616697,
    "lng": 3.807093,
    "transactions": [
      {
        "date": "2022-07-06",
        "priceEur": 360000,
        "typeLocal": "Maison",
        "surfaceM2": 123,
        "isVefa": false
      }
    ]
  },
  "2646da3bb2c4": {
    "id": "2646da3bb2c4",
    "label": "78 RUE DES ALOUETTES, Juvignac",
    "lat": 43.615458,
    "lng": 3.802528,
    "transactions": [
      {
        "date": "2022-07-20",
        "priceEur": 399000,
        "typeLocal": "Maison",
        "surfaceM2": 107,
        "isVefa": false
      }
    ]
  },
  "3bbc93544707": {
    "id": "3bbc93544707",
    "label": "22 RUE DE LA QUETE AUX BOIS, Juvignac",
    "lat": 43.617294,
    "lng": 3.802456,
    "transactions": [
      {
        "date": "2022-07-11",
        "priceEur": 300000,
        "typeLocal": "Maison",
        "surfaceM2": 82,
        "isVefa": false
      }
    ]
  },
  "4383289ef165": {
    "id": "4383289ef165",
    "label": "63 RUE HIMALIA, Juvignac",
    "lat": 43.618206,
    "lng": 3.806819,
    "transactions": [
      {
        "date": "2022-07-19",
        "priceEur": 290000,
        "typeLocal": "Maison",
        "surfaceM2": 82,
        "isVefa": false
      }
    ]
  },
  "dccbc7b1bac3": {
    "id": "dccbc7b1bac3",
    "label": "17 RUE HIMALIA, Juvignac",
    "lat": 43.619093,
    "lng": 3.80732,
    "transactions": [
      {
        "date": "2022-07-27",
        "priceEur": 351360,
        "typeLocal": "Maison",
        "surfaceM2": 84,
        "isVefa": false
      }
    ]
  },
  "8e973c7f41f3": {
    "id": "8e973c7f41f3",
    "label": "33 RUE DES BERGERONNETTES, Juvignac",
    "lat": 43.614096,
    "lng": 3.80826,
    "transactions": [
      {
        "date": "2022-07-27",
        "priceEur": 292300,
        "typeLocal": "Maison",
        "surfaceM2": 71,
        "isVefa": false
      }
    ]
  },
  "6d2f37a33346": {
    "id": "6d2f37a33346",
    "label": "62 RUE DES CIGALES, Juvignac",
    "lat": 43.617306,
    "lng": 3.805135,
    "transactions": [
      {
        "date": "2022-08-12",
        "priceEur": 405000,
        "typeLocal": "Maison",
        "surfaceM2": 133,
        "isVefa": false
      }
    ]
  },
  "253ba707736d": {
    "id": "253ba707736d",
    "label": "72 RUE HIMALIA, Juvignac",
    "lat": 43.618424,
    "lng": 3.807347,
    "transactions": [
      {
        "date": "2022-08-31",
        "priceEur": 316480,
        "typeLocal": "Maison",
        "surfaceM2": 83,
        "isVefa": false
      }
    ]
  },
  "378af54b4733": {
    "id": "378af54b4733",
    "label": "9 IMP DES VIGNES, Juvignac",
    "lat": 43.615565,
    "lng": 3.801456,
    "transactions": [
      {
        "date": "2022-08-25",
        "priceEur": 315000,
        "typeLocal": "Maison",
        "surfaceM2": 100,
        "isVefa": false
      }
    ]
  },
  "07a71419bd9d": {
    "id": "07a71419bd9d",
    "label": "18 RUE DES CIGALES, Juvignac",
    "lat": 43.616332,
    "lng": 3.808552,
    "transactions": [
      {
        "date": "2022-09-29",
        "priceEur": 320000,
        "typeLocal": "Maison",
        "surfaceM2": 86,
        "isVefa": false
      }
    ]
  },
  "31cb5f67caed": {
    "id": "31cb5f67caed",
    "label": "505 RUE DE LA VOIE LACTEE, Juvignac",
    "lat": 43.617139,
    "lng": 3.810932,
    "transactions": [
      {
        "date": "2025-05-12",
        "priceEur": 140000,
        "typeLocal": "Appartement",
        "surfaceM2": 43,
        "isVefa": false
      },
      {
        "date": "2022-09-20",
        "priceEur": 122800,
        "typeLocal": "Appartement",
        "surfaceM2": 43,
        "isVefa": false
      }
    ]
  },
  "52221272e1af": {
    "id": "52221272e1af",
    "label": "29 POUMPIDOU, Juvignac",
    "lat": 43.613146,
    "lng": 3.803995,
    "transactions": [
      {
        "date": "2022-10-26",
        "priceEur": 350000,
        "typeLocal": "Maison",
        "surfaceM2": 90,
        "isVefa": false
      }
    ]
  },
  "49485257dc2f": {
    "id": "49485257dc2f",
    "label": "8 IMP DU THYM, Juvignac",
    "lat": 43.615593,
    "lng": 3.809606,
    "transactions": [
      {
        "date": "2022-10-26",
        "priceEur": 337000,
        "typeLocal": "Maison",
        "surfaceM2": 97,
        "isVefa": false
      }
    ]
  },
  "77149653ee46": {
    "id": "77149653ee46",
    "label": "54 RUE DES CIGALES, Juvignac",
    "lat": 43.617493,
    "lng": 3.805786,
    "transactions": [
      {
        "date": "2022-11-10",
        "priceEur": 561952.9,
        "typeLocal": "Appartement",
        "surfaceM2": 52,
        "isVefa": false
      },
      {
        "date": "2022-11-10",
        "priceEur": 561952.9,
        "typeLocal": "Appartement",
        "surfaceM2": 44,
        "isVefa": false
      },
      {
        "date": "2022-11-10",
        "priceEur": 561952.9,
        "typeLocal": "Appartement",
        "surfaceM2": 22,
        "isVefa": false
      },
      {
        "date": "2022-11-10",
        "priceEur": 561952.9,
        "typeLocal": "Appartement",
        "surfaceM2": 54,
        "isVefa": false
      },
      {
        "date": "2022-11-10",
        "priceEur": 561952.9,
        "typeLocal": "Appartement",
        "surfaceM2": 20,
        "isVefa": false
      },
      {
        "date": "2022-11-10",
        "priceEur": 561952.9,
        "typeLocal": "Appartement",
        "surfaceM2": 26,
        "isVefa": false
      }
    ]
  },
  "324a50bda709": {
    "id": "324a50bda709",
    "label": "52 RUE CALLISTO, Juvignac",
    "lat": 43.616766,
    "lng": 3.811959,
    "transactions": [
      {
        "date": "2025-06-10",
        "priceEur": 255000,
        "typeLocal": "Appartement",
        "surfaceM2": 85,
        "isVefa": false
      },
      {
        "date": "2025-03-14",
        "priceEur": 187700,
        "typeLocal": "Appartement",
        "surfaceM2": 64,
        "isVefa": false
      },
      {
        "date": "2024-06-06",
        "priceEur": 291400,
        "typeLocal": "Appartement",
        "surfaceM2": 91,
        "isVefa": false
      },
      {
        "date": "2023-06-26",
        "priceEur": 198130,
        "typeLocal": "Appartement",
        "surfaceM2": 64,
        "isVefa": false
      },
      {
        "date": "2023-06-19",
        "priceEur": 147000,
        "typeLocal": "Appartement",
        "surfaceM2": 46,
        "isVefa": false
      },
      {
        "date": "2023-03-24",
        "priceEur": 240000,
        "typeLocal": "Appartement",
        "surfaceM2": 85,
        "isVefa": false
      },
      {
        "date": "2023-03-22",
        "priceEur": 147000,
        "typeLocal": "Appartement",
        "surfaceM2": 43,
        "isVefa": false
      },
      {
        "date": "2022-11-18",
        "priceEur": 111606,
        "typeLocal": "Appartement",
        "surfaceM2": 43,
        "isVefa": false
      }
    ]
  },
  "8b2a3b9ff288": {
    "id": "8b2a3b9ff288",
    "label": "3 RUE DU POUMPIDOU, Juvignac",
    "lat": 43.612268,
    "lng": 3.805845,
    "transactions": [
      {
        "date": "2022-11-28",
        "priceEur": 247000,
        "typeLocal": "Maison",
        "surfaceM2": 86,
        "isVefa": false
      }
    ]
  },
  "32f8ea14d07f": {
    "id": "32f8ea14d07f",
    "label": "24 RUE DES BERGERONNETTES, Juvignac",
    "lat": 43.614741,
    "lng": 3.80737,
    "transactions": [
      {
        "date": "2022-12-05",
        "priceEur": 320000,
        "typeLocal": "Maison",
        "surfaceM2": 97,
        "isVefa": false
      }
    ]
  },
  "58b9f2571de9": {
    "id": "58b9f2571de9",
    "label": "3 RUE DU ROMARIN, Juvignac",
    "lat": 43.614474,
    "lng": 3.811448,
    "transactions": [
      {
        "date": "2022-03-30",
        "priceEur": 497000,
        "typeLocal": "Maison",
        "surfaceM2": 181,
        "isVefa": false
      }
    ]
  },
  "ae7bcd17aae6": {
    "id": "ae7bcd17aae6",
    "label": "17 RUE DES CIGALES, Juvignac",
    "lat": 43.616189,
    "lng": 3.808143,
    "transactions": [
      {
        "date": "2022-12-15",
        "priceEur": 416000,
        "typeLocal": "Maison",
        "surfaceM2": 100,
        "isVefa": false
      }
    ]
  },
  "64c404957eb9": {
    "id": "64c404957eb9",
    "label": "69 RUE DES BERGERONNETTES, Juvignac",
    "lat": 43.614386,
    "lng": 3.806578,
    "transactions": [
      {
        "date": "2022-12-23",
        "priceEur": 395000,
        "typeLocal": "Maison",
        "surfaceM2": 103,
        "isVefa": false
      }
    ]
  },
  "8e22ca4f06e4": {
    "id": "8e22ca4f06e4",
    "label": "5 RUE DES FAUVETTES, Juvignac",
    "lat": 43.615307,
    "lng": 3.803539,
    "transactions": [
      {
        "date": "2023-01-31",
        "priceEur": 348500,
        "typeLocal": "Maison",
        "surfaceM2": 142,
        "isVefa": false
      }
    ]
  },
  "11097bee704d": {
    "id": "11097bee704d",
    "label": "41B POUMPIDOU, Juvignac",
    "lat": 43.613253,
    "lng": 3.802681,
    "transactions": [
      {
        "date": "2023-02-14",
        "priceEur": 230000,
        "typeLocal": "Maison",
        "surfaceM2": 71,
        "isVefa": false
      },
      {
        "date": "2023-02-14",
        "priceEur": 230000,
        "typeLocal": "Maison",
        "surfaceM2": 30,
        "isVefa": false
      }
    ]
  },
  "db0111035a72": {
    "id": "db0111035a72",
    "label": "16 RUE PROMETHEE, Juvignac",
    "lat": 43.618421,
    "lng": 3.804929,
    "transactions": [
      {
        "date": "2023-02-17",
        "priceEur": 380600,
        "typeLocal": "Maison",
        "surfaceM2": 92,
        "isVefa": false
      }
    ]
  },
  "f18d7526e2d8": {
    "id": "f18d7526e2d8",
    "label": "49 RUE DE LA PLAINE, Juvignac",
    "lat": 43.612382,
    "lng": 3.809924,
    "transactions": [
      {
        "date": "2023-09-27",
        "priceEur": 219000,
        "typeLocal": "Maison",
        "surfaceM2": 115,
        "isVefa": false
      },
      {
        "date": "2023-02-03",
        "priceEur": 651000,
        "typeLocal": "Maison",
        "surfaceM2": 115,
        "isVefa": false
      }
    ]
  },
  "fd62f5360a67": {
    "id": "fd62f5360a67",
    "label": "24 RUE DE L ESTRAGON, Juvignac",
    "lat": 43.616169,
    "lng": 3.805431,
    "transactions": [
      {
        "date": "2023-02-27",
        "priceEur": 300000,
        "typeLocal": "Maison",
        "surfaceM2": 97,
        "isVefa": false
      }
    ]
  },
  "1e7469c0ac32": {
    "id": "1e7469c0ac32",
    "label": "304 RUE JUPITER, Juvignac",
    "lat": 43.618297,
    "lng": 3.811443,
    "transactions": [
      {
        "date": "2023-03-07",
        "priceEur": 318471,
        "typeLocal": "Maison",
        "surfaceM2": 86,
        "isVefa": false
      }
    ]
  },
  "ac508097a86b": {
    "id": "ac508097a86b",
    "label": "113 RUE DES BERGERONNETTES, Juvignac",
    "lat": 43.614576,
    "lng": 3.803563,
    "transactions": [
      {
        "date": "2023-03-10",
        "priceEur": 397500,
        "typeLocal": "Maison",
        "surfaceM2": 98,
        "isVefa": false
      }
    ]
  },
  "065e04077e8a": {
    "id": "065e04077e8a",
    "label": "69 RUE DES CIGALES, Juvignac",
    "lat": 43.616931,
    "lng": 3.803999,
    "transactions": [
      {
        "date": "2023-04-06",
        "priceEur": 247000,
        "typeLocal": "Maison",
        "surfaceM2": 86,
        "isVefa": false
      }
    ]
  },
  "16572f713ee3": {
    "id": "16572f713ee3",
    "label": "50 RUE DE L ESTRAGON, Juvignac",
    "lat": 43.615955,
    "lng": 3.806664,
    "transactions": [
      {
        "date": "2023-04-11",
        "priceEur": 275000,
        "typeLocal": "Maison",
        "surfaceM2": 102,
        "isVefa": false
      }
    ]
  },
  "14d14c31692c": {
    "id": "14d14c31692c",
    "label": "5 RUE PROMETHEE, Juvignac",
    "lat": 43.618477,
    "lng": 3.804634,
    "transactions": [
      {
        "date": "2023-04-05",
        "priceEur": 423550,
        "typeLocal": "Maison",
        "surfaceM2": 120,
        "isVefa": false
      }
    ]
  },
  "4da507765d39": {
    "id": "4da507765d39",
    "label": "23 IMP DES GRIVES, Juvignac",
    "lat": 43.617858,
    "lng": 3.804749,
    "transactions": [
      {
        "date": "2023-04-27",
        "priceEur": 310000,
        "typeLocal": "Maison",
        "surfaceM2": 86,
        "isVefa": false
      }
    ]
  },
  "2bd385ec6da8": {
    "id": "2bd385ec6da8",
    "label": "107 CAUNELLES, Juvignac",
    "lat": 43.61438,
    "lng": 3.803852,
    "transactions": [
      {
        "date": "2023-05-10",
        "priceEur": 275000,
        "typeLocal": "Maison",
        "surfaceM2": 80,
        "isVefa": false
      }
    ]
  },
  "f9ddddb8c154": {
    "id": "f9ddddb8c154",
    "label": "45 RUE DES ALOUETTES, Juvignac",
    "lat": 43.615686,
    "lng": 3.804416,
    "transactions": [
      {
        "date": "2023-05-03",
        "priceEur": 300000,
        "typeLocal": "Maison",
        "surfaceM2": 107,
        "isVefa": false
      }
    ]
  },
  "c27c74b79466": {
    "id": "c27c74b79466",
    "label": "85 RUE DES BERGERONNETTES, Juvignac",
    "lat": 43.614452,
    "lng": 3.805854,
    "transactions": [
      {
        "date": "2023-05-22",
        "priceEur": 160000,
        "typeLocal": "Maison",
        "surfaceM2": 110,
        "isVefa": false
      }
    ]
  },
  "97dbf26bd73e": {
    "id": "97dbf26bd73e",
    "label": "90 RUE DES ALOUETTES, Juvignac",
    "lat": 43.61524,
    "lng": 3.801417,
    "transactions": [
      {
        "date": "2023-05-24",
        "priceEur": 338700,
        "typeLocal": "Maison",
        "surfaceM2": 45,
        "isVefa": false
      }
    ]
  },
  "bc92138d8e2a": {
    "id": "bc92138d8e2a",
    "label": "5 IMP DES SAUGES, Juvignac",
    "lat": 43.614875,
    "lng": 3.812017,
    "transactions": [
      {
        "date": "2023-05-16",
        "priceEur": 319600,
        "typeLocal": "Maison",
        "surfaceM2": 74,
        "isVefa": false
      }
    ]
  },
  "f795de1cb5ec": {
    "id": "f795de1cb5ec",
    "label": "70 RUE HIMALIA, Juvignac",
    "lat": 43.61839,
    "lng": 3.807266,
    "transactions": [
      {
        "date": "2023-06-02",
        "priceEur": 310600,
        "typeLocal": "Maison",
        "surfaceM2": 85,
        "isVefa": false
      }
    ]
  },
  "ce3eeb8f1ada": {
    "id": "ce3eeb8f1ada",
    "label": "41 RUE DES BERGERONNETTES, Juvignac",
    "lat": 43.614113,
    "lng": 3.807917,
    "transactions": [
      {
        "date": "2023-06-19",
        "priceEur": 416250,
        "typeLocal": "Appartement",
        "surfaceM2": 85,
        "isVefa": false
      },
      {
        "date": "2023-06-19",
        "priceEur": 416250,
        "typeLocal": "Appartement",
        "surfaceM2": 37,
        "isVefa": false
      }
    ]
  },
  "5526e571ca78": {
    "id": "5526e571ca78",
    "label": "30 RUE DES BERGERONNETTES, Juvignac",
    "lat": 43.614733,
    "lng": 3.807009,
    "transactions": [
      {
        "date": "2023-06-28",
        "priceEur": 300000,
        "typeLocal": "Maison",
        "surfaceM2": 97,
        "isVefa": false
      }
    ]
  },
  "e6ffaa5887d3": {
    "id": "e6ffaa5887d3",
    "label": "76 RUE DES ALOUETTES, Juvignac",
    "lat": 43.615512,
    "lng": 3.802647,
    "transactions": [
      {
        "date": "2023-06-13",
        "priceEur": 230000,
        "typeLocal": "Maison",
        "surfaceM2": 107,
        "isVefa": false
      }
    ]
  },
  "791320d07de9": {
    "id": "791320d07de9",
    "label": "3 RUE DES QUINTEFEUILLES, Juvignac",
    "lat": 43.614955,
    "lng": 3.810483,
    "transactions": [
      {
        "date": "2023-06-27",
        "priceEur": 357695,
        "typeLocal": "Maison",
        "surfaceM2": 102,
        "isVefa": false
      }
    ]
  },
  "3bb7a9975eef": {
    "id": "3bb7a9975eef",
    "label": "30 RUE DES VENEURS, Juvignac",
    "lat": 43.618576,
    "lng": 3.801838,
    "transactions": [
      {
        "date": "2023-06-26",
        "priceEur": 384150,
        "typeLocal": "Maison",
        "surfaceM2": 91,
        "isVefa": false
      }
    ]
  },
  "842cd87efa9e": {
    "id": "842cd87efa9e",
    "label": "9 IMP DES MOUETTES, Juvignac",
    "lat": 43.614468,
    "lng": 3.802529,
    "transactions": [
      {
        "date": "2023-07-07",
        "priceEur": 285000,
        "typeLocal": "Maison",
        "surfaceM2": 84,
        "isVefa": false
      }
    ]
  },
  "72a1b6211aef": {
    "id": "72a1b6211aef",
    "label": "10 CAUNELLES, Juvignac",
    "lat": 43.614217,
    "lng": 3.811657,
    "transactions": [
      {
        "date": "2023-08-07",
        "priceEur": 391000,
        "typeLocal": "Maison",
        "surfaceM2": 125,
        "isVefa": false
      }
    ]
  },
  "26fbc456175f": {
    "id": "26fbc456175f",
    "label": "41 RUE DES ALOUETTES, Juvignac",
    "lat": 43.615666,
    "lng": 3.805254,
    "transactions": [
      {
        "date": "2023-08-08",
        "priceEur": 318600,
        "typeLocal": "Maison",
        "surfaceM2": 86,
        "isVefa": false
      }
    ]
  },
  "98ea543f6fe0": {
    "id": "98ea543f6fe0",
    "label": "12 IMP DES MOUETTES, Juvignac",
    "lat": 43.614922,
    "lng": 3.801625,
    "transactions": [
      {
        "date": "2023-08-31",
        "priceEur": 343500,
        "typeLocal": "Maison",
        "surfaceM2": 86,
        "isVefa": false
      }
    ]
  },
  "778b9e02f5bc": {
    "id": "778b9e02f5bc",
    "label": "22 RUE DES DAPHNES, Juvignac",
    "lat": 43.615239,
    "lng": 3.806941,
    "transactions": [
      {
        "date": "2023-09-29",
        "priceEur": 303000,
        "typeLocal": "Maison",
        "surfaceM2": 86,
        "isVefa": false
      }
    ]
  },
  "34a9abee1926": {
    "id": "34a9abee1926",
    "label": "50 RUE DES BERGERONNETTES, Juvignac",
    "lat": 43.61489,
    "lng": 3.804158,
    "transactions": [
      {
        "date": "2023-09-26",
        "priceEur": 300000,
        "typeLocal": "Maison",
        "surfaceM2": 86,
        "isVefa": false
      }
    ]
  },
  "e428bcf0d14e": {
    "id": "e428bcf0d14e",
    "label": "92 RUE DES ALOUETTES, Juvignac",
    "lat": 43.615225,
    "lng": 3.801311,
    "transactions": [
      {
        "date": "2023-09-22",
        "priceEur": 275000,
        "typeLocal": "Maison",
        "surfaceM2": 86,
        "isVefa": false
      }
    ]
  },
  "ecb11e9672e8": {
    "id": "ecb11e9672e8",
    "label": "44 RUE DES BERGERONNETTES, Juvignac",
    "lat": 43.614851,
    "lng": 3.804721,
    "transactions": [
      {
        "date": "2023-09-29",
        "priceEur": 420000,
        "typeLocal": "Maison",
        "surfaceM2": 107,
        "isVefa": false
      }
    ]
  },
  "662f4a9d8efb": {
    "id": "662f4a9d8efb",
    "label": "19 RUE DES ALOUETTES, Juvignac",
    "lat": 43.615216,
    "lng": 3.808903,
    "transactions": [
      {
        "date": "2023-10-31",
        "priceEur": 374100,
        "typeLocal": "Maison",
        "surfaceM2": 107,
        "isVefa": false
      }
    ]
  },
  "0fe7c4ed9fe7": {
    "id": "0fe7c4ed9fe7",
    "label": "65 RUE DES ALOUETTES, Juvignac",
    "lat": 43.615469,
    "lng": 3.803376,
    "transactions": [
      {
        "date": "2023-11-03",
        "priceEur": 357370,
        "typeLocal": "Maison",
        "surfaceM2": 102,
        "isVefa": false
      }
    ]
  },
  "6b98fc1e0766": {
    "id": "6b98fc1e0766",
    "label": "32 RUE DES DAPHNES, Juvignac",
    "lat": 43.614844,
    "lng": 3.80621,
    "transactions": [
      {
        "date": "2023-12-07",
        "priceEur": 360000,
        "typeLocal": "Maison",
        "surfaceM2": 107,
        "isVefa": false
      }
    ]
  },
  "26179697eeea": {
    "id": "26179697eeea",
    "label": "1 IMP DES ZINNIAS, Juvignac",
    "lat": 43.616496,
    "lng": 3.805339,
    "transactions": [
      {
        "date": "2023-12-12",
        "priceEur": 322730,
        "typeLocal": "Maison",
        "surfaceM2": 102,
        "isVefa": false
      }
    ]
  },
  "d70623b95bd2": {
    "id": "d70623b95bd2",
    "label": "7 IMP DES VIGNES, Juvignac",
    "lat": 43.615511,
    "lng": 3.801369,
    "transactions": [
      {
        "date": "2023-12-28",
        "priceEur": 132000,
        "typeLocal": "Maison",
        "surfaceM2": 73,
        "isVefa": false
      }
    ]
  },
  "4ee18d2f02b7": {
    "id": "4ee18d2f02b7",
    "label": "1 IMP DU THYM, Juvignac",
    "lat": 43.61601,
    "lng": 3.809408,
    "transactions": [
      {
        "date": "2024-02-01",
        "priceEur": 278805,
        "typeLocal": "Maison",
        "surfaceM2": 86,
        "isVefa": false
      }
    ]
  },
  "a8c7d5a344c8": {
    "id": "a8c7d5a344c8",
    "label": "18 RUE DE L ESTRAGON, Juvignac",
    "lat": 43.616363,
    "lng": 3.804605,
    "transactions": [
      {
        "date": "2024-02-28",
        "priceEur": 300000,
        "typeLocal": "Maison",
        "surfaceM2": 86,
        "isVefa": false
      }
    ]
  },
  "9509b62658be": {
    "id": "9509b62658be",
    "label": "25 RUE DES BERGERONNETTES, Juvignac",
    "lat": 43.614139,
    "lng": 3.808667,
    "transactions": [
      {
        "date": "2024-04-12",
        "priceEur": 316700,
        "typeLocal": "Maison",
        "surfaceM2": 86,
        "isVefa": false
      }
    ]
  },
  "d81c690a12d7": {
    "id": "d81c690a12d7",
    "label": "4 RUE DE L ESTRAGON, Juvignac",
    "lat": 43.616907,
    "lng": 3.804219,
    "transactions": [
      {
        "date": "2024-04-18",
        "priceEur": 335000,
        "typeLocal": "Maison",
        "surfaceM2": 102,
        "isVefa": false
      }
    ]
  },
  "59a982dfdc2c": {
    "id": "59a982dfdc2c",
    "label": "528 RUE JUPITER, Juvignac",
    "lat": 43.619063,
    "lng": 3.80893,
    "transactions": [
      {
        "date": "2024-04-29",
        "priceEur": 435000,
        "typeLocal": "Maison",
        "surfaceM2": 118,
        "isVefa": false
      }
    ]
  },
  "34a9cb227312": {
    "id": "34a9cb227312",
    "label": "47 RUE DE LA PLAINE, Juvignac",
    "lat": 43.612437,
    "lng": 3.810612,
    "transactions": [
      {
        "date": "2024-05-22",
        "priceEur": 370000,
        "typeLocal": "Maison",
        "surfaceM2": 125,
        "isVefa": false
      },
      {
        "date": "2024-05-22",
        "priceEur": 370000,
        "typeLocal": "Maison",
        "surfaceM2": 125,
        "isVefa": false
      }
    ]
  },
  "88bf343981c5": {
    "id": "88bf343981c5",
    "label": "6 RUE DU BOUTON DE VENERIE, Juvignac",
    "lat": 43.617136,
    "lng": 3.801712,
    "transactions": [
      {
        "date": "2024-06-19",
        "priceEur": 295900,
        "typeLocal": "Maison",
        "surfaceM2": 85,
        "isVefa": false
      }
    ]
  },
  "2f8f0e2a48b7": {
    "id": "2f8f0e2a48b7",
    "label": "62 RUE DE L ESTRAGON, Juvignac",
    "lat": 43.616352,
    "lng": 3.806807,
    "transactions": [
      {
        "date": "2024-06-17",
        "priceEur": 265000,
        "typeLocal": "Maison",
        "surfaceM2": 97,
        "isVefa": false
      }
    ]
  },
  "75ea195065cb": {
    "id": "75ea195065cb",
    "label": "4 CLOS DU MARQUIS DE DAMPIERRE, Juvignac",
    "lat": 43.61692,
    "lng": 3.801801,
    "transactions": [
      {
        "date": "2024-06-28",
        "priceEur": 255380,
        "typeLocal": "Maison",
        "surfaceM2": 53,
        "isVefa": false
      }
    ]
  },
  "3d2644fdaeb8": {
    "id": "3d2644fdaeb8",
    "label": "16 RUE DES URANIES, Juvignac",
    "lat": 43.616322,
    "lng": 3.802996,
    "transactions": [
      {
        "date": "2024-07-19",
        "priceEur": 257000,
        "typeLocal": "Maison",
        "surfaceM2": 102,
        "isVefa": false
      }
    ]
  },
  "a7b2dcad62f1": {
    "id": "a7b2dcad62f1",
    "label": "19 RUE DES FAUVETTES, Juvignac",
    "lat": 43.615449,
    "lng": 3.804483,
    "transactions": [
      {
        "date": "2024-07-24",
        "priceEur": 290000,
        "typeLocal": "Maison",
        "surfaceM2": 97,
        "isVefa": false
      }
    ]
  },
  "d945347dcb78": {
    "id": "d945347dcb78",
    "label": "21 RUE HIMALIA, Juvignac",
    "lat": 43.618956,
    "lng": 3.80688,
    "transactions": [
      {
        "date": "2024-07-31",
        "priceEur": 470900,
        "typeLocal": "Maison",
        "surfaceM2": 132,
        "isVefa": false
      }
    ]
  },
  "db56ba6b636e": {
    "id": "db56ba6b636e",
    "label": "1173 ALL DE L'EUROPE, Juvignac",
    "lat": 43.613756,
    "lng": 3.802791,
    "transactions": [
      {
        "date": "2024-09-25",
        "priceEur": 176000,
        "typeLocal": "Appartement",
        "surfaceM2": 30,
        "isVefa": true
      },
      {
        "date": "2024-08-21",
        "priceEur": 181000,
        "typeLocal": "Appartement",
        "surfaceM2": 39,
        "isVefa": true
      }
    ]
  },
  "122241667bb0": {
    "id": "122241667bb0",
    "label": "5 RUE DES URANIES, Juvignac",
    "lat": 43.616364,
    "lng": 3.804015,
    "transactions": [
      {
        "date": "2024-08-20",
        "priceEur": 272000,
        "typeLocal": "Maison",
        "surfaceM2": 86,
        "isVefa": false
      }
    ]
  },
  "fef059e8f16d": {
    "id": "fef059e8f16d",
    "label": "5 IMP PROTEE, Juvignac",
    "lat": 43.619558,
    "lng": 3.806142,
    "transactions": [
      {
        "date": "2024-09-02",
        "priceEur": 350000,
        "typeLocal": "Maison",
        "surfaceM2": 81,
        "isVefa": false
      }
    ]
  },
  "48804962d7df": {
    "id": "48804962d7df",
    "label": "5 RUE HENRI DE VERGY, Juvignac",
    "lat": 43.617809,
    "lng": 3.802019,
    "transactions": [
      {
        "date": "2024-09-03",
        "priceEur": 262000,
        "typeLocal": "Maison",
        "surfaceM2": 98,
        "isVefa": false
      }
    ]
  },
  "842b8523493e": {
    "id": "842b8523493e",
    "label": "10 RUE NEPTUNE, Juvignac",
    "lat": 43.619799,
    "lng": 3.806051,
    "transactions": [
      {
        "date": "2024-09-19",
        "priceEur": 440400,
        "typeLocal": "Maison",
        "surfaceM2": 92,
        "isVefa": false
      }
    ]
  },
  "d241509fa2b2": {
    "id": "d241509fa2b2",
    "label": "6 IMP DES ZINNIAS, Juvignac",
    "lat": 43.61653,
    "lng": 3.806036,
    "transactions": [
      {
        "date": "2024-09-23",
        "priceEur": 365000,
        "typeLocal": "Maison",
        "surfaceM2": 109,
        "isVefa": false
      }
    ]
  },
  "9ac589666a06": {
    "id": "9ac589666a06",
    "label": "8 RUE DES KERMES, Juvignac",
    "lat": 43.614955,
    "lng": 3.805932,
    "transactions": [
      {
        "date": "2024-09-13",
        "priceEur": 297000,
        "typeLocal": "Maison",
        "surfaceM2": 97,
        "isVefa": false
      }
    ]
  },
  "2fd81f68c41f": {
    "id": "2fd81f68c41f",
    "label": "111 RUE DES BERGERONNETTES, Juvignac",
    "lat": 43.61457,
    "lng": 3.803642,
    "transactions": [
      {
        "date": "2024-10-28",
        "priceEur": 254000,
        "typeLocal": "Maison",
        "surfaceM2": 88,
        "isVefa": false
      }
    ]
  },
  "192cfa10cff8": {
    "id": "192cfa10cff8",
    "label": "102 RUE DES CIGALES, Juvignac",
    "lat": 43.616739,
    "lng": 3.802429,
    "transactions": [
      {
        "date": "2024-11-15",
        "priceEur": 366460,
        "typeLocal": "Maison",
        "surfaceM2": 102,
        "isVefa": false
      }
    ]
  },
  "8bce352d6f81": {
    "id": "8bce352d6f81",
    "label": "25 RUE HIMALIA, Juvignac",
    "lat": 43.61867,
    "lng": 3.806592,
    "transactions": [
      {
        "date": "2024-12-13",
        "priceEur": 344000,
        "typeLocal": "Maison",
        "surfaceM2": 113,
        "isVefa": false
      }
    ]
  },
  "a8a0e3e9d179": {
    "id": "a8a0e3e9d179",
    "label": "25 RUE DES FAUVETTES, Juvignac",
    "lat": 43.615553,
    "lng": 3.804705,
    "transactions": [
      {
        "date": "2024-12-11",
        "priceEur": 371680,
        "typeLocal": "Maison",
        "surfaceM2": 102,
        "isVefa": false
      }
    ]
  },
  "a4247e645d77": {
    "id": "a4247e645d77",
    "label": "16 RUE DES FAUVETTES, Juvignac",
    "lat": 43.615289,
    "lng": 3.805203,
    "transactions": [
      {
        "date": "2024-12-27",
        "priceEur": 185600,
        "typeLocal": "Maison",
        "surfaceM2": 102,
        "isVefa": false
      }
    ]
  },
  "f71947d61462": {
    "id": "f71947d61462",
    "label": "35 RUE DES ALOUETTES, Juvignac",
    "lat": 43.615563,
    "lng": 3.805552,
    "transactions": [
      {
        "date": "2025-01-08",
        "priceEur": 255000,
        "typeLocal": "Maison",
        "surfaceM2": 86,
        "isVefa": false
      }
    ]
  },
  "54f3f7c1d936": {
    "id": "54f3f7c1d936",
    "label": "2 RUE DES JASMINS, Juvignac",
    "lat": 43.616396,
    "lng": 3.804791,
    "transactions": [
      {
        "date": "2025-01-30",
        "priceEur": 428000,
        "typeLocal": "Maison",
        "surfaceM2": 154,
        "isVefa": false
      }
    ]
  },
  "209609d4b37f": {
    "id": "209609d4b37f",
    "label": "3 IMP DES ZINNIAS, Juvignac",
    "lat": 43.616543,
    "lng": 3.805406,
    "transactions": [
      {
        "date": "2025-02-04",
        "priceEur": 228000,
        "typeLocal": "Maison",
        "surfaceM2": 102,
        "isVefa": false
      }
    ]
  },
  "229203107057": {
    "id": "229203107057",
    "label": "18 RUE DES DAPHNES, Juvignac",
    "lat": 43.615161,
    "lng": 3.808508,
    "transactions": [
      {
        "date": "2025-03-13",
        "priceEur": 303000,
        "typeLocal": "Maison",
        "surfaceM2": 102,
        "isVefa": false
      }
    ]
  },
  "447361508b2e": {
    "id": "447361508b2e",
    "label": "294 RUE JUPITER, Juvignac",
    "lat": 43.618293,
    "lng": 3.811545,
    "transactions": [
      {
        "date": "2025-03-07",
        "priceEur": 271500,
        "typeLocal": "Maison",
        "surfaceM2": 83,
        "isVefa": false
      }
    ]
  },
  "c7c7d96c08c7": {
    "id": "c7c7d96c08c7",
    "label": "12 IMP DES VIGNES, Juvignac",
    "lat": 43.615532,
    "lng": 3.802179,
    "transactions": [
      {
        "date": "2025-02-27",
        "priceEur": 322870,
        "typeLocal": "Maison",
        "surfaceM2": 87,
        "isVefa": false
      }
    ]
  },
  "33a64dbde894": {
    "id": "33a64dbde894",
    "label": "17 RUE DES FAUVETTES, Juvignac",
    "lat": 43.615451,
    "lng": 3.804381,
    "transactions": [
      {
        "date": "2025-02-27",
        "priceEur": 260000,
        "typeLocal": "Maison",
        "surfaceM2": 120,
        "isVefa": false
      }
    ]
  },
  "af9933634840": {
    "id": "af9933634840",
    "label": "8 RUE SATURNE, Juvignac",
    "lat": 43.620042,
    "lng": 3.805035,
    "transactions": [
      {
        "date": "2025-03-12",
        "priceEur": 345000,
        "typeLocal": "Maison",
        "surfaceM2": 85,
        "isVefa": false
      }
    ]
  },
  "1a38a0d0ebce": {
    "id": "1a38a0d0ebce",
    "label": "9 RUE DES QUINTEFEUILLES, Juvignac",
    "lat": 43.615423,
    "lng": 3.810219,
    "transactions": [
      {
        "date": "2025-04-17",
        "priceEur": 364000,
        "typeLocal": "Maison",
        "surfaceM2": 105,
        "isVefa": false
      }
    ]
  },
  "0aaa1361b919": {
    "id": "0aaa1361b919",
    "label": "7 IMP DES GRIVES, Juvignac",
    "lat": 43.617549,
    "lng": 3.803729,
    "transactions": [
      {
        "date": "2025-04-28",
        "priceEur": 110000,
        "typeLocal": "Maison",
        "surfaceM2": 102,
        "isVefa": false
      }
    ]
  },
  "a9a7aad8663a": {
    "id": "a9a7aad8663a",
    "label": "78 RUE DES CIGALES, Juvignac",
    "lat": 43.617217,
    "lng": 3.804308,
    "transactions": [
      {
        "date": "2025-05-23",
        "priceEur": 259950,
        "typeLocal": "Maison",
        "surfaceM2": 97,
        "isVefa": false
      }
    ]
  },
  "fdce2642ec11": {
    "id": "fdce2642ec11",
    "label": "70 RUE DES ALOUETTES, Juvignac",
    "lat": 43.615739,
    "lng": 3.803164,
    "transactions": [
      {
        "date": "2025-05-26",
        "priceEur": 305000,
        "typeLocal": "Maison",
        "surfaceM2": 107,
        "isVefa": false
      }
    ]
  }
}