{
  "1d872d3dcb08": {
    "id": "1d872d3dcb08",
    "label": "128 AV DU MISTRAL, Galargues",
    "lat": 43.771012,
    "lng": 4.025137,
    "transactions": [
      {
        "date": "2020-10-12",
        "priceEur": 413000,
        "typeLocal": "Maison",
        "surfaceM2": 140,
        "isVefa": false
      }
    ]
  },
  "fc37f19d2730": {
    "id": "fc37f19d2730",
    "label": "181D CHE DES CLAPASSES, Galargues",
    "lat": 43.770672,
    "lng": 4.02441,
    "transactions": [
      {
        "date": "2020-11-19",
        "priceEur": 378450,
        "typeLocal": "Maison",
        "surfaceM2": 130,
        "isVefa": false
      },
      {
        "date": "2020-11-19",
        "priceEur": 378450,
        "typeLocal": "Maison",
        "surfaceM2": 130,
        "isVefa": false
      }
    ]
  },
  "4c1151bfa080": {
    "id": "4c1151bfa080",
    "label": "5356 CHEMIN DE SAUSSINES, Galargues",
    "lat": 43.770321,
    "lng": 4.02343,
    "transactions": [
      {
        "date": "2021-06-22",
        "priceEur": 268850,
        "typeLocal": "Maison",
        "surfaceM2": 83,
        "isVefa": false
      },
      {
        "date": "2021-06-22",
        "priceEur": 268850,
        "typeLocal": "Maison",
        "surfaceM2": 83,
        "isVefa": false
      }
    ]
  },
  "f701dc4414e3": {
    "id": "f701dc4414e3",
    "label": "114 CHE DES CLAPASSES, Galargues",
    "lat": 43.770174,
    "lng": 4.022662,
    "transactions": [
      {
        "date": "2021-10-07",
        "priceEur": 358735,
        "typeLocal": "Maison",
        "surfaceM2": 114,
        "isVefa": false
      }
    ]
  },
  "8289dcd3bb29": {
    "id": "8289dcd3bb29",
    "label": "16 RUE DES ANCIENS METIERS, Galargues",
    "lat": 43.770802,
    "lng": 4.021827,
    "transactions": [
      {
        "date": "2022-03-21",
        "priceEur": 125000,
        "typeLocal": "Appartement",
        "surfaceM2": 64,
        "isVefa": false
      }
    ]
  },
  "3a0305ae75a1": {
    "id": "3a0305ae75a1",
    "label": "5088 RTE DE SOMMIERES, Galargues",
    "lat": 43.770362,
    "lng": 4.021176,
    "transactions": [
      {
        "date": "2022-09-19",
        "priceEur": 105000,
        "typeLocal": "Maison",
        "surfaceM2": 47,
        "isVefa": false
      }
    ]
  },
  "869163f7b348": {
    "id": "869163f7b348",
    "label": "5435F LES BASTIDES, Galargues",
    "lat": 43.764875,
    "lng": 4.025395,
    "transactions": [
      {
        "date": "2023-06-16",
        "priceEur": 620000,
        "typeLocal": "Maison",
        "surfaceM2": 143,
        "isVefa": false
      },
      {
        "date": "2023-06-16",
        "priceEur": 620000,
        "typeLocal": "Maison",
        "surfaceM2": 143,
        "isVefa": false
      },
      {
        "date": "2023-06-16",
        "priceEur": 620000,
        "typeLocal": "Maison",
        "surfaceM2": 143,
        "isVefa": false
      }
    ]
  },
  "cae6fcd83ca5": {
    "id": "cae6fcd83ca5",
    "label": "5444F AV DU MISTRAL, Galargues",
    "lat": 43.770689,
    "lng": 4.024851,
    "transactions": [
      {
        "date": "2025-02-20",
        "priceEur": 425000,
        "typeLocal": "Maison",
        "surfaceM2": 141,
        "isVefa": false
      },
      {
        "date": "2025-02-20",
        "priceEur": 425000,
        "typeLocal": "Maison",
        "surfaceM2": 141,
        "isVefa": false
      }
    ]
  },
  "2436c60f31c8": {
    "id": "2436c60f31c8",
    "label": "5056 LE VILLAGE, Galargues",
    "lat": 43.77106,
    "lng": 4.021663,
    "transactions": [
      {
        "date": "2025-02-20",
        "priceEur": 345000,
        "typeLocal": "Maison",
        "surfaceM2": 45,
        "isVefa": false
      }
    ]
  }
}