{
  "eb1c9a06fe7d": {
    "id": "eb1c9a06fe7d",
    "label": "5 IMP L'ARAMON, Cessenon-sur-Orb",
    "lat": 43.45456,
    "lng": 3.038137,
    "transactions": [
      {
        "date": "2021-01-18",
        "priceEur": 301550,
        "typeLocal": "Maison",
        "surfaceM2": 128,
        "isVefa": false
      }
    ]
  },
  "27f3251c0145": {
    "id": "27f3251c0145",
    "label": "1 IMP L'ARAMON, Cessenon-sur-Orb",
    "lat": 43.455564,
    "lng": 3.038263,
    "transactions": [
      {
        "date": "2022-01-07",
        "priceEur": 387966,
        "typeLocal": "Maison",
        "surfaceM2": 214,
        "isVefa": false
      }
    ]
  },
  "b43ebb0f0e1f": {
    "id": "b43ebb0f0e1f",
    "label": "263 ALL DES SABLONS, Cessenon-sur-Orb",
    "lat": 43.455404,
    "lng": 3.040664,
    "transactions": [
      {
        "date": "2022-01-13",
        "priceEur": 284251.47,
        "typeLocal": "Maison",
        "surfaceM2": 115,
        "isVefa": false
      }
    ]
  },
  "51735a4fc006": {
    "id": "51735a4fc006",
    "label": "5533F IMP L'ARAMON, Cessenon-sur-Orb",
    "lat": 43.454501,
    "lng": 3.037496,
    "transactions": [
      {
        "date": "2022-01-05",
        "priceEur": 250000,
        "typeLocal": "Maison",
        "surfaceM2": 164,
        "isVefa": false
      }
    ]
  },
  "5de3684f0ad5": {
    "id": "5de3684f0ad5",
    "label": "5584F CHEM DU PIZOU, Cessenon-sur-Orb",
    "lat": 43.457769,
    "lng": 3.041361,
    "transactions": [
      {
        "date": "2022-02-11",
        "priceEur": 269250,
        "typeLocal": "Maison",
        "surfaceM2": 98,
        "isVefa": false
      }
    ]
  },
  "45f36dc5b524": {
    "id": "45f36dc5b524",
    "label": "1 IMP DES SARMENTS, Cessenon-sur-Orb",
    "lat": 43.458829,
    "lng": 3.039014,
    "transactions": [
      {
        "date": "2022-07-20",
        "priceEur": 530500,
        "typeLocal": "Maison",
        "surfaceM2": 150,
        "isVefa": false
      }
    ]
  },
  "826da77701f9": {
    "id": "826da77701f9",
    "label": "6250F VESSAS, Cessenon-sur-Orb",
    "lat": 43.457881,
    "lng": 3.042275,
    "transactions": [
      {
        "date": "2022-11-29",
        "priceEur": 500000,
        "typeLocal": "Maison",
        "surfaceM2": 152,
        "isVefa": false
      },
      {
        "date": "2022-11-29",
        "priceEur": 500000,
        "typeLocal": "Maison",
        "surfaceM2": 80,
        "isVefa": false
      }
    ]
  },
  "4f2f5dfb45f7": {
    "id": "4f2f5dfb45f7",
    "label": "458 GRANGE NEUVE, Cessenon-sur-Orb",
    "lat": 43.455999,
    "lng": 3.038075,
    "transactions": [
      {
        "date": "2023-04-17",
        "priceEur": 668084,
        "typeLocal": "Maison",
        "surfaceM2": 213,
        "isVefa": false
      }
    ]
  },
  "6afe213b3e59": {
    "id": "6afe213b3e59",
    "label": "6264F GRANGE NEUVE, Cessenon-sur-Orb",
    "lat": 43.458372,
    "lng": 3.032685,
    "transactions": [
      {
        "date": "2023-04-19",
        "priceEur": 208000,
        "typeLocal": "Maison",
        "surfaceM2": 90,
        "isVefa": false
      }
    ]
  },
  "22068aa7a574": {
    "id": "22068aa7a574",
    "label": "19F CHEM DU PIZOU, Cessenon-sur-Orb",
    "lat": 43.458258,
    "lng": 3.040825,
    "transactions": [
      {
        "date": "2023-05-22",
        "priceEur": 424554.84,
        "typeLocal": "Maison",
        "surfaceM2": 134,
        "isVefa": false
      }
    ]
  },
  "59f64dd76fa9": {
    "id": "59f64dd76fa9",
    "label": "5479F CHEM DU PIZOU, Cessenon-sur-Orb",
    "lat": 43.455988,
    "lng": 3.042675,
    "transactions": [
      {
        "date": "2023-09-08",
        "priceEur": 314950,
        "typeLocal": "Maison",
        "surfaceM2": 142,
        "isVefa": false
      }
    ]
  },
  "5f547811bce8": {
    "id": "5f547811bce8",
    "label": "346D ALL DES SABLONS, Cessenon-sur-Orb",
    "lat": 43.45613,
    "lng": 3.04016,
    "transactions": [
      {
        "date": "2024-11-12",
        "priceEur": 312000,
        "typeLocal": "Maison",
        "surfaceM2": 100,
        "isVefa": false
      }
    ]
  },
  "3d838ede00af": {
    "id": "3d838ede00af",
    "label": "260 ALL DES SABLONS, Cessenon-sur-Orb",
    "lat": 43.455718,
    "lng": 3.040744,
    "transactions": [
      {
        "date": "2025-03-11",
        "priceEur": 270400,
        "typeLocal": "Maison",
        "surfaceM2": 115,
        "isVefa": false
      }
    ]
  }
}