{
  "2393197024b4": {
    "id": "2393197024b4",
    "label": "5427F AV DU MAS D AFFRE, Saint-Pargoire",
    "lat": 43.529838,
    "lng": 3.517696,
    "transactions": [
      {
        "date": "2020-07-17",
        "priceEur": 241600,
        "typeLocal": "Maison",
        "surfaceM2": 99,
        "isVefa": false
      }
    ]
  },
  "74e4a3ee3bbc": {
    "id": "74e4a3ee3bbc",
    "label": "7 PL ROGER SALENGRO, Saint-Pargoire",
    "lat": 43.528608,
    "lng": 3.519441,
    "transactions": [
      {
        "date": "2020-07-01",
        "priceEur": 81000,
        "typeLocal": "Maison",
        "surfaceM2": 83,
        "isVefa": false
      }
    ]
  },
  "9c4771ee4776": {
    "id": "9c4771ee4776",
    "label": "17 AV ALBERT LAURENS, Saint-Pargoire",
    "lat": 43.5278,
    "lng": 3.525203,
    "transactions": [
      {
        "date": "2020-08-03",
        "priceEur": 80000,
        "typeLocal": "Maison",
        "surfaceM2": 73,
        "isVefa": false
      }
    ]
  },
  "cc6d90ab152e": {
    "id": "cc6d90ab152e",
    "label": "2B RUE DE LA REPUBLIQUE, Saint-Pargoire",
    "lat": 43.528965,
    "lng": 3.519804,
    "transactions": [
      {
        "date": "2020-08-13",
        "priceEur": 74440,
        "typeLocal": "Maison",
        "surfaceM2": 98,
        "isVefa": false
      }
    ]
  },
  "c61ac3aaee87": {
    "id": "c61ac3aaee87",
    "label": "16B RUE ANCIEN CHEMIN DE PEZENAS, Saint-Pargoire",
    "lat": 43.527905,
    "lng": 3.516866,
    "transactions": [
      {
        "date": "2020-09-18",
        "priceEur": 75000,
        "typeLocal": "Maison",
        "surfaceM2": 100,
        "isVefa": false
      }
    ]
  },
  "2155363316e9": {
    "id": "2155363316e9",
    "label": "3 CHE DE MONTPLAISIR, Saint-Pargoire",
    "lat": 43.527751,
    "lng": 3.52442,
    "transactions": [
      {
        "date": "2020-09-23",
        "priceEur": 186500,
        "typeLocal": "Maison",
        "surfaceM2": 89,
        "isVefa": false
      }
    ]
  },
  "e35f3c243315": {
    "id": "e35f3c243315",
    "label": "7 RUE DE LA POSTE, Saint-Pargoire",
    "lat": 43.527962,
    "lng": 3.519557,
    "transactions": [
      {
        "date": "2020-09-24",
        "priceEur": 33000,
        "typeLocal": "Maison",
        "surfaceM2": 50,
        "isVefa": false
      }
    ]
  },
  "243df8abff22": {
    "id": "243df8abff22",
    "label": "14 RUE DERRIERE LES MURS, Saint-Pargoire",
    "lat": 43.528591,
    "lng": 3.517703,
    "transactions": [
      {
        "date": "2020-10-02",
        "priceEur": 50000,
        "typeLocal": "Maison",
        "surfaceM2": 65,
        "isVefa": false
      }
    ]
  },
  "5148283b18ab": {
    "id": "5148283b18ab",
    "label": "19 AV DES PIGEONNIERS, Saint-Pargoire",
    "lat": 43.530378,
    "lng": 3.526562,
    "transactions": [
      {
        "date": "2020-10-12",
        "priceEur": 298000,
        "typeLocal": "Maison",
        "surfaceM2": 154,
        "isVefa": false
      }
    ]
  },
  "0c06415a9606": {
    "id": "0c06415a9606",
    "label": "5 AV ALBERT LAURENS, Saint-Pargoire",
    "lat": 43.528455,
    "lng": 3.52336,
    "transactions": [
      {
        "date": "2020-10-23",
        "priceEur": 220000,
        "typeLocal": "Maison",
        "surfaceM2": 106,
        "isVefa": false
      }
    ]
  },
  "71bd3725496c": {
    "id": "71bd3725496c",
    "label": "9 AV DE CAMPAGNAN, Saint-Pargoire",
    "lat": 43.528609,
    "lng": 3.516732,
    "transactions": [
      {
        "date": "2020-10-20",
        "priceEur": 125000,
        "typeLocal": "Maison",
        "surfaceM2": 64,
        "isVefa": false
      }
    ]
  },
  "d1b2ecfdf167": {
    "id": "d1b2ecfdf167",
    "label": "4 RUE DU PORTALET, Saint-Pargoire",
    "lat": 43.528135,
    "lng": 3.518766,
    "transactions": [
      {
        "date": "2024-08-26",
        "priceEur": 216230,
        "typeLocal": "Appartement",
        "surfaceM2": 93,
        "isVefa": false
      },
      {
        "date": "2020-11-20",
        "priceEur": 186140,
        "typeLocal": "Appartement",
        "surfaceM2": 93,
        "isVefa": false
      }
    ]
  },
  "9f59b6747cdd": {
    "id": "9f59b6747cdd",
    "label": "4 PIQUE MOLLE, Saint-Pargoire",
    "lat": 43.525064,
    "lng": 3.521236,
    "transactions": [
      {
        "date": "2020-11-27",
        "priceEur": 109790,
        "typeLocal": "Maison",
        "surfaceM2": 170,
        "isVefa": false
      }
    ]
  },
  "f35bf03e1a30": {
    "id": "f35bf03e1a30",
    "label": "5016 LE VILLAGE, Saint-Pargoire",
    "lat": 43.527885,
    "lng": 3.519259,
    "transactions": [
      {
        "date": "2020-12-11",
        "priceEur": 75000,
        "typeLocal": "Maison",
        "surfaceM2": 104,
        "isVefa": false
      }
    ]
  },
  "23d8a4b4ccf1": {
    "id": "23d8a4b4ccf1",
    "label": "3B LOT LE PRES DE SAINT THOMAS, Saint-Pargoire",
    "lat": 43.527879,
    "lng": 3.524511,
    "transactions": [
      {
        "date": "2020-12-17",
        "priceEur": 225150,
        "typeLocal": "Maison",
        "surfaceM2": 92,
        "isVefa": false
      }
    ]
  },
  "441a8935dd3d": {
    "id": "441a8935dd3d",
    "label": "5408 LE VILLAGE, Saint-Pargoire",
    "lat": 43.528562,
    "lng": 3.519452,
    "transactions": [
      {
        "date": "2024-03-25",
        "priceEur": 124810,
        "typeLocal": "Maison",
        "surfaceM2": 46,
        "isVefa": false
      },
      {
        "date": "2020-12-18",
        "priceEur": 90700,
        "typeLocal": "Maison",
        "surfaceM2": 46,
        "isVefa": false
      }
    ]
  },
  "cbcd269080fd": {
    "id": "cbcd269080fd",
    "label": "11 PL ROGER SALENGRO, Saint-Pargoire",
    "lat": 43.528521,
    "lng": 3.519481,
    "transactions": [
      {
        "date": "2020-12-23",
        "priceEur": 30000,
        "typeLocal": "Maison",
        "surfaceM2": 80,
        "isVefa": false
      }
    ]
  },
  "ba8a14bba0bd": {
    "id": "ba8a14bba0bd",
    "label": "10 RUE PORTE NEUVE, Saint-Pargoire",
    "lat": 43.528217,
    "lng": 3.5196,
    "transactions": [
      {
        "date": "2021-01-22",
        "priceEur": 80000,
        "typeLocal": "Maison",
        "surfaceM2": 41,
        "isVefa": false
      }
    ]
  },
  "c3d72773bba2": {
    "id": "c3d72773bba2",
    "label": "5 BD DE LA VICTOIRE, Saint-Pargoire",
    "lat": 43.528243,
    "lng": 3.517422,
    "transactions": [
      {
        "date": "2021-02-04",
        "priceEur": 111500,
        "typeLocal": "Maison",
        "surfaceM2": 88,
        "isVefa": false
      }
    ]
  },
  "07caabf396fc": {
    "id": "07caabf396fc",
    "label": "19 PL ROGER SALENGRO, Saint-Pargoire",
    "lat": 43.528369,
    "lng": 3.51958,
    "transactions": [
      {
        "date": "2021-02-11",
        "priceEur": 80000,
        "typeLocal": "Appartement",
        "surfaceM2": 82,
        "isVefa": false
      }
    ]
  },
  "16e0c0f340bc": {
    "id": "16e0c0f340bc",
    "label": "4 AV DE CAMPAGNAN, Saint-Pargoire",
    "lat": 43.528309,
    "lng": 3.516927,
    "transactions": [
      {
        "date": "2021-02-12",
        "priceEur": 173000,
        "typeLocal": "Maison",
        "surfaceM2": 91,
        "isVefa": false
      }
    ]
  },
  "c55360f9c24c": {
    "id": "c55360f9c24c",
    "label": "39 PL ROGER SALENGRO, Saint-Pargoire",
    "lat": 43.527964,
    "lng": 3.519859,
    "transactions": [
      {
        "date": "2021-03-09",
        "priceEur": 60000,
        "typeLocal": "Appartement",
        "surfaceM2": 61,
        "isVefa": false
      },
      {
        "date": "2021-03-09",
        "priceEur": 60000,
        "typeLocal": "Appartement",
        "surfaceM2": 46,
        "isVefa": false
      }
    ]
  },
  "a4c7a9502c01": {
    "id": "a4c7a9502c01",
    "label": "1 PL ROGER SALENGRO, Saint-Pargoire",
    "lat": 43.528926,
    "lng": 3.519176,
    "transactions": [
      {
        "date": "2021-03-18",
        "priceEur": 125760,
        "typeLocal": "Maison",
        "surfaceM2": 40,
        "isVefa": false
      }
    ]
  },
  "504610a96f0d": {
    "id": "504610a96f0d",
    "label": "22 RUE ANCIEN CHEMIN DE PEZENAS, Saint-Pargoire",
    "lat": 43.527733,
    "lng": 3.516771,
    "transactions": [
      {
        "date": "2021-03-16",
        "priceEur": 135000,
        "typeLocal": "Maison",
        "surfaceM2": 65,
        "isVefa": false
      }
    ]
  },
  "e0593cc71c86": {
    "id": "e0593cc71c86",
    "label": "11 RUE DERRIERE LES MURS, Saint-Pargoire",
    "lat": 43.529131,
    "lng": 3.518625,
    "transactions": [
      {
        "date": "2021-03-22",
        "priceEur": 85000,
        "typeLocal": "Maison",
        "surfaceM2": 35,
        "isVefa": false
      }
    ]
  },
  "9a319cee9e7c": {
    "id": "9a319cee9e7c",
    "label": "16 RUE DERRIERE LES MURS, Saint-Pargoire",
    "lat": 43.528537,
    "lng": 3.517713,
    "transactions": [
      {
        "date": "2023-07-24",
        "priceEur": 122500,
        "typeLocal": "Maison",
        "surfaceM2": 75,
        "isVefa": false
      },
      {
        "date": "2021-04-02",
        "priceEur": 87500,
        "typeLocal": "Maison",
        "surfaceM2": 75,
        "isVefa": false
      }
    ]
  },
  "6de3d86b8c6c": {
    "id": "6de3d86b8c6c",
    "label": "31 RUE DE LA TRESORERIE, Saint-Pargoire",
    "lat": 43.528859,
    "lng": 3.522196,
    "transactions": [
      {
        "date": "2021-04-30",
        "priceEur": 230000,
        "typeLocal": "Maison",
        "surfaceM2": 106,
        "isVefa": false
      }
    ]
  },
  "b343540edaf0": {
    "id": "b343540edaf0",
    "label": "13 RUE DU CARREAU, Saint-Pargoire",
    "lat": 43.528537,
    "lng": 3.51794,
    "transactions": [
      {
        "date": "2021-05-10",
        "priceEur": 116750,
        "typeLocal": "Maison",
        "surfaceM2": 75,
        "isVefa": false
      }
    ]
  },
  "98d4adba555a": {
    "id": "98d4adba555a",
    "label": "14 RUE DE L EGLISE, Saint-Pargoire",
    "lat": 43.528347,
    "lng": 3.518287,
    "transactions": [
      {
        "date": "2021-05-31",
        "priceEur": 30000,
        "typeLocal": "Maison",
        "surfaceM2": 55,
        "isVefa": false
      }
    ]
  },
  "1e699c5f4c99": {
    "id": "1e699c5f4c99",
    "label": "3 BD DE LA VICTOIRE, Saint-Pargoire",
    "lat": 43.528168,
    "lng": 3.51733,
    "transactions": [
      {
        "date": "2024-02-27",
        "priceEur": 257960,
        "typeLocal": "Maison",
        "surfaceM2": 84,
        "isVefa": false
      },
      {
        "date": "2021-06-03",
        "priceEur": 144500,
        "typeLocal": "Maison",
        "surfaceM2": 84,
        "isVefa": false
      }
    ]
  },
  "7e59416c5f99": {
    "id": "7e59416c5f99",
    "label": "5 AV DE CAMPAGNAN, Saint-Pargoire",
    "lat": 43.528604,
    "lng": 3.516929,
    "transactions": [
      {
        "date": "2021-06-08",
        "priceEur": 149000,
        "typeLocal": "Maison",
        "surfaceM2": 137,
        "isVefa": false
      }
    ]
  },
  "e08148dcc23e": {
    "id": "e08148dcc23e",
    "label": "8 RUE DU CARREAU, Saint-Pargoire",
    "lat": 43.528508,
    "lng": 3.518092,
    "transactions": [
      {
        "date": "2021-06-25",
        "priceEur": 164400,
        "typeLocal": "Maison",
        "surfaceM2": 84,
        "isVefa": false
      }
    ]
  },
  "5c17b2af1c39": {
    "id": "5c17b2af1c39",
    "label": "4 RUE ANCIEN CHEMIN DE PEZENAS, Saint-Pargoire",
    "lat": 43.528311,
    "lng": 3.517295,
    "transactions": [
      {
        "date": "2022-03-23",
        "priceEur": 131985,
        "typeLocal": "Appartement",
        "surfaceM2": 58,
        "isVefa": false
      },
      {
        "date": "2021-06-09",
        "priceEur": 97985,
        "typeLocal": "Maison",
        "surfaceM2": 108,
        "isVefa": false
      }
    ]
  },
  "6302589e6567": {
    "id": "6302589e6567",
    "label": "8 RUE DE LA PAIX, Saint-Pargoire",
    "lat": 43.529214,
    "lng": 3.51954,
    "transactions": [
      {
        "date": "2021-06-25",
        "priceEur": 224920,
        "typeLocal": "Maison",
        "surfaceM2": 127,
        "isVefa": false
      }
    ]
  },
  "34f4eedb3d74": {
    "id": "34f4eedb3d74",
    "label": "5449F AV DU MAS D AFFRE, Saint-Pargoire",
    "lat": 43.529274,
    "lng": 3.516448,
    "transactions": [
      {
        "date": "2021-07-09",
        "priceEur": 261400,
        "typeLocal": "Maison",
        "surfaceM2": 100,
        "isVefa": false
      }
    ]
  },
  "47d10a4cd408": {
    "id": "47d10a4cd408",
    "label": "5 RUE DU CHATEAU, Saint-Pargoire",
    "lat": 43.528585,
    "lng": 3.518465,
    "transactions": [
      {
        "date": "2021-08-16",
        "priceEur": 189000,
        "typeLocal": "Maison",
        "surfaceM2": 120,
        "isVefa": false
      }
    ]
  },
  "9d5db7f57bdf": {
    "id": "9d5db7f57bdf",
    "label": "25 RUE DERRIERE LES MURS, Saint-Pargoire",
    "lat": 43.528779,
    "lng": 3.517653,
    "transactions": [
      {
        "date": "2024-10-23",
        "priceEur": 52231,
        "typeLocal": "Maison",
        "surfaceM2": 54,
        "isVefa": false
      },
      {
        "date": "2021-08-19",
        "priceEur": 48500,
        "typeLocal": "Maison",
        "surfaceM2": 54,
        "isVefa": false
      }
    ]
  },
  "90335fdf3bcb": {
    "id": "90335fdf3bcb",
    "label": "3 PL DU PLAN, Saint-Pargoire",
    "lat": 43.528909,
    "lng": 3.518602,
    "transactions": [
      {
        "date": "2021-07-27",
        "priceEur": 104500,
        "typeLocal": "Maison",
        "surfaceM2": 130,
        "isVefa": false
      }
    ]
  },
  "d793c53f57fd": {
    "id": "d793c53f57fd",
    "label": "1 IMP DU CRES, Saint-Pargoire",
    "lat": 43.526343,
    "lng": 3.520151,
    "transactions": [
      {
        "date": "2021-07-30",
        "priceEur": 363620,
        "typeLocal": "Maison",
        "surfaceM2": 203,
        "isVefa": false
      }
    ]
  },
  "d662429cdfb3": {
    "id": "d662429cdfb3",
    "label": "9 RUE DU CARREAU, Saint-Pargoire",
    "lat": 43.5286,
    "lng": 3.517896,
    "transactions": [
      {
        "date": "2021-08-18",
        "priceEur": 140298,
        "typeLocal": "Maison",
        "surfaceM2": 48,
        "isVefa": false
      }
    ]
  },
  "54a0c7daa328": {
    "id": "54a0c7daa328",
    "label": "5000F CHE DE MONTPLAISIR, Saint-Pargoire",
    "lat": 43.527638,
    "lng": 3.523961,
    "transactions": [
      {
        "date": "2021-08-27",
        "priceEur": 199500,
        "typeLocal": "Maison",
        "surfaceM2": 76,
        "isVefa": false
      }
    ]
  },
  "b0a0cbf1d24f": {
    "id": "b0a0cbf1d24f",
    "label": "13B AV ALBERT LAURENS, Saint-Pargoire",
    "lat": 43.528165,
    "lng": 3.524358,
    "transactions": [
      {
        "date": "2021-08-23",
        "priceEur": 262000,
        "typeLocal": "Maison",
        "surfaceM2": 116,
        "isVefa": false
      }
    ]
  },
  "170de34edda2": {
    "id": "170de34edda2",
    "label": "5022 LE VILLAGE, Saint-Pargoire",
    "lat": 43.528072,
    "lng": 3.518914,
    "transactions": [
      {
        "date": "2021-09-21",
        "priceEur": 32500,
        "typeLocal": "Maison",
        "surfaceM2": 60,
        "isVefa": false
      }
    ]
  },
  "02eedfc3d7a5": {
    "id": "02eedfc3d7a5",
    "label": "27 AV DE LA CAVE COOPERATIVE, Saint-Pargoire",
    "lat": 43.52792,
    "lng": 3.526327,
    "transactions": [
      {
        "date": "2021-10-11",
        "priceEur": 180000,
        "typeLocal": "Maison",
        "surfaceM2": 76,
        "isVefa": false
      }
    ]
  },
  "aac529c491d9": {
    "id": "aac529c491d9",
    "label": "14 RUE DE LA MAIRIE, Saint-Pargoire",
    "lat": 43.528629,
    "lng": 3.519069,
    "transactions": [
      {
        "date": "2021-10-18",
        "priceEur": 90000,
        "typeLocal": "Maison",
        "surfaceM2": 59,
        "isVefa": false
      }
    ]
  },
  "20c54770e88a": {
    "id": "20c54770e88a",
    "label": "13T AV ALBERT LAURENS, Saint-Pargoire",
    "lat": 43.528079,
    "lng": 3.524613,
    "transactions": [
      {
        "date": "2023-12-13",
        "priceEur": 303800,
        "typeLocal": "Maison",
        "surfaceM2": 112,
        "isVefa": false
      },
      {
        "date": "2021-10-20",
        "priceEur": 232500,
        "typeLocal": "Maison",
        "surfaceM2": 112,
        "isVefa": false
      }
    ]
  },
  "074b5a33328c": {
    "id": "074b5a33328c",
    "label": "2 LES CAMBINIERES, Saint-Pargoire",
    "lat": 43.526719,
    "lng": 3.526554,
    "transactions": [
      {
        "date": "2021-10-29",
        "priceEur": 347000,
        "typeLocal": "Maison",
        "surfaceM2": 120,
        "isVefa": false
      }
    ]
  },
  "6d9be3adb62b": {
    "id": "6d9be3adb62b",
    "label": "15 LOT LE PRES DE SAINT THOMAS, Saint-Pargoire",
    "lat": 43.527496,
    "lng": 3.524935,
    "transactions": [
      {
        "date": "2021-11-17",
        "priceEur": 257000,
        "typeLocal": "Maison",
        "surfaceM2": 103,
        "isVefa": false
      }
    ]
  },
  "6a8f7ad60f01": {
    "id": "6a8f7ad60f01",
    "label": "5451F AV DU MAS D AFFRE, Saint-Pargoire",
    "lat": 43.529118,
    "lng": 3.516635,
    "transactions": [
      {
        "date": "2021-11-03",
        "priceEur": 256000,
        "typeLocal": "Maison",
        "surfaceM2": 85,
        "isVefa": false
      }
    ]
  },
  "d8c5229d48c2": {
    "id": "d8c5229d48c2",
    "label": "30 RUE ANCIEN CHEMIN DE PEZENAS, Saint-Pargoire",
    "lat": 43.527483,
    "lng": 3.516659,
    "transactions": [
      {
        "date": "2021-12-13",
        "priceEur": 178000,
        "typeLocal": "Maison",
        "surfaceM2": 91,
        "isVefa": false
      }
    ]
  },
  "388f24919b22": {
    "id": "388f24919b22",
    "label": "1B RUE GAMBETTA, Saint-Pargoire",
    "lat": 43.528758,
    "lng": 3.520673,
    "transactions": [
      {
        "date": "2021-12-30",
        "priceEur": 190000,
        "typeLocal": "Maison",
        "surfaceM2": 104,
        "isVefa": false
      }
    ]
  },
  "7eb4b9844ae3": {
    "id": "7eb4b9844ae3",
    "label": "7 RUE DU CARREAU, Saint-Pargoire",
    "lat": 43.528677,
    "lng": 3.517984,
    "transactions": [
      {
        "date": "2023-11-20",
        "priceEur": 103600,
        "typeLocal": "Maison",
        "surfaceM2": 47,
        "isVefa": false
      },
      {
        "date": "2021-12-28",
        "priceEur": 33000,
        "typeLocal": "Maison",
        "surfaceM2": 47,
        "isVefa": false
      }
    ]
  },
  "a5cdafc54b98": {
    "id": "a5cdafc54b98",
    "label": "6105F IMP DU CRES, Saint-Pargoire",
    "lat": 43.525388,
    "lng": 3.520551,
    "transactions": [
      {
        "date": "2025-01-14",
        "priceEur": 317000,
        "typeLocal": "Maison",
        "surfaceM2": 139,
        "isVefa": false
      },
      {
        "date": "2025-01-14",
        "priceEur": 317000,
        "typeLocal": "Maison",
        "surfaceM2": 139,
        "isVefa": false
      },
      {
        "date": "2022-01-21",
        "priceEur": 337700,
        "typeLocal": "Maison",
        "surfaceM2": 139,
        "isVefa": false
      },
      {
        "date": "2022-01-21",
        "priceEur": 337700,
        "typeLocal": "Maison",
        "surfaceM2": 139,
        "isVefa": false
      }
    ]
  },
  "700feed60825": {
    "id": "700feed60825",
    "label": "6 PL DU PLAN, Saint-Pargoire",
    "lat": 43.528657,
    "lng": 3.518373,
    "transactions": [
      {
        "date": "2022-01-31",
        "priceEur": 189000,
        "typeLocal": "Maison",
        "surfaceM2": 100,
        "isVefa": false
      }
    ]
  },
  "9d805286c615": {
    "id": "9d805286c615",
    "label": "18 AV DES PIGEONNIERS, Saint-Pargoire",
    "lat": 43.530203,
    "lng": 3.526387,
    "transactions": [
      {
        "date": "2022-02-18",
        "priceEur": 285000,
        "typeLocal": "Maison",
        "surfaceM2": 98,
        "isVefa": false
      }
    ]
  },
  "e170e4ad66b3": {
    "id": "e170e4ad66b3",
    "label": "5 RUE ANCIEN CHEMIN DE PEZENAS, Saint-Pargoire",
    "lat": 43.528293,
    "lng": 3.517026,
    "transactions": [
      {
        "date": "2022-03-23",
        "priceEur": 90700,
        "typeLocal": "Maison",
        "surfaceM2": 73,
        "isVefa": false
      }
    ]
  },
  "a22768ae5486": {
    "id": "a22768ae5486",
    "label": "5437F AV DU MAS D AFFRE, Saint-Pargoire",
    "lat": 43.529671,
    "lng": 3.516334,
    "transactions": [
      {
        "date": "2022-03-23",
        "priceEur": 271500,
        "typeLocal": "Maison",
        "surfaceM2": 88,
        "isVefa": false
      }
    ]
  },
  "904b76db5020": {
    "id": "904b76db5020",
    "label": "17 PL ROGER SALENGRO, Saint-Pargoire",
    "lat": 43.528425,
    "lng": 3.519601,
    "transactions": [
      {
        "date": "2022-03-21",
        "priceEur": 46500,
        "typeLocal": "Maison",
        "surfaceM2": 48,
        "isVefa": false
      }
    ]
  },
  "c4b2df7bcd81": {
    "id": "c4b2df7bcd81",
    "label": "12 LOT CAMBINIERES, Saint-Pargoire",
    "lat": 43.527298,
    "lng": 3.525506,
    "transactions": [
      {
        "date": "2022-04-01",
        "priceEur": 218000,
        "typeLocal": "Maison",
        "surfaceM2": 88,
        "isVefa": false
      }
    ]
  },
  "c53b19e1998a": {
    "id": "c53b19e1998a",
    "label": "7 RUE DE LA REPUBLIQUE, Saint-Pargoire",
    "lat": 43.528561,
    "lng": 3.519993,
    "transactions": [
      {
        "date": "2023-10-27",
        "priceEur": 97000,
        "typeLocal": "Appartement",
        "surfaceM2": 60,
        "isVefa": false
      },
      {
        "date": "2022-04-21",
        "priceEur": 87000,
        "typeLocal": "Appartement",
        "surfaceM2": 60,
        "isVefa": false
      }
    ]
  },
  "eb0ce5470a12": {
    "id": "eb0ce5470a12",
    "label": "5444F AV DU MAS D AFFRE, Saint-Pargoire",
    "lat": 43.529114,
    "lng": 3.51574,
    "transactions": [
      {
        "date": "2022-05-02",
        "priceEur": 347863.22,
        "typeLocal": "Maison",
        "surfaceM2": 95,
        "isVefa": false
      }
    ]
  },
  "5e32c6f3f132": {
    "id": "5e32c6f3f132",
    "label": "6 RUE DE LA MASSE, Saint-Pargoire",
    "lat": 43.528815,
    "lng": 3.520024,
    "transactions": [
      {
        "date": "2022-05-16",
        "priceEur": 160800,
        "typeLocal": "Maison",
        "surfaceM2": 63,
        "isVefa": false
      }
    ]
  },
  "4ca5ca3df4e3": {
    "id": "4ca5ca3df4e3",
    "label": "10 LOT LE PRES DE SAINT THOMAS, Saint-Pargoire",
    "lat": 43.52754,
    "lng": 3.524416,
    "transactions": [
      {
        "date": "2022-05-31",
        "priceEur": 190900,
        "typeLocal": "Maison",
        "surfaceM2": 76,
        "isVefa": false
      }
    ]
  },
  "20247fbf761f": {
    "id": "20247fbf761f",
    "label": "4 AV ALBERT LAURENS, Saint-Pargoire",
    "lat": 43.529005,
    "lng": 3.523336,
    "transactions": [
      {
        "date": "2022-07-01",
        "priceEur": 187000,
        "typeLocal": "Appartement",
        "surfaceM2": 80,
        "isVefa": false
      },
      {
        "date": "2022-07-01",
        "priceEur": 187000,
        "typeLocal": "Appartement",
        "surfaceM2": 80,
        "isVefa": false
      }
    ]
  },
  "f92023ccc10a": {
    "id": "f92023ccc10a",
    "label": "27 RUE DE L EGLISE, Saint-Pargoire",
    "lat": 43.528248,
    "lng": 3.518401,
    "transactions": [
      {
        "date": "2022-06-16",
        "priceEur": 35000,
        "typeLocal": "Appartement",
        "surfaceM2": 37,
        "isVefa": false
      }
    ]
  },
  "affd11db5c52": {
    "id": "affd11db5c52",
    "label": "5223 LE VILLAGE, Saint-Pargoire",
    "lat": 43.526909,
    "lng": 3.519681,
    "transactions": [
      {
        "date": "2025-02-28",
        "priceEur": 115000,
        "typeLocal": "Maison",
        "surfaceM2": 37,
        "isVefa": false
      },
      {
        "date": "2022-06-29",
        "priceEur": 57500,
        "typeLocal": "Maison",
        "surfaceM2": 37,
        "isVefa": false
      }
    ]
  },
  "7b6bdeb30b29": {
    "id": "7b6bdeb30b29",
    "label": "2 RUE DU CHATEAU, Saint-Pargoire",
    "lat": 43.5286,
    "lng": 3.518837,
    "transactions": [
      {
        "date": "2022-07-26",
        "priceEur": 190000,
        "typeLocal": "Maison",
        "surfaceM2": 90,
        "isVefa": false
      }
    ]
  },
  "88a128bc218a": {
    "id": "88a128bc218a",
    "label": "8 PL ROGER SALENGRO, Saint-Pargoire",
    "lat": 43.528805,
    "lng": 3.519578,
    "transactions": [
      {
        "date": "2023-04-07",
        "priceEur": 162000,
        "typeLocal": "Maison",
        "surfaceM2": 56,
        "isVefa": false
      },
      {
        "date": "2022-07-12",
        "priceEur": 106500,
        "typeLocal": "Maison",
        "surfaceM2": 56,
        "isVefa": false
      }
    ]
  },
  "aae1cc19f0fd": {
    "id": "aae1cc19f0fd",
    "label": "8B PL ROGER SALENGRO, Saint-Pargoire",
    "lat": 43.528777,
    "lng": 3.519597,
    "transactions": [
      {
        "date": "2023-04-07",
        "priceEur": 162000,
        "typeLocal": "Maison",
        "surfaceM2": 15,
        "isVefa": false
      },
      {
        "date": "2022-07-12",
        "priceEur": 106500,
        "typeLocal": "Maison",
        "surfaceM2": 15,
        "isVefa": false
      }
    ]
  },
  "07623d64873c": {
    "id": "07623d64873c",
    "label": "5001F LOT LE PRES DE SAINT THOMAS, Saint-Pargoire",
    "lat": 43.527612,
    "lng": 3.52415,
    "transactions": [
      {
        "date": "2022-07-08",
        "priceEur": 212400,
        "typeLocal": "Maison",
        "surfaceM2": 76,
        "isVefa": false
      }
    ]
  },
  "82736f1a5726": {
    "id": "82736f1a5726",
    "label": "28 PL ROGER SALENGRO, Saint-Pargoire",
    "lat": 43.527942,
    "lng": 3.520037,
    "transactions": [
      {
        "date": "2022-07-21",
        "priceEur": 138000,
        "typeLocal": "Maison",
        "surfaceM2": 62,
        "isVefa": false
      }
    ]
  },
  "5fb724ac0edd": {
    "id": "5fb724ac0edd",
    "label": "7 RUE DE LA MASSE, Saint-Pargoire",
    "lat": 43.528784,
    "lng": 3.520252,
    "transactions": [
      {
        "date": "2022-07-28",
        "priceEur": 235000,
        "typeLocal": "Maison",
        "surfaceM2": 122,
        "isVefa": false
      }
    ]
  },
  "aef29985ea27": {
    "id": "aef29985ea27",
    "label": "8 RUE DE LA MASSE, Saint-Pargoire",
    "lat": 43.528836,
    "lng": 3.520103,
    "transactions": [
      {
        "date": "2022-08-01",
        "priceEur": 194550,
        "typeLocal": "Maison",
        "surfaceM2": 130,
        "isVefa": false
      }
    ]
  },
  "8cbaeae27942": {
    "id": "8cbaeae27942",
    "label": "14 RUE DE LA MASSE, Saint-Pargoire",
    "lat": 43.529087,
    "lng": 3.520347,
    "transactions": [
      {
        "date": "2024-04-23",
        "priceEur": 228320,
        "typeLocal": "Maison",
        "surfaceM2": 115,
        "isVefa": false
      },
      {
        "date": "2022-08-18",
        "priceEur": 210000,
        "typeLocal": "Maison",
        "surfaceM2": 115,
        "isVefa": false
      }
    ]
  },
  "1fc18486eff1": {
    "id": "1fc18486eff1",
    "label": "1 RUE VEUVE DURAND, Saint-Pargoire",
    "lat": 43.528392,
    "lng": 3.518142,
    "transactions": [
      {
        "date": "2022-08-24",
        "priceEur": 17900,
        "typeLocal": "Appartement",
        "surfaceM2": 53,
        "isVefa": false
      },
      {
        "date": "2022-08-24",
        "priceEur": 17900,
        "typeLocal": "Appartement",
        "surfaceM2": 34,
        "isVefa": false
      }
    ]
  },
  "d40c5f65562e": {
    "id": "d40c5f65562e",
    "label": "1 RUE DU TEMPLE, Saint-Pargoire",
    "lat": 43.527105,
    "lng": 3.518302,
    "transactions": [
      {
        "date": "2022-10-04",
        "priceEur": 230000,
        "typeLocal": "Maison",
        "surfaceM2": 84,
        "isVefa": false
      }
    ]
  },
  "8b8c815cae74": {
    "id": "8b8c815cae74",
    "label": "31 RUE DE LA MAIRIE, Saint-Pargoire",
    "lat": 43.528915,
    "lng": 3.518827,
    "transactions": [
      {
        "date": "2022-10-10",
        "priceEur": 122600,
        "typeLocal": "Maison",
        "surfaceM2": 89,
        "isVefa": false
      }
    ]
  },
  "b28f8cf90dc7": {
    "id": "b28f8cf90dc7",
    "label": "13 LOT LE PRES DE SAINT THOMAS, Saint-Pargoire",
    "lat": 43.527479,
    "lng": 3.52469,
    "transactions": [
      {
        "date": "2022-10-07",
        "priceEur": 186500,
        "typeLocal": "Maison",
        "surfaceM2": 70,
        "isVefa": false
      }
    ]
  },
  "4e7fee73cfd4": {
    "id": "4e7fee73cfd4",
    "label": "37 AV DE LA GARE, Saint-Pargoire",
    "lat": 43.52551,
    "lng": 3.518189,
    "transactions": [
      {
        "date": "2022-11-03",
        "priceEur": 190000,
        "typeLocal": "Maison",
        "surfaceM2": 115,
        "isVefa": false
      }
    ]
  },
  "01416608631d": {
    "id": "01416608631d",
    "label": "2B RUE DU TEMPLE, Saint-Pargoire",
    "lat": 43.526886,
    "lng": 3.518246,
    "transactions": [
      {
        "date": "2022-12-22",
        "priceEur": 272150,
        "typeLocal": "Maison",
        "surfaceM2": 115,
        "isVefa": false
      },
      {
        "date": "2022-12-22",
        "priceEur": 272150,
        "typeLocal": "Maison",
        "surfaceM2": 79,
        "isVefa": false
      }
    ]
  },
  "bdcb412840e1": {
    "id": "bdcb412840e1",
    "label": "1 RUE PORTE NEUVE, Saint-Pargoire",
    "lat": 43.528231,
    "lng": 3.519405,
    "transactions": [
      {
        "date": "2022-11-22",
        "priceEur": 47000,
        "typeLocal": "Maison",
        "surfaceM2": 44,
        "isVefa": false
      }
    ]
  },
  "d325984ab9a4": {
    "id": "d325984ab9a4",
    "label": "2 IMP DE L OLIVIER, Saint-Pargoire",
    "lat": 43.525697,
    "lng": 3.52556,
    "transactions": [
      {
        "date": "2023-01-09",
        "priceEur": 430000,
        "typeLocal": "Maison",
        "surfaceM2": 133,
        "isVefa": false
      },
      {
        "date": "2023-01-09",
        "priceEur": 430000,
        "typeLocal": "Maison",
        "surfaceM2": 133,
        "isVefa": false
      }
    ]
  },
  "e42fa76b9628": {
    "id": "e42fa76b9628",
    "label": "37 PL ROGER SALENGRO, Saint-Pargoire",
    "lat": 43.528014,
    "lng": 3.519883,
    "transactions": [
      {
        "date": "2023-01-19",
        "priceEur": 32000,
        "typeLocal": "Maison",
        "surfaceM2": 30,
        "isVefa": false
      }
    ]
  },
  "32196a0974af": {
    "id": "32196a0974af",
    "label": "6433F AV DU MAS D AFFRE, Saint-Pargoire",
    "lat": 43.529378,
    "lng": 3.516733,
    "transactions": [
      {
        "date": "2023-03-02",
        "priceEur": 282200,
        "typeLocal": "Maison",
        "surfaceM2": 84,
        "isVefa": false
      }
    ]
  },
  "b5c491cfb9df": {
    "id": "b5c491cfb9df",
    "label": "18 AV DE LA GARE, Saint-Pargoire",
    "lat": 43.525643,
    "lng": 3.518741,
    "transactions": [
      {
        "date": "2023-03-14",
        "priceEur": 116000,
        "typeLocal": "Maison",
        "surfaceM2": 70,
        "isVefa": false
      }
    ]
  },
  "b7023aba3c37": {
    "id": "b7023aba3c37",
    "label": "10 RUE DE LA MAIRIE, Saint-Pargoire",
    "lat": 43.528524,
    "lng": 3.519125,
    "transactions": [
      {
        "date": "2024-12-06",
        "priceEur": 153762.5,
        "typeLocal": "Maison",
        "surfaceM2": 93,
        "isVefa": false
      },
      {
        "date": "2023-03-17",
        "priceEur": 55000,
        "typeLocal": "Maison",
        "surfaceM2": 93,
        "isVefa": false
      }
    ]
  },
  "62bfb18b62da": {
    "id": "62bfb18b62da",
    "label": "13 PL DU PLAN, Saint-Pargoire",
    "lat": 43.528866,
    "lng": 3.518376,
    "transactions": [
      {
        "date": "2023-03-21",
        "priceEur": 130000,
        "typeLocal": "Maison",
        "surfaceM2": 84,
        "isVefa": false
      }
    ]
  },
  "4adbc2272ee0": {
    "id": "4adbc2272ee0",
    "label": "12 RUE PORTE NEUVE, Saint-Pargoire",
    "lat": 43.528246,
    "lng": 3.519654,
    "transactions": [
      {
        "date": "2023-03-28",
        "priceEur": 66000,
        "typeLocal": "Maison",
        "surfaceM2": 28,
        "isVefa": false
      }
    ]
  },
  "dc708becef4f": {
    "id": "dc708becef4f",
    "label": "17 RUE DE LA POSTE, Saint-Pargoire",
    "lat": 43.528099,
    "lng": 3.519363,
    "transactions": [
      {
        "date": "2023-03-31",
        "priceEur": 128000,
        "typeLocal": "Maison",
        "surfaceM2": 70,
        "isVefa": false
      }
    ]
  },
  "e78aeaa85c27": {
    "id": "e78aeaa85c27",
    "label": "4 RUE DU STADE, Saint-Pargoire",
    "lat": 43.526081,
    "lng": 3.520092,
    "transactions": [
      {
        "date": "2023-03-30",
        "priceEur": 310000,
        "typeLocal": "Maison",
        "surfaceM2": 156,
        "isVefa": false
      }
    ]
  },
  "44ec2e9e549c": {
    "id": "44ec2e9e549c",
    "label": "2A RUE DERRIERE LES MURS, Saint-Pargoire",
    "lat": 43.528949,
    "lng": 3.519098,
    "transactions": [
      {
        "date": "2024-03-15",
        "priceEur": 83000,
        "typeLocal": "Maison",
        "surfaceM2": 61,
        "isVefa": false
      },
      {
        "date": "2023-03-21",
        "priceEur": 84000,
        "typeLocal": "Maison",
        "surfaceM2": 61,
        "isVefa": false
      }
    ]
  },
  "0082c3726c27": {
    "id": "0082c3726c27",
    "label": "3B RUE DES ECOLES, Saint-Pargoire",
    "lat": 43.527591,
    "lng": 3.519616,
    "transactions": [
      {
        "date": "2023-03-23",
        "priceEur": 81450,
        "typeLocal": "Maison",
        "surfaceM2": 74,
        "isVefa": false
      }
    ]
  },
  "5028217f0344": {
    "id": "5028217f0344",
    "label": "4 RUE DE LA POSTE, Saint-Pargoire",
    "lat": 43.527815,
    "lng": 3.519524,
    "transactions": [
      {
        "date": "2023-03-02",
        "priceEur": 90000,
        "typeLocal": "Maison",
        "surfaceM2": 40,
        "isVefa": false
      }
    ]
  },
  "bcc4cc28d290": {
    "id": "bcc4cc28d290",
    "label": "1 BD DE LA VICTOIRE, Saint-Pargoire",
    "lat": 43.528216,
    "lng": 3.518074,
    "transactions": [
      {
        "date": "2023-04-26",
        "priceEur": 295000,
        "typeLocal": "Maison",
        "surfaceM2": 148,
        "isVefa": false
      }
    ]
  },
  "fa322d0a46ef": {
    "id": "fa322d0a46ef",
    "label": "3 RUE DU CARREAU, Saint-Pargoire",
    "lat": 43.528732,
    "lng": 3.518007,
    "transactions": [
      {
        "date": "2023-05-10",
        "priceEur": 139000,
        "typeLocal": "Maison",
        "surfaceM2": 72,
        "isVefa": false
      }
    ]
  },
  "688d28b41af6": {
    "id": "688d28b41af6",
    "label": "16 RUE PORTE NEUVE, Saint-Pargoire",
    "lat": 43.52814,
    "lng": 3.519707,
    "transactions": [
      {
        "date": "2023-05-10",
        "priceEur": 97000,
        "typeLocal": "Maison",
        "surfaceM2": 40,
        "isVefa": false
      }
    ]
  },
  "dc7f17633811": {
    "id": "dc7f17633811",
    "label": "2 RUE DE LA POSTE, Saint-Pargoire",
    "lat": 43.527813,
    "lng": 3.519639,
    "transactions": [
      {
        "date": "2023-05-16",
        "priceEur": 98000,
        "typeLocal": "Maison",
        "surfaceM2": 52,
        "isVefa": false
      }
    ]
  },
  "5950a61cff6f": {
    "id": "5950a61cff6f",
    "label": "10 AV DE CAMPAGNAN, Saint-Pargoire",
    "lat": 43.528248,
    "lng": 3.516578,
    "transactions": [
      {
        "date": "2023-05-26",
        "priceEur": 277920,
        "typeLocal": "Maison",
        "surfaceM2": 140,
        "isVefa": false
      },
      {
        "date": "2023-05-26",
        "priceEur": 277920,
        "typeLocal": "Maison",
        "surfaceM2": 38,
        "isVefa": false
      }
    ]
  },
  "b14beb77a114": {
    "id": "b14beb77a114",
    "label": "5B RUE DES CAMPS NEUFS, Saint-Pargoire",
    "lat": 43.527766,
    "lng": 3.518245,
    "transactions": [
      {
        "date": "2023-05-10",
        "priceEur": 40000,
        "typeLocal": "Maison",
        "surfaceM2": 25,
        "isVefa": false
      }
    ]
  },
  "06636dbea845": {
    "id": "06636dbea845",
    "label": "10 RUE DES ECOLES, Saint-Pargoire",
    "lat": 43.527385,
    "lng": 3.519669,
    "transactions": [
      {
        "date": "2023-05-30",
        "priceEur": 116000,
        "typeLocal": "Maison",
        "surfaceM2": 108,
        "isVefa": false
      }
    ]
  },
  "c7a1d0af6705": {
    "id": "c7a1d0af6705",
    "label": "14 RUE DU CARREAU, Saint-Pargoire",
    "lat": 43.528437,
    "lng": 3.517896,
    "transactions": [
      {
        "date": "2023-05-16",
        "priceEur": 106875,
        "typeLocal": "Maison",
        "surfaceM2": 58,
        "isVefa": false
      }
    ]
  },
  "9121afa78959": {
    "id": "9121afa78959",
    "label": "3B RUE DU TEMPLE, Saint-Pargoire",
    "lat": 43.527058,
    "lng": 3.518639,
    "transactions": [
      {
        "date": "2023-06-21",
        "priceEur": 236000,
        "typeLocal": "Maison",
        "surfaceM2": 72,
        "isVefa": false
      }
    ]
  },
  "b8ef47b4cf8a": {
    "id": "b8ef47b4cf8a",
    "label": "7 AV DE PLAISSAN, Saint-Pargoire",
    "lat": 43.529828,
    "lng": 3.525169,
    "transactions": [
      {
        "date": "2023-09-12",
        "priceEur": 350000,
        "typeLocal": "Maison",
        "surfaceM2": 96,
        "isVefa": false
      }
    ]
  },
  "5af747ed99ce": {
    "id": "5af747ed99ce",
    "label": "8 RUE DES JARDINS, Saint-Pargoire",
    "lat": 43.527606,
    "lng": 3.520019,
    "transactions": [
      {
        "date": "2023-09-22",
        "priceEur": 232800,
        "typeLocal": "Maison",
        "surfaceM2": 77,
        "isVefa": false
      }
    ]
  },
  "48676a8c813e": {
    "id": "48676a8c813e",
    "label": "8 CHE DE SAINT GUILHEM, Saint-Pargoire",
    "lat": 43.526844,
    "lng": 3.519964,
    "transactions": [
      {
        "date": "2023-09-29",
        "priceEur": 250000,
        "typeLocal": "Maison",
        "surfaceM2": 92,
        "isVefa": false
      },
      {
        "date": "2023-09-29",
        "priceEur": 250000,
        "typeLocal": "Maison",
        "surfaceM2": 92,
        "isVefa": false
      }
    ]
  },
  "d176560ace0e": {
    "id": "d176560ace0e",
    "label": "20 PL ROGER SALENGRO, Saint-Pargoire",
    "lat": 43.528138,
    "lng": 3.52016,
    "transactions": [
      {
        "date": "2023-09-21",
        "priceEur": 125000,
        "typeLocal": "Maison",
        "surfaceM2": 60,
        "isVefa": false
      }
    ]
  },
  "f6fe360349b9": {
    "id": "f6fe360349b9",
    "label": "3 RUE DE L EGLISE, Saint-Pargoire",
    "lat": 43.528324,
    "lng": 3.517606,
    "transactions": [
      {
        "date": "2023-09-19",
        "priceEur": 215510,
        "typeLocal": "Maison",
        "surfaceM2": 91,
        "isVefa": false
      }
    ]
  },
  "243fd87f80a6": {
    "id": "243fd87f80a6",
    "label": "30 PL ROGER SALENGRO, Saint-Pargoire",
    "lat": 43.527893,
    "lng": 3.520056,
    "transactions": [
      {
        "date": "2023-11-08",
        "priceEur": 65000,
        "typeLocal": "Maison",
        "surfaceM2": 45,
        "isVefa": false
      }
    ]
  },
  "0d7bc8cf1b01": {
    "id": "0d7bc8cf1b01",
    "label": "2 RUE DE LA TRESORERIE, Saint-Pargoire",
    "lat": 43.528299,
    "lng": 3.520142,
    "transactions": [
      {
        "date": "2023-11-23",
        "priceEur": 250000,
        "typeLocal": "Maison",
        "surfaceM2": 269,
        "isVefa": false
      }
    ]
  },
  "9bc3d1158835": {
    "id": "9bc3d1158835",
    "label": "6 RUE DE L EGLISE, Saint-Pargoire",
    "lat": 43.528393,
    "lng": 3.517878,
    "transactions": [
      {
        "date": "2023-12-05",
        "priceEur": 40000,
        "typeLocal": "Maison",
        "surfaceM2": 80,
        "isVefa": false
      }
    ]
  },
  "44922269790e": {
    "id": "44922269790e",
    "label": "5426F AV DU MAS D AFFRE, Saint-Pargoire",
    "lat": 43.529753,
    "lng": 3.517488,
    "transactions": [
      {
        "date": "2023-12-01",
        "priceEur": 258200,
        "typeLocal": "Maison",
        "surfaceM2": 97,
        "isVefa": false
      }
    ]
  },
  "6ee50278c39d": {
    "id": "6ee50278c39d",
    "label": "34 RUE ANCIEN CHEMIN DE PEZENAS, Saint-Pargoire",
    "lat": 43.52736,
    "lng": 3.51646,
    "transactions": [
      {
        "date": "2023-12-12",
        "priceEur": 238400,
        "typeLocal": "Maison",
        "surfaceM2": 73,
        "isVefa": false
      }
    ]
  },
  "10e5c6113105": {
    "id": "10e5c6113105",
    "label": "11 PL DU PLAN, Saint-Pargoire",
    "lat": 43.528888,
    "lng": 3.518446,
    "transactions": [
      {
        "date": "2023-12-22",
        "priceEur": 190600,
        "typeLocal": "Maison",
        "surfaceM2": 154,
        "isVefa": false
      }
    ]
  },
  "ffcb5f3834ab": {
    "id": "ffcb5f3834ab",
    "label": "9 RUE DE LA PAIX, Saint-Pargoire",
    "lat": 43.529121,
    "lng": 3.520042,
    "transactions": [
      {
        "date": "2024-02-20",
        "priceEur": 107000,
        "typeLocal": "Maison",
        "surfaceM2": 86,
        "isVefa": false
      }
    ]
  },
  "7fb74a88c7c0": {
    "id": "7fb74a88c7c0",
    "label": "10 RUE DU CARREAU, Saint-Pargoire",
    "lat": 43.528451,
    "lng": 3.518089,
    "transactions": [
      {
        "date": "2024-03-12",
        "priceEur": 130000,
        "typeLocal": "Maison",
        "surfaceM2": 85,
        "isVefa": false
      }
    ]
  },
  "d395b5f3cf43": {
    "id": "d395b5f3cf43",
    "label": "3 AV ALBERT LAURENS, Saint-Pargoire",
    "lat": 43.528524,
    "lng": 3.523238,
    "transactions": [
      {
        "date": "2024-03-27",
        "priceEur": 200000,
        "typeLocal": "Maison",
        "surfaceM2": 129,
        "isVefa": false
      }
    ]
  },
  "1d83a65b7e69": {
    "id": "1d83a65b7e69",
    "label": "1 CHE DE SAINT GUILHEM, Saint-Pargoire",
    "lat": 43.526619,
    "lng": 3.519651,
    "transactions": [
      {
        "date": "2024-04-24",
        "priceEur": 300000,
        "typeLocal": "Maison",
        "surfaceM2": 109,
        "isVefa": false
      }
    ]
  },
  "ed3d38dfb462": {
    "id": "ed3d38dfb462",
    "label": "3 CAMP DE LA COUSSE, Saint-Pargoire",
    "lat": 43.530855,
    "lng": 3.518129,
    "transactions": [
      {
        "date": "2024-04-26",
        "priceEur": 112800,
        "typeLocal": "Maison",
        "surfaceM2": 110,
        "isVefa": false
      }
    ]
  },
  "1f31881fa4e1": {
    "id": "1f31881fa4e1",
    "label": "23 AV ALBERT LAURENS, Saint-Pargoire",
    "lat": 43.527399,
    "lng": 3.52658,
    "transactions": [
      {
        "date": "2024-04-30",
        "priceEur": 190000,
        "typeLocal": "Maison",
        "surfaceM2": 72,
        "isVefa": false
      }
    ]
  },
  "8b639392cf7d": {
    "id": "8b639392cf7d",
    "label": "11 RUE DE L EGLISE, Saint-Pargoire",
    "lat": 43.52826,
    "lng": 3.517897,
    "transactions": [
      {
        "date": "2024-04-25",
        "priceEur": 129800,
        "typeLocal": "Maison",
        "surfaceM2": 45,
        "isVefa": false
      }
    ]
  },
  "d6795ff1e111": {
    "id": "d6795ff1e111",
    "label": "31 PL ROGER SALENGRO, Saint-Pargoire",
    "lat": 43.528144,
    "lng": 3.519886,
    "transactions": [
      {
        "date": "2024-06-12",
        "priceEur": 83000,
        "typeLocal": "Maison",
        "surfaceM2": 57,
        "isVefa": false
      }
    ]
  },
  "7a883446e8dd": {
    "id": "7a883446e8dd",
    "label": "4 RUE COPE CAMBE, Saint-Pargoire",
    "lat": 43.527576,
    "lng": 3.518389,
    "transactions": [
      {
        "date": "2024-05-29",
        "priceEur": 70000,
        "typeLocal": "Maison",
        "surfaceM2": 32,
        "isVefa": false
      }
    ]
  },
  "becb27754fa5": {
    "id": "becb27754fa5",
    "label": "12 RUE DE LA MASSE, Saint-Pargoire",
    "lat": 43.528984,
    "lng": 3.520303,
    "transactions": [
      {
        "date": "2024-07-10",
        "priceEur": 75000,
        "typeLocal": "Maison",
        "surfaceM2": 43,
        "isVefa": false
      }
    ]
  },
  "6f1a4d327a18": {
    "id": "6f1a4d327a18",
    "label": "7 AV DE CAMPAGNAN, Saint-Pargoire",
    "lat": 43.528614,
    "lng": 3.516806,
    "transactions": [
      {
        "date": "2024-07-05",
        "priceEur": 281700,
        "typeLocal": "Maison",
        "surfaceM2": 105,
        "isVefa": false
      }
    ]
  },
  "93e452beb9c3": {
    "id": "93e452beb9c3",
    "label": "8 RUE DES ECOLES, Saint-Pargoire",
    "lat": 43.527392,
    "lng": 3.519825,
    "transactions": [
      {
        "date": "2024-07-31",
        "priceEur": 340220,
        "typeLocal": "Maison",
        "surfaceM2": 247,
        "isVefa": false
      }
    ]
  },
  "00d2f9c1cf33": {
    "id": "00d2f9c1cf33",
    "label": "21 AV DE CAMPAGNAN, Saint-Pargoire",
    "lat": 43.528548,
    "lng": 3.515743,
    "transactions": [
      {
        "date": "2024-08-08",
        "priceEur": 169000,
        "typeLocal": "Maison",
        "surfaceM2": 88,
        "isVefa": false
      }
    ]
  },
  "485cbbd8ab5a": {
    "id": "485cbbd8ab5a",
    "label": "2 PL DU PLAN, Saint-Pargoire",
    "lat": 43.528683,
    "lng": 3.518735,
    "transactions": [
      {
        "date": "2024-09-20",
        "priceEur": 337080,
        "typeLocal": "Appartement",
        "surfaceM2": 53,
        "isVefa": false
      },
      {
        "date": "2024-09-20",
        "priceEur": 337080,
        "typeLocal": "Appartement",
        "surfaceM2": 76,
        "isVefa": false
      }
    ]
  },
  "19b67027abbe": {
    "id": "19b67027abbe",
    "label": "8 BD DE LA VICTOIRE, Saint-Pargoire",
    "lat": 43.527786,
    "lng": 3.51764,
    "transactions": [
      {
        "date": "2024-09-30",
        "priceEur": 70000,
        "typeLocal": "Maison",
        "surfaceM2": 74,
        "isVefa": false
      }
    ]
  },
  "d844e7c7a7c8": {
    "id": "d844e7c7a7c8",
    "label": "10 RUE DE LA REPUBLIQUE, Saint-Pargoire",
    "lat": 43.528658,
    "lng": 3.52013,
    "transactions": [
      {
        "date": "2024-12-14",
        "priceEur": 72000,
        "typeLocal": "Maison",
        "surfaceM2": 80,
        "isVefa": false
      }
    ]
  },
  "6c5741a8e021": {
    "id": "6c5741a8e021",
    "label": "25 AV DES PIGEONNIERS, Saint-Pargoire",
    "lat": 43.530311,
    "lng": 3.525999,
    "transactions": [
      {
        "date": "2025-01-07",
        "priceEur": 501700,
        "typeLocal": "Maison",
        "surfaceM2": 145,
        "isVefa": false
      }
    ]
  },
  "59678f4da97b": {
    "id": "59678f4da97b",
    "label": "15 AV DE LA CAVE COOPERATIVE, Saint-Pargoire",
    "lat": 43.528382,
    "lng": 3.526167,
    "transactions": [
      {
        "date": "2025-02-13",
        "priceEur": 243020,
        "typeLocal": "Maison",
        "surfaceM2": 90,
        "isVefa": false
      }
    ]
  },
  "7f6c7d2371d4": {
    "id": "7f6c7d2371d4",
    "label": "9 RUE DE LA MASSE, Saint-Pargoire",
    "lat": 43.52884,
    "lng": 3.520316,
    "transactions": [
      {
        "date": "2025-04-08",
        "priceEur": 67000,
        "typeLocal": "Maison",
        "surfaceM2": 49,
        "isVefa": false
      }
    ]
  },
  "8bef4b9b11f0": {
    "id": "8bef4b9b11f0",
    "label": "4 AV DE PLAISSAN, Saint-Pargoire",
    "lat": 43.530105,
    "lng": 3.524196,
    "transactions": [
      {
        "date": "2025-05-13",
        "priceEur": 350000,
        "typeLocal": "Maison",
        "surfaceM2": 50,
        "isVefa": false
      },
      {
        "date": "2025-05-13",
        "priceEur": 350000,
        "typeLocal": "Maison",
        "surfaceM2": 116,
        "isVefa": false
      }
    ]
  },
  "56544894d234": {
    "id": "56544894d234",
    "label": "15 LOT LES JARDINS DE ST GUILHEM, Saint-Pargoire",
    "lat": 43.524667,
    "lng": 3.523262,
    "transactions": [
      {
        "date": "2025-06-19",
        "priceEur": 284050,
        "typeLocal": "Maison",
        "surfaceM2": 108,
        "isVefa": false
      }
    ]
  }
}