{
  "b7abd46e165d": {
    "id": "b7abd46e165d",
    "label": "25 RUE JOSEPH HEUZE, Sassetot-le-Mauconduit",
    "lat": 49.820176,
    "lng": 0.526746,
    "transactions": [
      {
        "date": "2024-10-31",
        "priceEur": 415000,
        "typeLocal": "Maison",
        "surfaceM2": 60,
        "isVefa": false
      },
      {
        "date": "2020-11-25",
        "priceEur": 270000,
        "typeLocal": "Maison",
        "surfaceM2": 60,
        "isVefa": false
      }
    ]
  },
  "d40889fbbb13": {
    "id": "d40889fbbb13",
    "label": "35B RUE JOSEPH HEUZE, Sassetot-le-Mauconduit",
    "lat": 49.821005,
    "lng": 0.526452,
    "transactions": [
      {
        "date": "2021-04-23",
        "priceEur": 330000,
        "typeLocal": "Maison",
        "surfaceM2": 30,
        "isVefa": false
      }
    ]
  },
  "8857d009db0a": {
    "id": "8857d009db0a",
    "label": "35 RUE JOSEPH HEUZE, Sassetot-le-Mauconduit",
    "lat": 49.820973,
    "lng": 0.526576,
    "transactions": [
      {
        "date": "2021-04-23",
        "priceEur": 330000,
        "typeLocal": "Maison",
        "surfaceM2": 87,
        "isVefa": false
      }
    ]
  },
  "99facb0538ea": {
    "id": "99facb0538ea",
    "label": "77D RUE JOSEPH HEUZE, Sassetot-le-Mauconduit",
    "lat": 49.823798,
    "lng": 0.525467,
    "transactions": [
      {
        "date": "2021-11-22",
        "priceEur": 150000,
        "typeLocal": "Maison",
        "surfaceM2": 112,
        "isVefa": false
      }
    ]
  },
  "9109a7b53702": {
    "id": "9109a7b53702",
    "label": "5473 ALL DE L'IMPERATRICE, Sassetot-le-Mauconduit",
    "lat": 49.821454,
    "lng": 0.526391,
    "transactions": [
      {
        "date": "2022-01-20",
        "priceEur": 150000,
        "typeLocal": "Maison",
        "surfaceM2": 56,
        "isVefa": false
      }
    ]
  },
  "d57991d89824": {
    "id": "d57991d89824",
    "label": "52 RUE JOSEPH HEUZE, Saint-Martin-aux-Buneaux",
    "lat": 49.821489,
    "lng": 0.526901,
    "transactions": [
      {
        "date": "2023-05-31",
        "priceEur": 200000,
        "typeLocal": "Maison",
        "surfaceM2": 200,
        "isVefa": false
      }
    ]
  },
  "a84b478722ca": {
    "id": "a84b478722ca",
    "label": "7 CHE DES BRUYERES, Sassetot-le-Mauconduit",
    "lat": 49.821662,
    "lng": 0.526036,
    "transactions": [
      {
        "date": "2023-07-31",
        "priceEur": 520000,
        "typeLocal": "Maison",
        "surfaceM2": 122,
        "isVefa": false
      }
    ]
  },
  "c8fbc70f68e3": {
    "id": "c8fbc70f68e3",
    "label": "9 CHE DES BRUYERES, Sassetot-le-Mauconduit",
    "lat": 49.82132,
    "lng": 0.526,
    "transactions": [
      {
        "date": "2023-11-23",
        "priceEur": 450000,
        "typeLocal": "Maison",
        "surfaceM2": 118,
        "isVefa": false
      }
    ]
  }
}