{
  "d08e9867b45a": {
    "id": "d08e9867b45a",
    "label": "7C RUE DE L EPEE ZELUN, Thérouldeville",
    "lat": 49.755349,
    "lng": 0.518649,
    "transactions": [
      {
        "date": "2020-10-02",
        "priceEur": 110000,
        "typeLocal": "Maison",
        "surfaceM2": 90,
        "isVefa": false
      }
    ]
  },
  "013fd868d17c": {
    "id": "013fd868d17c",
    "label": "9 RUE DU HAUT ET LOIN, Thérouldeville",
    "lat": 49.759798,
    "lng": 0.526306,
    "transactions": [
      {
        "date": "2021-07-02",
        "priceEur": 220250,
        "typeLocal": "Maison",
        "surfaceM2": 82,
        "isVefa": false
      }
    ]
  },
  "0009503069d0": {
    "id": "0009503069d0",
    "label": "7 RUE DES TISSERANDS, Thérouldeville",
    "lat": 49.75607,
    "lng": 0.524319,
    "transactions": [
      {
        "date": "2022-01-28",
        "priceEur": 210000,
        "typeLocal": "Maison",
        "surfaceM2": 129,
        "isVefa": false
      },
      {
        "date": "2021-01-06",
        "priceEur": 180000,
        "typeLocal": "Maison",
        "surfaceM2": 129,
        "isVefa": false
      }
    ]
  },
  "9b13aa62822d": {
    "id": "9b13aa62822d",
    "label": "5 RUE DU HAUT ET LOIN, Thérouldeville",
    "lat": 49.759375,
    "lng": 0.526327,
    "transactions": [
      {
        "date": "2021-02-15",
        "priceEur": 215500,
        "typeLocal": "Maison",
        "surfaceM2": 116,
        "isVefa": false
      }
    ]
  },
  "50a94156c0c4": {
    "id": "50a94156c0c4",
    "label": "8 RUE DE L EPEE ZELUN, Thérouldeville",
    "lat": 49.753764,
    "lng": 0.521518,
    "transactions": [
      {
        "date": "2021-03-10",
        "priceEur": 177000,
        "typeLocal": "Maison",
        "surfaceM2": 64,
        "isVefa": false
      }
    ]
  },
  "a3ec4090516b": {
    "id": "a3ec4090516b",
    "label": "1B RUE DE L EPEE ZELUN, Thérouldeville",
    "lat": 49.753566,
    "lng": 0.52301,
    "transactions": [
      {
        "date": "2021-03-02",
        "priceEur": 155000,
        "typeLocal": "Maison",
        "surfaceM2": 200,
        "isVefa": false
      }
    ]
  },
  "d657c941a128": {
    "id": "d657c941a128",
    "label": "4 RUE DU PRESBYTERE, Thérouldeville",
    "lat": 49.754356,
    "lng": 0.522704,
    "transactions": [
      {
        "date": "2023-03-20",
        "priceEur": 210000,
        "typeLocal": "Maison",
        "surfaceM2": 72,
        "isVefa": false
      },
      {
        "date": "2021-03-18",
        "priceEur": 180000,
        "typeLocal": "Maison",
        "surfaceM2": 72,
        "isVefa": false
      }
    ]
  },
  "fc0ca818f191": {
    "id": "fc0ca818f191",
    "label": "7 RUE DU PRESBYTERE, Thérouldeville",
    "lat": 49.755723,
    "lng": 0.522034,
    "transactions": [
      {
        "date": "2022-01-07",
        "priceEur": 302000,
        "typeLocal": "Maison",
        "surfaceM2": 139,
        "isVefa": false
      }
    ]
  },
  "006b57ac7360": {
    "id": "006b57ac7360",
    "label": "12T RUE DU PRESBYTERE, Thérouldeville",
    "lat": 49.755585,
    "lng": 0.524198,
    "transactions": [
      {
        "date": "2022-03-11",
        "priceEur": 233180,
        "typeLocal": "Maison",
        "surfaceM2": 121,
        "isVefa": false
      }
    ]
  },
  "f4ea78e11d83": {
    "id": "f4ea78e11d83",
    "label": "4 RUE DE LA BOULANGERIE, Thérouldeville",
    "lat": 49.756134,
    "lng": 0.521434,
    "transactions": [
      {
        "date": "2022-03-10",
        "priceEur": 222500,
        "typeLocal": "Maison",
        "surfaceM2": 117,
        "isVefa": false
      }
    ]
  },
  "e58c5c11e2b6": {
    "id": "e58c5c11e2b6",
    "label": "14 RUE DES FOURNEAUX, Thérouldeville",
    "lat": 49.758421,
    "lng": 0.526262,
    "transactions": [
      {
        "date": "2022-04-27",
        "priceEur": 235000,
        "typeLocal": "Maison",
        "surfaceM2": 100,
        "isVefa": false
      }
    ]
  },
  "1a110386eef2": {
    "id": "1a110386eef2",
    "label": "4 RUE DE LA CORDERIE, Thérouldeville",
    "lat": 49.756648,
    "lng": 0.521604,
    "transactions": [
      {
        "date": "2022-06-09",
        "priceEur": 111500,
        "typeLocal": "Maison",
        "surfaceM2": 55,
        "isVefa": false
      }
    ]
  },
  "59c978ad2019": {
    "id": "59c978ad2019",
    "label": "7 RUE DE LA CORDERIE, Thérouldeville",
    "lat": 49.757054,
    "lng": 0.51792,
    "transactions": [
      {
        "date": "2022-06-21",
        "priceEur": 156000,
        "typeLocal": "Maison",
        "surfaceM2": 75,
        "isVefa": false
      }
    ]
  },
  "a7164dd9bf68": {
    "id": "a7164dd9bf68",
    "label": "1 RUE DE LA BOULANGERIE, Thérouldeville",
    "lat": 49.756253,
    "lng": 0.520468,
    "transactions": [
      {
        "date": "2022-07-08",
        "priceEur": 179000,
        "typeLocal": "Maison",
        "surfaceM2": 107,
        "isVefa": false
      }
    ]
  },
  "e5658f9631a1": {
    "id": "e5658f9631a1",
    "label": "2D RUE DU HAUT ET LOIN, Thérouldeville",
    "lat": 49.759651,
    "lng": 0.525468,
    "transactions": [
      {
        "date": "2022-08-29",
        "priceEur": 282000,
        "typeLocal": "Maison",
        "surfaceM2": 144,
        "isVefa": false
      }
    ]
  },
  "c49614e8c2a1": {
    "id": "c49614e8c2a1",
    "label": "6 RUE DE LA CHARRONNERIE, Thérouldeville",
    "lat": 49.759957,
    "lng": 0.522246,
    "transactions": [
      {
        "date": "2023-08-08",
        "priceEur": 220000,
        "typeLocal": "Maison",
        "surfaceM2": 143,
        "isVefa": false
      },
      {
        "date": "2022-11-07",
        "priceEur": 180000,
        "typeLocal": "Maison",
        "surfaceM2": 143,
        "isVefa": false
      }
    ]
  },
  "d4ec8cb641e1": {
    "id": "d4ec8cb641e1",
    "label": "8 RUE DES TISSERANDS, Thérouldeville",
    "lat": 49.756101,
    "lng": 0.526087,
    "transactions": [
      {
        "date": "2023-01-20",
        "priceEur": 266000,
        "typeLocal": "Maison",
        "surfaceM2": 150,
        "isVefa": false
      }
    ]
  },
  "a820501cae7d": {
    "id": "a820501cae7d",
    "label": "6B IMP DES HAIES, Thérouldeville",
    "lat": 49.757004,
    "lng": 0.525936,
    "transactions": [
      {
        "date": "2023-01-20",
        "priceEur": 261000,
        "typeLocal": "Maison",
        "surfaceM2": 105,
        "isVefa": false
      }
    ]
  },
  "6e7e4779ef0d": {
    "id": "6e7e4779ef0d",
    "label": "1 RUE DE LA FORGE, Thérouldeville",
    "lat": 49.757817,
    "lng": 0.518932,
    "transactions": [
      {
        "date": "2025-01-25",
        "priceEur": 374300,
        "typeLocal": "Maison",
        "surfaceM2": 131,
        "isVefa": false
      },
      {
        "date": "2023-08-08",
        "priceEur": 391900,
        "typeLocal": "Maison",
        "surfaceM2": 131,
        "isVefa": false
      }
    ]
  },
  "d779bb0e692e": {
    "id": "d779bb0e692e",
    "label": "13 RUE DE LA LISIERE, Thérouldeville",
    "lat": 49.752943,
    "lng": 0.521351,
    "transactions": [
      {
        "date": "2023-08-17",
        "priceEur": 255000,
        "typeLocal": "Maison",
        "surfaceM2": 110,
        "isVefa": false
      }
    ]
  },
  "df714b9f338e": {
    "id": "df714b9f338e",
    "label": "2B RUE DE LA BOULANGERIE, Thérouldeville",
    "lat": 49.755877,
    "lng": 0.521027,
    "transactions": [
      {
        "date": "2023-12-20",
        "priceEur": 284000,
        "typeLocal": "Maison",
        "surfaceM2": 143,
        "isVefa": false
      }
    ]
  },
  "e2fc07d858bd": {
    "id": "e2fc07d858bd",
    "label": "3 RUE DU CHAMP DE LA PORTE, Thérouldeville",
    "lat": 49.758485,
    "lng": 0.520444,
    "transactions": [
      {
        "date": "2024-03-15",
        "priceEur": 110000,
        "typeLocal": "Maison",
        "surfaceM2": 50,
        "isVefa": false
      }
    ]
  },
  "7d0b57573ab0": {
    "id": "7d0b57573ab0",
    "label": "4A RUE DE LA FORGE, Thérouldeville",
    "lat": 49.75761,
    "lng": 0.518022,
    "transactions": [
      {
        "date": "2024-05-13",
        "priceEur": 139000,
        "typeLocal": "Maison",
        "surfaceM2": 70,
        "isVefa": false
      }
    ]
  },
  "3f7f295ffe1b": {
    "id": "3f7f295ffe1b",
    "label": "5 RUE DE LA BOULANGERIE, Thérouldeville",
    "lat": 49.75666,
    "lng": 0.520557,
    "transactions": [
      {
        "date": "2024-11-27",
        "priceEur": 195000,
        "typeLocal": "Maison",
        "surfaceM2": 88,
        "isVefa": false
      }
    ]
  },
  "88e7567412fc": {
    "id": "88e7567412fc",
    "label": "8 RUE DU PRESBYTERE, Thérouldeville",
    "lat": 49.754988,
    "lng": 0.522855,
    "transactions": [
      {
        "date": "2024-12-13",
        "priceEur": 190000,
        "typeLocal": "Maison",
        "surfaceM2": 78,
        "isVefa": false
      }
    ]
  }
}