{
  "add33bdff62d": {
    "id": "add33bdff62d",
    "label": "5T PTR PETITE RUE, Cobrieux",
    "lat": 50.544008,
    "lng": 3.228644,
    "transactions": [
      {
        "date": "2020-12-29",
        "priceEur": 467000,
        "typeLocal": "Maison",
        "surfaceM2": 181,
        "isVefa": false
      }
    ]
  },
  "5ca3f7f147b5": {
    "id": "5ca3f7f147b5",
    "label": "1472 RTE DE COBRIEUX, Genech",
    "lat": 50.541472,
    "lng": 3.222604,
    "transactions": [
      {
        "date": "2021-01-06",
        "priceEur": 545100,
        "typeLocal": "Maison",
        "surfaceM2": 196,
        "isVefa": false
      }
    ]
  },
  "9de0ae1ecd5b": {
    "id": "9de0ae1ecd5b",
    "label": "25 GR GRAND RUE, Cobrieux",
    "lat": 50.542335,
    "lng": 3.227481,
    "transactions": [
      {
        "date": "2021-06-18",
        "priceEur": 580000,
        "typeLocal": "Maison",
        "surfaceM2": 168,
        "isVefa": false
      }
    ]
  },
  "8c56148c834d": {
    "id": "8c56148c834d",
    "label": "29 GR GRAND RUE, Cobrieux",
    "lat": 50.542038,
    "lng": 3.227096,
    "transactions": [
      {
        "date": "2021-07-23",
        "priceEur": 410000,
        "typeLocal": "Maison",
        "surfaceM2": 100,
        "isVefa": false
      }
    ]
  },
  "e9bf44e5af0f": {
    "id": "e9bf44e5af0f",
    "label": "44 GR GRAND RUE, Cobrieux",
    "lat": 50.542352,
    "lng": 3.226498,
    "transactions": [
      {
        "date": "2022-10-24",
        "priceEur": 604840,
        "typeLocal": "Maison",
        "surfaceM2": 198,
        "isVefa": false
      }
    ]
  },
  "08af4b08c56e": {
    "id": "08af4b08c56e",
    "label": "13 PTR PETITE RUE, Cobrieux",
    "lat": 50.543491,
    "lng": 3.226526,
    "transactions": [
      {
        "date": "2023-05-25",
        "priceEur": 463000,
        "typeLocal": "Maison",
        "surfaceM2": 128,
        "isVefa": false
      }
    ]
  },
  "27d070e56229": {
    "id": "27d070e56229",
    "label": "34 GR GRAND RUE, Cobrieux",
    "lat": 50.542681,
    "lng": 3.226909,
    "transactions": [
      {
        "date": "2023-05-17",
        "priceEur": 108000,
        "typeLocal": "Maison",
        "surfaceM2": 87,
        "isVefa": false
      }
    ]
  },
  "9773cc38bbc1": {
    "id": "9773cc38bbc1",
    "label": "41 GR GRAND RUE, Cobrieux",
    "lat": 50.541648,
    "lng": 3.224061,
    "transactions": [
      {
        "date": "2023-06-30",
        "priceEur": 495000,
        "typeLocal": "Maison",
        "surfaceM2": 85,
        "isVefa": false
      }
    ]
  },
  "057ec45f29c9": {
    "id": "057ec45f29c9",
    "label": "12C PTR PETITE RUE, Cobrieux",
    "lat": 50.544063,
    "lng": 3.226661,
    "transactions": [
      {
        "date": "2024-02-23",
        "priceEur": 265000,
        "typeLocal": "Maison",
        "surfaceM2": 86,
        "isVefa": false
      }
    ]
  },
  "b14c707660c1": {
    "id": "b14c707660c1",
    "label": "48B GR GRAND RUE, Cobrieux",
    "lat": 50.541759,
    "lng": 3.225621,
    "transactions": [
      {
        "date": "2024-07-26",
        "priceEur": 190000,
        "typeLocal": "Maison",
        "surfaceM2": 61,
        "isVefa": false
      }
    ]
  },
  "64340698eb57": {
    "id": "64340698eb57",
    "label": "4 CLOS DE L EGLISE, Cobrieux",
    "lat": 50.542853,
    "lng": 3.227332,
    "transactions": [
      {
        "date": "2024-09-30",
        "priceEur": 310000,
        "typeLocal": "Maison",
        "surfaceM2": 133,
        "isVefa": false
      }
    ]
  }
}