{
  "2dd5e7e7ab2b": {
    "id": "2dd5e7e7ab2b",
    "label": "219 RUE DE LA CITADELLE, Bantigny",
    "lat": 50.230726,
    "lng": 3.228331,
    "transactions": [
      {
        "date": "2021-01-07",
        "priceEur": 1300,
        "typeLocal": "Maison",
        "surfaceM2": 42,
        "isVefa": false
      }
    ]
  },
  "7a11df5a35ce": {
    "id": "7a11df5a35ce",
    "label": "61 RUE DE CAMBRAI, Bantigny",
    "lat": 50.227819,
    "lng": 3.228235,
    "transactions": [
      {
        "date": "2021-04-14",
        "priceEur": 232800,
        "typeLocal": "Maison",
        "surfaceM2": 122,
        "isVefa": false
      }
    ]
  },
  "bf6611a8f646": {
    "id": "bf6611a8f646",
    "label": "5 RUE DES ROSIERS, Bantigny",
    "lat": 50.226845,
    "lng": 3.22879,
    "transactions": [
      {
        "date": "2021-09-30",
        "priceEur": 120000,
        "typeLocal": "Maison",
        "surfaceM2": 84,
        "isVefa": false
      }
    ]
  },
  "0a3fe2546efb": {
    "id": "0a3fe2546efb",
    "label": "227 RUE DE LA CITADELLE, Bantigny",
    "lat": 50.230883,
    "lng": 3.228795,
    "transactions": [
      {
        "date": "2025-03-01",
        "priceEur": 255400,
        "typeLocal": "Maison",
        "surfaceM2": 128,
        "isVefa": false
      },
      {
        "date": "2021-11-29",
        "priceEur": 252000,
        "typeLocal": "Maison",
        "surfaceM2": 128,
        "isVefa": false
      }
    ]
  },
  "3a9b711b3715": {
    "id": "3a9b711b3715",
    "label": "83 RUE DE CAMBRAI, Bantigny",
    "lat": 50.227584,
    "lng": 3.228178,
    "transactions": [
      {
        "date": "2022-07-26",
        "priceEur": 150000,
        "typeLocal": "Maison",
        "surfaceM2": 80,
        "isVefa": false
      }
    ]
  },
  "a9e314c1c150": {
    "id": "a9e314c1c150",
    "label": "240 RUE DE CAMBRAI, Bantigny",
    "lat": 50.226834,
    "lng": 3.226109,
    "transactions": [
      {
        "date": "2022-09-09",
        "priceEur": 163000,
        "typeLocal": "Maison",
        "surfaceM2": 109,
        "isVefa": false
      }
    ]
  },
  "31f44797dace": {
    "id": "31f44797dace",
    "label": "31 RUE DE LA CHAPELLE, Bantigny",
    "lat": 50.22819,
    "lng": 3.229112,
    "transactions": [
      {
        "date": "2022-11-15",
        "priceEur": 174000,
        "typeLocal": "Maison",
        "surfaceM2": 221,
        "isVefa": false
      }
    ]
  },
  "8d18b385c953": {
    "id": "8d18b385c953",
    "label": "190 RUE DES CHANOINES, Bantigny",
    "lat": 50.229803,
    "lng": 3.228443,
    "transactions": [
      {
        "date": "2024-10-07",
        "priceEur": 141500,
        "typeLocal": "Maison",
        "surfaceM2": 145,
        "isVefa": false
      },
      {
        "date": "2023-07-27",
        "priceEur": 95000,
        "typeLocal": "Maison",
        "surfaceM2": 145,
        "isVefa": false
      }
    ]
  },
  "7f3b4a4065e8": {
    "id": "7f3b4a4065e8",
    "label": "69 RUE DES CHANOINES, Bantigny",
    "lat": 50.228667,
    "lng": 3.227697,
    "transactions": [
      {
        "date": "2025-04-23",
        "priceEur": 110000,
        "typeLocal": "Maison",
        "surfaceM2": 148,
        "isVefa": false
      }
    ]
  }
}