{
  "899cbe021187": {
    "id": "899cbe021187",
    "label": "371 RUE CHARLES GIDE, Rumilly-en-Cambrésis",
    "lat": 50.127808,
    "lng": 3.221212,
    "transactions": [
      {
        "date": "2020-09-23",
        "priceEur": 152500,
        "typeLocal": "Maison",
        "surfaceM2": 143,
        "isVefa": false
      }
    ]
  },
  "5eee367eeeb7": {
    "id": "5eee367eeeb7",
    "label": "69 RUE JULES FERRY, Rumilly-en-Cambrésis",
    "lat": 50.128571,
    "lng": 3.221477,
    "transactions": [
      {
        "date": "2021-01-11",
        "priceEur": 266000,
        "typeLocal": "Maison",
        "surfaceM2": 75,
        "isVefa": false
      }
    ]
  },
  "fa072bae7507": {
    "id": "fa072bae7507",
    "label": "313 RUE JULES FERRY, Rumilly-en-Cambrésis",
    "lat": 50.130653,
    "lng": 3.221463,
    "transactions": [
      {
        "date": "2021-11-30",
        "priceEur": 240000,
        "typeLocal": "Maison",
        "surfaceM2": 109,
        "isVefa": false
      }
    ]
  },
  "ccc60ec357fa": {
    "id": "ccc60ec357fa",
    "label": "349 RUE JULES FERRY, Rumilly-en-Cambrésis",
    "lat": 50.131117,
    "lng": 3.221621,
    "transactions": [
      {
        "date": "2022-05-23",
        "priceEur": 420000,
        "typeLocal": "Maison",
        "surfaceM2": 244,
        "isVefa": false
      }
    ]
  },
  "a9b046aa1c52": {
    "id": "a9b046aa1c52",
    "label": "434 RUE ROMAIN ROLLAND, Rumilly-en-Cambrésis",
    "lat": 50.131647,
    "lng": 3.221038,
    "transactions": [
      {
        "date": "2022-06-15",
        "priceEur": 285000,
        "typeLocal": "Maison",
        "surfaceM2": 158,
        "isVefa": false
      }
    ]
  },
  "dd1322b58ef9": {
    "id": "dd1322b58ef9",
    "label": "152B RUE JULES FERRY, Rumilly-en-Cambrésis",
    "lat": 50.129165,
    "lng": 3.22232,
    "transactions": [
      {
        "date": "2023-07-27",
        "priceEur": 37000,
        "typeLocal": "Maison",
        "surfaceM2": 38,
        "isVefa": false
      },
      {
        "date": "2022-07-20",
        "priceEur": 30000,
        "typeLocal": "Maison",
        "surfaceM2": 38,
        "isVefa": false
      }
    ]
  },
  "d5c02589d167": {
    "id": "d5c02589d167",
    "label": "152C RUE JULES FERRY, Rumilly-en-Cambrésis",
    "lat": 50.129147,
    "lng": 3.222437,
    "transactions": [
      {
        "date": "2022-07-30",
        "priceEur": 55000,
        "typeLocal": "Maison",
        "surfaceM2": 78,
        "isVefa": false
      }
    ]
  },
  "29e2f6ffeae7": {
    "id": "29e2f6ffeae7",
    "label": "380 RLE PAUL LA FARGUE, Rumilly-en-Cambrésis",
    "lat": 50.127784,
    "lng": 3.220781,
    "transactions": [
      {
        "date": "2022-08-04",
        "priceEur": 129000,
        "typeLocal": "Maison",
        "surfaceM2": 70,
        "isVefa": false
      }
    ]
  },
  "c107be506d6a": {
    "id": "c107be506d6a",
    "label": "57 RUE JULES FERRY, Rumilly-en-Cambrésis",
    "lat": 50.128377,
    "lng": 3.221407,
    "transactions": [
      {
        "date": "2022-08-11",
        "priceEur": 285000,
        "typeLocal": "Maison",
        "surfaceM2": 102,
        "isVefa": false
      }
    ]
  },
  "692037e5a29f": {
    "id": "692037e5a29f",
    "label": "50 RUE DU TOUR DES HAIES, Rumilly-en-Cambrésis",
    "lat": 50.131827,
    "lng": 3.220026,
    "transactions": [
      {
        "date": "2023-02-03",
        "priceEur": 220000,
        "typeLocal": "Maison",
        "surfaceM2": 97,
        "isVefa": false
      }
    ]
  },
  "ab659766311b": {
    "id": "ab659766311b",
    "label": "251A RUE JULES FERRY, Rumilly-en-Cambrésis",
    "lat": 50.130121,
    "lng": 3.221604,
    "transactions": [
      {
        "date": "2023-10-27",
        "priceEur": 81800,
        "typeLocal": "Maison",
        "surfaceM2": 72,
        "isVefa": false
      }
    ]
  },
  "f8b4c53ab7ab": {
    "id": "f8b4c53ab7ab",
    "label": "361 RUE JULES FERRY, Rumilly-en-Cambrésis",
    "lat": 50.1311,
    "lng": 3.222002,
    "transactions": [
      {
        "date": "2023-11-29",
        "priceEur": 40000,
        "typeLocal": "Maison",
        "surfaceM2": 74,
        "isVefa": false
      }
    ]
  },
  "4ab14defab0b": {
    "id": "4ab14defab0b",
    "label": "152D RUE JULES FERRY, Rumilly-en-Cambrésis",
    "lat": 50.129091,
    "lng": 3.22271,
    "transactions": [
      {
        "date": "2024-03-28",
        "priceEur": 30000,
        "typeLocal": "Maison",
        "surfaceM2": 73,
        "isVefa": false
      }
    ]
  },
  "8b6738e94e27": {
    "id": "8b6738e94e27",
    "label": "449 RUE ROMAIN ROLLAND, Rumilly-en-Cambrésis",
    "lat": 50.131839,
    "lng": 3.220492,
    "transactions": [
      {
        "date": "2024-05-28",
        "priceEur": 245000,
        "typeLocal": "Maison",
        "surfaceM2": 162,
        "isVefa": false
      }
    ]
  },
  "343bd4ccb409": {
    "id": "343bd4ccb409",
    "label": "347 RUE JULES FERRY, Rumilly-en-Cambrésis",
    "lat": 50.13101,
    "lng": 3.221857,
    "transactions": [
      {
        "date": "2024-11-05",
        "priceEur": 148100,
        "typeLocal": "Maison",
        "surfaceM2": 103,
        "isVefa": false
      }
    ]
  },
  "033f0c282d0c": {
    "id": "033f0c282d0c",
    "label": "279B RUE JULES FERRY, Rumilly-en-Cambrésis",
    "lat": 50.130405,
    "lng": 3.221408,
    "transactions": [
      {
        "date": "2024-11-29",
        "priceEur": 45000,
        "typeLocal": "Maison",
        "surfaceM2": 45,
        "isVefa": false
      }
    ]
  },
  "960b00b28fac": {
    "id": "960b00b28fac",
    "label": "179 RUE JEAN JAURES, Rumilly-en-Cambrésis",
    "lat": 50.128241,
    "lng": 3.219134,
    "transactions": [
      {
        "date": "2025-03-26",
        "priceEur": 30000,
        "typeLocal": "Maison",
        "surfaceM2": 42,
        "isVefa": false
      }
    ]
  }
}