{
  "bbab0fc96632": {
    "id": "bbab0fc96632",
    "label": "19 RUE DE L'AGASSE, Magalas",
    "lat": 43.472794,
    "lng": 3.221056,
    "transactions": [
      {
        "date": "2020-07-17",
        "priceEur": 55000,
        "typeLocal": "Maison",
        "surfaceM2": 66,
        "isVefa": false
      }
    ]
  },
  "2026fc293b3e": {
    "id": "2026fc293b3e",
    "label": "9 AV DE BEZIERS, Magalas",
    "lat": 43.471171,
    "lng": 3.22144,
    "transactions": [
      {
        "date": "2020-08-21",
        "priceEur": 130000,
        "typeLocal": "Maison",
        "surfaceM2": 104,
        "isVefa": false
      }
    ]
  },
  "42a8d90376dd": {
    "id": "42a8d90376dd",
    "label": "7 AV DE LA MAIRIE, Magalas",
    "lat": 43.471633,
    "lng": 3.22298,
    "transactions": [
      {
        "date": "2020-08-17",
        "priceEur": 95900,
        "typeLocal": "Maison",
        "surfaceM2": 108,
        "isVefa": false
      }
    ]
  },
  "fe272a46435f": {
    "id": "fe272a46435f",
    "label": "11 RUE DE LA POUSTERLE, Magalas",
    "lat": 43.472522,
    "lng": 3.220701,
    "transactions": [
      {
        "date": "2021-09-03",
        "priceEur": 72000,
        "typeLocal": "Maison",
        "surfaceM2": 51,
        "isVefa": false
      },
      {
        "date": "2020-09-11",
        "priceEur": 30500,
        "typeLocal": "Maison",
        "surfaceM2": 51,
        "isVefa": false
      }
    ]
  },
  "3a4b7eef3208": {
    "id": "3a4b7eef3208",
    "label": "26 RUE DE LA REPUBLIQUE, Magalas",
    "lat": 43.472762,
    "lng": 3.22136,
    "transactions": [
      {
        "date": "2024-04-27",
        "priceEur": 170000,
        "typeLocal": "Maison",
        "surfaceM2": 68,
        "isVefa": false
      },
      {
        "date": "2022-07-12",
        "priceEur": 141000,
        "typeLocal": "Maison",
        "surfaceM2": 68,
        "isVefa": false
      },
      {
        "date": "2020-09-29",
        "priceEur": 54400,
        "typeLocal": "Maison",
        "surfaceM2": 68,
        "isVefa": false
      }
    ]
  },
  "bd088237faec": {
    "id": "bd088237faec",
    "label": "4 RUE SAINT LAURENT, Magalas",
    "lat": 43.471715,
    "lng": 3.222706,
    "transactions": [
      {
        "date": "2020-10-05",
        "priceEur": 100000,
        "typeLocal": "Appartement",
        "surfaceM2": 70,
        "isVefa": false
      }
    ]
  },
  "e6f689ae2a46": {
    "id": "e6f689ae2a46",
    "label": "10 RUE DU PRADINEL, Magalas",
    "lat": 43.474752,
    "lng": 3.223607,
    "transactions": [
      {
        "date": "2020-10-16",
        "priceEur": 322800,
        "typeLocal": "Maison",
        "surfaceM2": 133,
        "isVefa": false
      }
    ]
  },
  "da5602b8a354": {
    "id": "da5602b8a354",
    "label": "2 PL VIEILLE, Magalas",
    "lat": 43.471798,
    "lng": 3.222102,
    "transactions": [
      {
        "date": "2020-10-30",
        "priceEur": 247000,
        "typeLocal": "Maison",
        "surfaceM2": 116,
        "isVefa": false
      }
    ]
  },
  "22d67749eb6d": {
    "id": "22d67749eb6d",
    "label": "10 RUE DE LA REPUBLIQUE, Magalas",
    "lat": 43.472489,
    "lng": 3.221411,
    "transactions": [
      {
        "date": "2020-12-08",
        "priceEur": 112380,
        "typeLocal": "Appartement",
        "surfaceM2": 22,
        "isVefa": false
      },
      {
        "date": "2020-12-08",
        "priceEur": 112380,
        "typeLocal": "Appartement",
        "surfaceM2": 83,
        "isVefa": false
      }
    ]
  },
  "b486d527c549": {
    "id": "b486d527c549",
    "label": "22 RUE SAINT LAURENT, Magalas",
    "lat": 43.472185,
    "lng": 3.222466,
    "transactions": [
      {
        "date": "2023-04-11",
        "priceEur": 152000,
        "typeLocal": "Maison",
        "surfaceM2": 170,
        "isVefa": false
      },
      {
        "date": "2020-12-17",
        "priceEur": 136000,
        "typeLocal": "Maison",
        "surfaceM2": 170,
        "isVefa": false
      }
    ]
  },
  "1f0376f2a8f2": {
    "id": "1f0376f2a8f2",
    "label": "7 RUE DE L'ABATTOIR, Magalas",
    "lat": 43.47251,
    "lng": 3.221945,
    "transactions": [
      {
        "date": "2020-12-18",
        "priceEur": 198000,
        "typeLocal": "Maison",
        "surfaceM2": 70,
        "isVefa": false
      }
    ]
  },
  "c45acfad23e8": {
    "id": "c45acfad23e8",
    "label": "7 RUE DE LA REPUBLIQUE, Magalas",
    "lat": 43.472228,
    "lng": 3.221356,
    "transactions": [
      {
        "date": "2020-12-21",
        "priceEur": 100000,
        "typeLocal": "Maison",
        "surfaceM2": 99,
        "isVefa": false
      }
    ]
  },
  "8226b19a65a8": {
    "id": "8226b19a65a8",
    "label": "19B RUE DE LA COSTE, Magalas",
    "lat": 43.473059,
    "lng": 3.222912,
    "transactions": [
      {
        "date": "2020-12-22",
        "priceEur": 68000,
        "typeLocal": "Maison",
        "surfaceM2": 39,
        "isVefa": false
      }
    ]
  },
  "c418954e9717": {
    "id": "c418954e9717",
    "label": "25 RUE DE L'ANCIENNE DISTILLERIE, Magalas",
    "lat": 43.473276,
    "lng": 3.223116,
    "transactions": [
      {
        "date": "2020-12-21",
        "priceEur": 72000,
        "typeLocal": "Maison",
        "surfaceM2": 72,
        "isVefa": false
      }
    ]
  },
  "9d11aa2f6e61": {
    "id": "9d11aa2f6e61",
    "label": "5634 RUE DES REMPARTS, Magalas",
    "lat": 43.472287,
    "lng": 3.22246,
    "transactions": [
      {
        "date": "2021-01-08",
        "priceEur": 63000,
        "typeLocal": "Maison",
        "surfaceM2": 127,
        "isVefa": false
      }
    ]
  },
  "2c94e5faf7a7": {
    "id": "2c94e5faf7a7",
    "label": "8B RUE DE L'ABATTOIR, Magalas",
    "lat": 43.47254,
    "lng": 3.222307,
    "transactions": [
      {
        "date": "2021-01-18",
        "priceEur": 60000,
        "typeLocal": "Maison",
        "surfaceM2": 84,
        "isVefa": false
      }
    ]
  },
  "b5f057d1b8d6": {
    "id": "b5f057d1b8d6",
    "label": "38 RUE DES TERRASSES DE MONTFO, Magalas",
    "lat": 43.472001,
    "lng": 3.228394,
    "transactions": [
      {
        "date": "2021-01-27",
        "priceEur": 290000,
        "typeLocal": "Maison",
        "surfaceM2": 118,
        "isVefa": false
      }
    ]
  },
  "841c5a08579a": {
    "id": "841c5a08579a",
    "label": "27 AV JEAN JAURES, Magalas",
    "lat": 43.46901,
    "lng": 3.222853,
    "transactions": [
      {
        "date": "2022-11-16",
        "priceEur": 392600,
        "typeLocal": "Maison",
        "surfaceM2": 183,
        "isVefa": false
      },
      {
        "date": "2021-01-29",
        "priceEur": 230000,
        "typeLocal": "Maison",
        "surfaceM2": 183,
        "isVefa": false
      }
    ]
  },
  "bcd73978fd3f": {
    "id": "bcd73978fd3f",
    "label": "28B RUE SAINT LAURENT, Magalas",
    "lat": 43.472286,
    "lng": 3.22222,
    "transactions": [
      {
        "date": "2021-01-29",
        "priceEur": 180000,
        "typeLocal": "Appartement",
        "surfaceM2": 72,
        "isVefa": false
      },
      {
        "date": "2021-01-29",
        "priceEur": 180000,
        "typeLocal": "Appartement",
        "surfaceM2": 41,
        "isVefa": false
      }
    ]
  },
  "6fb883913557": {
    "id": "6fb883913557",
    "label": "28 RUE SAINT LAURENT, Magalas",
    "lat": 43.472172,
    "lng": 3.222219,
    "transactions": [
      {
        "date": "2021-01-29",
        "priceEur": 180000,
        "typeLocal": "Maison",
        "surfaceM2": 169,
        "isVefa": false
      }
    ]
  },
  "09fff67c2ba9": {
    "id": "09fff67c2ba9",
    "label": "4 IMP DU PETIT VERDOT, Magalas",
    "lat": 43.476608,
    "lng": 3.222022,
    "transactions": [
      {
        "date": "2021-02-01",
        "priceEur": 247450,
        "typeLocal": "Maison",
        "surfaceM2": 118,
        "isVefa": false
      }
    ]
  },
  "387f6df89640": {
    "id": "387f6df89640",
    "label": "48 RUE DES TERRASSES DE MONTFO, Magalas",
    "lat": 43.471456,
    "lng": 3.229108,
    "transactions": [
      {
        "date": "2021-02-11",
        "priceEur": 194000,
        "typeLocal": "Maison",
        "surfaceM2": 84,
        "isVefa": false
      }
    ]
  },
  "8938d36e329c": {
    "id": "8938d36e329c",
    "label": "8 RUE DE LA CITE, Magalas",
    "lat": 43.471795,
    "lng": 3.226079,
    "transactions": [
      {
        "date": "2021-02-04",
        "priceEur": 121000,
        "typeLocal": "Maison",
        "surfaceM2": 56,
        "isVefa": false
      }
    ]
  },
  "075d498a9e38": {
    "id": "075d498a9e38",
    "label": "22 RUE FREDERIC JOLIOT CURIE, Magalas",
    "lat": 43.469245,
    "lng": 3.21933,
    "transactions": [
      {
        "date": "2021-02-11",
        "priceEur": 397150,
        "typeLocal": "Maison",
        "surfaceM2": 97,
        "isVefa": false
      }
    ]
  },
  "98f7ce697819": {
    "id": "98f7ce697819",
    "label": "8B AV DU STADE, Magalas",
    "lat": 43.471509,
    "lng": 3.225381,
    "transactions": [
      {
        "date": "2021-03-02",
        "priceEur": 494350,
        "typeLocal": "Maison",
        "surfaceM2": 195,
        "isVefa": false
      }
    ]
  },
  "bbff2ad09521": {
    "id": "bbff2ad09521",
    "label": "6 RUE DE LA BRECHE, Magalas",
    "lat": 43.473154,
    "lng": 3.223044,
    "transactions": [
      {
        "date": "2024-08-08",
        "priceEur": 76000,
        "typeLocal": "Maison",
        "surfaceM2": 48,
        "isVefa": false
      },
      {
        "date": "2021-02-25",
        "priceEur": 56000,
        "typeLocal": "Maison",
        "surfaceM2": 48,
        "isVefa": false
      }
    ]
  },
  "98b65e4a7772": {
    "id": "98b65e4a7772",
    "label": "5 RUE DU TOUR DU MOUTON, Magalas",
    "lat": 43.472003,
    "lng": 3.221474,
    "transactions": [
      {
        "date": "2021-04-13",
        "priceEur": 42550,
        "typeLocal": "Maison",
        "surfaceM2": 18,
        "isVefa": false
      }
    ]
  },
  "05262e3889d4": {
    "id": "05262e3889d4",
    "label": "13B RUE DES SEPT CONTOURS, Magalas",
    "lat": 43.472341,
    "lng": 3.223058,
    "transactions": [
      {
        "date": "2021-06-14",
        "priceEur": 93000,
        "typeLocal": "Maison",
        "surfaceM2": 38,
        "isVefa": false
      }
    ]
  },
  "ceebdaa5d95d": {
    "id": "ceebdaa5d95d",
    "label": "37 AV DE LA GARE, Magalas",
    "lat": 43.471053,
    "lng": 3.222452,
    "transactions": [
      {
        "date": "2021-06-29",
        "priceEur": 90000,
        "typeLocal": "Maison",
        "surfaceM2": 149,
        "isVefa": false
      }
    ]
  },
  "a434517f5b20": {
    "id": "a434517f5b20",
    "label": "22 RUE DE LA GARENNE, Magalas",
    "lat": 43.473167,
    "lng": 3.221725,
    "transactions": [
      {
        "date": "2023-12-08",
        "priceEur": 166000,
        "typeLocal": "Maison",
        "surfaceM2": 85,
        "isVefa": false
      },
      {
        "date": "2021-06-24",
        "priceEur": 149000,
        "typeLocal": "Maison",
        "surfaceM2": 85,
        "isVefa": false
      }
    ]
  },
  "a93b8105d960": {
    "id": "a93b8105d960",
    "label": "5047 RUE DE LA COSTE, Magalas",
    "lat": 43.47273,
    "lng": 3.222798,
    "transactions": [
      {
        "date": "2021-06-24",
        "priceEur": 105000,
        "typeLocal": "Maison",
        "surfaceM2": 49,
        "isVefa": false
      }
    ]
  },
  "14f7e5d4973d": {
    "id": "14f7e5d4973d",
    "label": "3 RUE PAUL ELUARD, Magalas",
    "lat": 43.469862,
    "lng": 3.221695,
    "transactions": [
      {
        "date": "2021-06-22",
        "priceEur": 269400,
        "typeLocal": "Appartement",
        "surfaceM2": 71,
        "isVefa": false
      },
      {
        "date": "2021-06-22",
        "priceEur": 269400,
        "typeLocal": "Appartement",
        "surfaceM2": 78,
        "isVefa": false
      }
    ]
  },
  "c973f7ee0e26": {
    "id": "c973f7ee0e26",
    "label": "18 RUE DES REMPARTS, Magalas",
    "lat": 43.472576,
    "lng": 3.222675,
    "transactions": [
      {
        "date": "2021-06-30",
        "priceEur": 108300,
        "typeLocal": "Maison",
        "surfaceM2": 48,
        "isVefa": false
      }
    ]
  },
  "a33b22e42bb4": {
    "id": "a33b22e42bb4",
    "label": "1 RUE DU MUSCAT, Magalas",
    "lat": 43.476665,
    "lng": 3.219201,
    "transactions": [
      {
        "date": "2021-07-12",
        "priceEur": 255400,
        "typeLocal": "Maison",
        "surfaceM2": 87,
        "isVefa": false
      }
    ]
  },
  "2f3cdf22607b": {
    "id": "2f3cdf22607b",
    "label": "1 RUE DES BASSINS, Magalas",
    "lat": 43.472413,
    "lng": 3.221386,
    "transactions": [
      {
        "date": "2023-12-05",
        "priceEur": 101000,
        "typeLocal": "Appartement",
        "surfaceM2": 42,
        "isVefa": false
      },
      {
        "date": "2021-06-24",
        "priceEur": 80000,
        "typeLocal": "Appartement",
        "surfaceM2": 42,
        "isVefa": false
      }
    ]
  },
  "c3c02ad7eb9a": {
    "id": "c3c02ad7eb9a",
    "label": "3 RUE DE LA PAIX, Magalas",
    "lat": 43.47073,
    "lng": 3.224696,
    "transactions": [
      {
        "date": "2021-08-09",
        "priceEur": 175000,
        "typeLocal": "Maison",
        "surfaceM2": 110,
        "isVefa": false
      }
    ]
  },
  "b1f44a5815b5": {
    "id": "b1f44a5815b5",
    "label": "9 RUE PAUL ELUARD, Magalas",
    "lat": 43.469465,
    "lng": 3.221134,
    "transactions": [
      {
        "date": "2021-08-12",
        "priceEur": 518000,
        "typeLocal": "Maison",
        "surfaceM2": 121,
        "isVefa": false
      }
    ]
  },
  "55a92aded6a5": {
    "id": "55a92aded6a5",
    "label": "11 AV DE BEZIERS, Magalas",
    "lat": 43.471211,
    "lng": 3.221322,
    "transactions": [
      {
        "date": "2021-08-10",
        "priceEur": 125000,
        "typeLocal": "Maison",
        "surfaceM2": 108,
        "isVefa": false
      }
    ]
  },
  "7552cf54c169": {
    "id": "7552cf54c169",
    "label": "6 RUE DU PRADINEL, Magalas",
    "lat": 43.474796,
    "lng": 3.223129,
    "transactions": [
      {
        "date": "2021-08-19",
        "priceEur": 285000,
        "typeLocal": "Maison",
        "surfaceM2": 95,
        "isVefa": false
      }
    ]
  },
  "6c6f00fd98b0": {
    "id": "6c6f00fd98b0",
    "label": "11 RUE EMILE ZOLA, Magalas",
    "lat": 43.469271,
    "lng": 3.221976,
    "transactions": [
      {
        "date": "2021-09-24",
        "priceEur": 181000,
        "typeLocal": "Maison",
        "surfaceM2": 89,
        "isVefa": false
      }
    ]
  },
  "828cba985e6e": {
    "id": "828cba985e6e",
    "label": "12 RUE DU CHARDONNAY, Magalas",
    "lat": 43.475468,
    "lng": 3.220969,
    "transactions": [
      {
        "date": "2021-09-06",
        "priceEur": 130000,
        "typeLocal": "Maison",
        "surfaceM2": 67,
        "isVefa": false
      }
    ]
  },
  "cc460f042c83": {
    "id": "cc460f042c83",
    "label": "9B RUE DES SEPT CONTOURS, Magalas",
    "lat": 43.472202,
    "lng": 3.22294,
    "transactions": [
      {
        "date": "2021-09-23",
        "priceEur": 80000,
        "typeLocal": "Appartement",
        "surfaceM2": 61,
        "isVefa": false
      },
      {
        "date": "2021-09-23",
        "priceEur": 80000,
        "typeLocal": "Appartement",
        "surfaceM2": 103,
        "isVefa": false
      }
    ]
  },
  "5241915b3d35": {
    "id": "5241915b3d35",
    "label": "3 RUE EMILE BAGES, Magalas",
    "lat": 43.469401,
    "lng": 3.226558,
    "transactions": [
      {
        "date": "2021-10-13",
        "priceEur": 189600,
        "typeLocal": "Maison",
        "surfaceM2": 80,
        "isVefa": false
      }
    ]
  },
  "d95cd501c9f0": {
    "id": "d95cd501c9f0",
    "label": "28 RUE DES SEPT CONTOURS, Magalas",
    "lat": 43.472349,
    "lng": 3.223308,
    "transactions": [
      {
        "date": "2021-09-30",
        "priceEur": 68500,
        "typeLocal": "Maison",
        "surfaceM2": 43,
        "isVefa": false
      }
    ]
  },
  "6b90a054a307": {
    "id": "6b90a054a307",
    "label": "11 RUE FRANCAISE, Magalas",
    "lat": 43.47197,
    "lng": 3.221249,
    "transactions": [
      {
        "date": "2021-10-21",
        "priceEur": 92500,
        "typeLocal": "Maison",
        "surfaceM2": 56,
        "isVefa": false
      }
    ]
  },
  "7623208a199a": {
    "id": "7623208a199a",
    "label": "14 RUE DES SEPT CONTOURS, Magalas",
    "lat": 43.472004,
    "lng": 3.222935,
    "transactions": [
      {
        "date": "2021-11-16",
        "priceEur": 122000,
        "typeLocal": "Maison",
        "surfaceM2": 110,
        "isVefa": false
      }
    ]
  },
  "00f8d4eff564": {
    "id": "00f8d4eff564",
    "label": "28 RUE DES TERRASSES DE MONTFO, Magalas",
    "lat": 43.472528,
    "lng": 3.229918,
    "transactions": [
      {
        "date": "2021-12-17",
        "priceEur": 208000,
        "typeLocal": "Maison",
        "surfaceM2": 134,
        "isVefa": false
      }
    ]
  },
  "76cdc4757305": {
    "id": "76cdc4757305",
    "label": "2B RUE DU PRADINEL, Magalas",
    "lat": 43.474552,
    "lng": 3.22263,
    "transactions": [
      {
        "date": "2021-12-28",
        "priceEur": 415300,
        "typeLocal": "Maison",
        "surfaceM2": 144,
        "isVefa": false
      }
    ]
  },
  "bc2ba76ec436": {
    "id": "bc2ba76ec436",
    "label": "6 RUE DE LA CITE, Magalas",
    "lat": 43.471842,
    "lng": 3.226059,
    "transactions": [
      {
        "date": "2022-01-05",
        "priceEur": 109000,
        "typeLocal": "Maison",
        "surfaceM2": 62,
        "isVefa": false
      }
    ]
  },
  "ace72efe5645": {
    "id": "ace72efe5645",
    "label": "9 RUE DE MITON, Magalas",
    "lat": 43.471837,
    "lng": 3.221527,
    "transactions": [
      {
        "date": "2024-08-02",
        "priceEur": 74000,
        "typeLocal": "Maison",
        "surfaceM2": 106,
        "isVefa": false
      },
      {
        "date": "2022-01-03",
        "priceEur": 81000,
        "typeLocal": "Maison",
        "surfaceM2": 106,
        "isVefa": false
      }
    ]
  },
  "1e5a3f2e6f39": {
    "id": "1e5a3f2e6f39",
    "label": "26 RUE DES REMPARTS, Magalas",
    "lat": 43.473069,
    "lng": 3.222432,
    "transactions": [
      {
        "date": "2022-01-04",
        "priceEur": 71500,
        "typeLocal": "Maison",
        "surfaceM2": 73,
        "isVefa": false
      }
    ]
  },
  "af90c1c33085": {
    "id": "af90c1c33085",
    "label": "21 RUE DES REMPARTS, Magalas",
    "lat": 43.47305,
    "lng": 3.222074,
    "transactions": [
      {
        "date": "2023-05-15",
        "priceEur": 208401,
        "typeLocal": "Maison",
        "surfaceM2": 100,
        "isVefa": false
      },
      {
        "date": "2022-01-14",
        "priceEur": 93500,
        "typeLocal": "Maison",
        "surfaceM2": 100,
        "isVefa": false
      }
    ]
  },
  "1c929c9e2326": {
    "id": "1c929c9e2326",
    "label": "14 AV DE LA GARE, Magalas",
    "lat": 43.471173,
    "lng": 3.222072,
    "transactions": [
      {
        "date": "2022-01-26",
        "priceEur": 218000,
        "typeLocal": "Maison",
        "surfaceM2": 110,
        "isVefa": false
      }
    ]
  },
  "de8eeadb3ea7": {
    "id": "de8eeadb3ea7",
    "label": "4 RUE DE L'AGASSE, Magalas",
    "lat": 43.472253,
    "lng": 3.220663,
    "transactions": [
      {
        "date": "2022-02-03",
        "priceEur": 81800,
        "typeLocal": "Maison",
        "surfaceM2": 76,
        "isVefa": false
      }
    ]
  },
  "b74ed3b9e2ef": {
    "id": "b74ed3b9e2ef",
    "label": "22 RUE DES REMPARTS, Magalas",
    "lat": 43.472907,
    "lng": 3.222522,
    "transactions": [
      {
        "date": "2022-02-10",
        "priceEur": 47000,
        "typeLocal": "Maison",
        "surfaceM2": 68,
        "isVefa": false
      }
    ]
  },
  "004216222877": {
    "id": "004216222877",
    "label": "15 RUE DES CHENES, Magalas",
    "lat": 43.476562,
    "lng": 3.224441,
    "transactions": [
      {
        "date": "2022-02-25",
        "priceEur": 327860,
        "typeLocal": "Maison",
        "surfaceM2": 90,
        "isVefa": false
      }
    ]
  },
  "dda5a4ac556b": {
    "id": "dda5a4ac556b",
    "label": "11B RUE DE LA REPUBLIQUE, Magalas",
    "lat": 43.472346,
    "lng": 3.221225,
    "transactions": [
      {
        "date": "2022-03-10",
        "priceEur": 82000,
        "typeLocal": "Appartement",
        "surfaceM2": 33,
        "isVefa": false
      }
    ]
  },
  "43a7d93276d8": {
    "id": "43a7d93276d8",
    "label": "9 RUE DE LA REPUBLIQUE, Magalas",
    "lat": 43.472314,
    "lng": 3.221276,
    "transactions": [
      {
        "date": "2022-03-10",
        "priceEur": 82000,
        "typeLocal": "Maison",
        "surfaceM2": 34,
        "isVefa": false
      }
    ]
  },
  "fe6bdc8a2a78": {
    "id": "fe6bdc8a2a78",
    "label": "17 RUE DE L'AGASSE, Magalas",
    "lat": 43.472842,
    "lng": 3.220979,
    "transactions": [
      {
        "date": "2022-03-21",
        "priceEur": 150000,
        "typeLocal": "Maison",
        "surfaceM2": 110,
        "isVefa": false
      }
    ]
  },
  "fa395926493a": {
    "id": "fa395926493a",
    "label": "4 RUE DU TOUR DU MOUTON, Magalas",
    "lat": 43.472108,
    "lng": 3.221485,
    "transactions": [
      {
        "date": "2022-12-16",
        "priceEur": 64000,
        "typeLocal": "Maison",
        "surfaceM2": 93,
        "isVefa": false
      },
      {
        "date": "2022-03-28",
        "priceEur": 51000,
        "typeLocal": "Maison",
        "surfaceM2": 93,
        "isVefa": false
      }
    ]
  },
  "3dd58571c946": {
    "id": "3dd58571c946",
    "label": "52 RUE DES TERRASSES DE MONTFO, Magalas",
    "lat": 43.471526,
    "lng": 3.22963,
    "transactions": [
      {
        "date": "2022-04-08",
        "priceEur": 319000,
        "typeLocal": "Maison",
        "surfaceM2": 125,
        "isVefa": false
      }
    ]
  },
  "dbeb58adf2da": {
    "id": "dbeb58adf2da",
    "label": "10 RUE SAINT LAURENT, Magalas",
    "lat": 43.471874,
    "lng": 3.222623,
    "transactions": [
      {
        "date": "2022-04-14",
        "priceEur": 89300,
        "typeLocal": "Maison",
        "surfaceM2": 108,
        "isVefa": false
      }
    ]
  },
  "d6c901920da5": {
    "id": "d6c901920da5",
    "label": "4 RUE DE LA PAUMELIERE, Magalas",
    "lat": 43.472323,
    "lng": 3.225751,
    "transactions": [
      {
        "date": "2022-04-13",
        "priceEur": 45000,
        "typeLocal": "Maison",
        "surfaceM2": 15,
        "isVefa": false
      }
    ]
  },
  "ed92bb681b3d": {
    "id": "ed92bb681b3d",
    "label": "15 AV JEAN JAURES, Magalas",
    "lat": 43.468997,
    "lng": 3.221415,
    "transactions": [
      {
        "date": "2022-04-20",
        "priceEur": 217050,
        "typeLocal": "Maison",
        "surfaceM2": 90,
        "isVefa": false
      }
    ]
  },
  "e49d33032d4c": {
    "id": "e49d33032d4c",
    "label": "4 DSC DE LA COSTE, Magalas",
    "lat": 43.473119,
    "lng": 3.222751,
    "transactions": [
      {
        "date": "2022-04-21",
        "priceEur": 60150,
        "typeLocal": "Maison",
        "surfaceM2": 85,
        "isVefa": false
      }
    ]
  },
  "3d431d126905": {
    "id": "3d431d126905",
    "label": "28 AV DE LA GARE, Magalas",
    "lat": 43.471015,
    "lng": 3.222207,
    "transactions": [
      {
        "date": "2024-02-23",
        "priceEur": 50000,
        "typeLocal": "Appartement",
        "surfaceM2": 38,
        "isVefa": false
      },
      {
        "date": "2022-04-21",
        "priceEur": 56400,
        "typeLocal": "Appartement",
        "surfaceM2": 55,
        "isVefa": false
      }
    ]
  },
  "f026043b2fb6": {
    "id": "f026043b2fb6",
    "label": "94 AV DE LA GARE, Magalas",
    "lat": 43.470471,
    "lng": 3.222423,
    "transactions": [
      {
        "date": "2022-05-16",
        "priceEur": 190000,
        "typeLocal": "Maison",
        "surfaceM2": 154,
        "isVefa": false
      }
    ]
  },
  "60ffedfaa9a2": {
    "id": "60ffedfaa9a2",
    "label": "12 AV DE BEZIERS, Magalas",
    "lat": 43.471445,
    "lng": 3.220435,
    "transactions": [
      {
        "date": "2022-05-24",
        "priceEur": 187700,
        "typeLocal": "Appartement",
        "surfaceM2": 40,
        "isVefa": false
      },
      {
        "date": "2022-05-24",
        "priceEur": 187700,
        "typeLocal": "Appartement",
        "surfaceM2": 75,
        "isVefa": false
      },
      {
        "date": "2022-05-24",
        "priceEur": 187700,
        "typeLocal": "Appartement",
        "surfaceM2": 30,
        "isVefa": false
      }
    ]
  },
  "06fd1d4906d6": {
    "id": "06fd1d4906d6",
    "label": "11 RUE DE L'AGASSE, Magalas",
    "lat": 43.472735,
    "lng": 3.220804,
    "transactions": [
      {
        "date": "2022-05-17",
        "priceEur": 99000,
        "typeLocal": "Maison",
        "surfaceM2": 72,
        "isVefa": false
      }
    ]
  },
  "b63bb852e77c": {
    "id": "b63bb852e77c",
    "label": "6 AV DU STADE, Magalas",
    "lat": 43.471506,
    "lng": 3.22495,
    "transactions": [
      {
        "date": "2022-05-19",
        "priceEur": 754300,
        "typeLocal": "Maison",
        "surfaceM2": 180,
        "isVefa": false
      }
    ]
  },
  "2ce0d791bc05": {
    "id": "2ce0d791bc05",
    "label": "5587F AV DE LA MAIRIE, Magalas",
    "lat": 43.471689,
    "lng": 3.222744,
    "transactions": [
      {
        "date": "2022-05-20",
        "priceEur": 73000,
        "typeLocal": "Maison",
        "surfaceM2": 44,
        "isVefa": false
      }
    ]
  },
  "b609c62d2f6e": {
    "id": "b609c62d2f6e",
    "label": "26 RUE DES TERRASSES DE MONTFO, Magalas",
    "lat": 43.472368,
    "lng": 3.229979,
    "transactions": [
      {
        "date": "2022-05-30",
        "priceEur": 273080,
        "typeLocal": "Maison",
        "surfaceM2": 96,
        "isVefa": false
      }
    ]
  },
  "206a37fb06f5": {
    "id": "206a37fb06f5",
    "label": "12 RUE SAINT LAURENT, Magalas",
    "lat": 43.47191,
    "lng": 3.222607,
    "transactions": [
      {
        "date": "2022-06-01",
        "priceEur": 71250,
        "typeLocal": "Maison",
        "surfaceM2": 75,
        "isVefa": false
      }
    ]
  },
  "354aed01065c": {
    "id": "354aed01065c",
    "label": "12 AV DU STADE, Magalas",
    "lat": 43.471764,
    "lng": 3.225632,
    "transactions": [
      {
        "date": "2022-06-08",
        "priceEur": 160000,
        "typeLocal": "Maison",
        "surfaceM2": 80,
        "isVefa": false
      }
    ]
  },
  "4f0bcd5fc042": {
    "id": "4f0bcd5fc042",
    "label": "18 RUE DES SEPT CONTOURS, Magalas",
    "lat": 43.472135,
    "lng": 3.223146,
    "transactions": [
      {
        "date": "2022-05-12",
        "priceEur": 58500,
        "typeLocal": "Maison",
        "surfaceM2": 64,
        "isVefa": false
      }
    ]
  },
  "4aee2394fca5": {
    "id": "4aee2394fca5",
    "label": "20 RUE DES REMPARTS, Magalas",
    "lat": 43.472686,
    "lng": 3.22266,
    "transactions": [
      {
        "date": "2022-07-01",
        "priceEur": 159000,
        "typeLocal": "Maison",
        "surfaceM2": 71,
        "isVefa": false
      }
    ]
  },
  "52edc17f4f62": {
    "id": "52edc17f4f62",
    "label": "2 RUE HENRI BAGES, Magalas",
    "lat": 43.46953,
    "lng": 3.226778,
    "transactions": [
      {
        "date": "2022-06-28",
        "priceEur": 225660,
        "typeLocal": "Maison",
        "surfaceM2": 74,
        "isVefa": false
      }
    ]
  },
  "5e157bd44858": {
    "id": "5e157bd44858",
    "label": "18 AV DU STADE, Magalas",
    "lat": 43.471885,
    "lng": 3.226042,
    "transactions": [
      {
        "date": "2022-06-27",
        "priceEur": 132617.55,
        "typeLocal": "Maison",
        "surfaceM2": 81,
        "isVefa": false
      }
    ]
  },
  "cefab7efc137": {
    "id": "cefab7efc137",
    "label": "17 RUE DU TOUR DU MOUTON, Magalas",
    "lat": 43.471888,
    "lng": 3.221327,
    "transactions": [
      {
        "date": "2022-07-21",
        "priceEur": 62000,
        "typeLocal": "Maison",
        "surfaceM2": 90,
        "isVefa": false
      }
    ]
  },
  "bb5095e4b3cc": {
    "id": "bb5095e4b3cc",
    "label": "3 RUE DE LA REPUBLIQUE, Magalas",
    "lat": 43.472146,
    "lng": 3.221622,
    "transactions": [
      {
        "date": "2024-10-31",
        "priceEur": 75550,
        "typeLocal": "Maison",
        "surfaceM2": 37,
        "isVefa": false
      },
      {
        "date": "2022-07-22",
        "priceEur": 81780,
        "typeLocal": "Maison",
        "surfaceM2": 37,
        "isVefa": false
      }
    ]
  },
  "f14ddddcffc4": {
    "id": "f14ddddcffc4",
    "label": "11 RUE DE LA COSTE, Magalas",
    "lat": 43.472709,
    "lng": 3.222866,
    "transactions": [
      {
        "date": "2022-07-28",
        "priceEur": 75000,
        "typeLocal": "Maison",
        "surfaceM2": 60,
        "isVefa": false
      }
    ]
  },
  "4220be24df8e": {
    "id": "4220be24df8e",
    "label": "12 RUE DE LA COSTE, Magalas",
    "lat": 43.472957,
    "lng": 3.222972,
    "transactions": [
      {
        "date": "2022-07-28",
        "priceEur": 136000,
        "typeLocal": "Maison",
        "surfaceM2": 119,
        "isVefa": false
      }
    ]
  },
  "aabafed31c4d": {
    "id": "aabafed31c4d",
    "label": "10 RUE DE LA COSTE, Magalas",
    "lat": 43.47285,
    "lng": 3.222961,
    "transactions": [
      {
        "date": "2022-07-27",
        "priceEur": 45000,
        "typeLocal": "Maison",
        "surfaceM2": 63,
        "isVefa": false
      }
    ]
  },
  "0b5897323aa6": {
    "id": "0b5897323aa6",
    "label": "3 RUE DES SEPT CONTOURS, Magalas",
    "lat": 43.471939,
    "lng": 3.222804,
    "transactions": [
      {
        "date": "2022-07-26",
        "priceEur": 115300,
        "typeLocal": "Maison",
        "surfaceM2": 67,
        "isVefa": false
      }
    ]
  },
  "1cb1bc42539b": {
    "id": "1cb1bc42539b",
    "label": "6 RUE SAINT LAURENT, Magalas",
    "lat": 43.471797,
    "lng": 3.222685,
    "transactions": [
      {
        "date": "2022-08-25",
        "priceEur": 152000,
        "typeLocal": "Maison",
        "surfaceM2": 73,
        "isVefa": false
      }
    ]
  },
  "fae7678e8dd4": {
    "id": "fae7678e8dd4",
    "label": "153 RUE DE LA CITE, Magalas",
    "lat": 43.470648,
    "lng": 3.227127,
    "transactions": [
      {
        "date": "2022-09-13",
        "priceEur": 65000,
        "typeLocal": "Maison",
        "surfaceM2": 105,
        "isVefa": false
      }
    ]
  },
  "998e2549b1b3": {
    "id": "998e2549b1b3",
    "label": "1 RUE DE L'ANCIENNE DISTILLERIE, Magalas",
    "lat": 43.471765,
    "lng": 3.223172,
    "transactions": [
      {
        "date": "2022-09-29",
        "priceEur": 95000,
        "typeLocal": "Maison",
        "surfaceM2": 47,
        "isVefa": false
      }
    ]
  },
  "c83758f754af": {
    "id": "c83758f754af",
    "label": "8 RUE DES REMPARTS, Magalas",
    "lat": 43.472272,
    "lng": 3.222654,
    "transactions": [
      {
        "date": "2022-10-26",
        "priceEur": 45000,
        "typeLocal": "Maison",
        "surfaceM2": 42,
        "isVefa": false
      }
    ]
  },
  "3801001e64bf": {
    "id": "3801001e64bf",
    "label": "25 RUE DE LA REPUBLIQUE, Magalas",
    "lat": 43.472615,
    "lng": 3.221054,
    "transactions": [
      {
        "date": "2022-11-15",
        "priceEur": 123000,
        "typeLocal": "Maison",
        "surfaceM2": 95,
        "isVefa": false
      }
    ]
  },
  "366b924ea09d": {
    "id": "366b924ea09d",
    "label": "4 PL VIEILLE, Magalas",
    "lat": 43.471857,
    "lng": 3.221958,
    "transactions": [
      {
        "date": "2022-11-30",
        "priceEur": 56500,
        "typeLocal": "Maison",
        "surfaceM2": 63,
        "isVefa": false
      }
    ]
  },
  "fe5e0a0ec7a0": {
    "id": "fe5e0a0ec7a0",
    "label": "7 RUE DE L'ARBOURY, Magalas",
    "lat": 43.471444,
    "lng": 3.224772,
    "transactions": [
      {
        "date": "2022-12-15",
        "priceEur": 165000,
        "typeLocal": "Maison",
        "surfaceM2": 114,
        "isVefa": false
      }
    ]
  },
  "495241e0ebc7": {
    "id": "495241e0ebc7",
    "label": "16 AV DE BEZIERS, Magalas",
    "lat": 43.471287,
    "lng": 3.220152,
    "transactions": [
      {
        "date": "2022-12-09",
        "priceEur": 602000,
        "typeLocal": "Maison",
        "surfaceM2": 253,
        "isVefa": false
      }
    ]
  },
  "2a7854fdea72": {
    "id": "2a7854fdea72",
    "label": "157 AV DE LA GARE, Magalas",
    "lat": 43.470105,
    "lng": 3.22319,
    "transactions": [
      {
        "date": "2022-12-14",
        "priceEur": 134000,
        "typeLocal": "Appartement",
        "surfaceM2": 90,
        "isVefa": false
      }
    ]
  },
  "a43a1b730e7e": {
    "id": "a43a1b730e7e",
    "label": "22 RUE DES SEPT CONTOURS, Magalas",
    "lat": 43.472194,
    "lng": 3.223169,
    "transactions": [
      {
        "date": "2023-11-07",
        "priceEur": 77500,
        "typeLocal": "Maison",
        "surfaceM2": 115,
        "isVefa": false
      },
      {
        "date": "2023-01-05",
        "priceEur": 151000,
        "typeLocal": "Maison",
        "surfaceM2": 115,
        "isVefa": false
      }
    ]
  },
  "653deb4a512c": {
    "id": "653deb4a512c",
    "label": "5 RUE SAINT LAURENT, Magalas",
    "lat": 43.47173,
    "lng": 3.222356,
    "transactions": [
      {
        "date": "2025-04-25",
        "priceEur": 76000,
        "typeLocal": "Maison",
        "surfaceM2": 40,
        "isVefa": false
      },
      {
        "date": "2023-01-03",
        "priceEur": 83000,
        "typeLocal": "Maison",
        "surfaceM2": 40,
        "isVefa": false
      }
    ]
  },
  "eaf4c4dfdac2": {
    "id": "eaf4c4dfdac2",
    "label": "2 RUE DE LA PAUMELIERE, Magalas",
    "lat": 43.472242,
    "lng": 3.225834,
    "transactions": [
      {
        "date": "2023-01-13",
        "priceEur": 167000,
        "typeLocal": "Maison",
        "surfaceM2": 75,
        "isVefa": false
      }
    ]
  },
  "bc87794b9fef": {
    "id": "bc87794b9fef",
    "label": "7 IMP DE LA MAIRIE, Magalas",
    "lat": 43.471912,
    "lng": 3.223195,
    "transactions": [
      {
        "date": "2023-02-10",
        "priceEur": 59000,
        "typeLocal": "Maison",
        "surfaceM2": 83,
        "isVefa": false
      }
    ]
  },
  "d426e8489b86": {
    "id": "d426e8489b86",
    "label": "5 RUE DE LA REPUBLIQUE, Magalas",
    "lat": 43.472185,
    "lng": 3.221563,
    "transactions": [
      {
        "date": "2024-10-09",
        "priceEur": 42000,
        "typeLocal": "Maison",
        "surfaceM2": 62,
        "isVefa": false
      },
      {
        "date": "2023-02-03",
        "priceEur": 84000,
        "typeLocal": "Maison",
        "surfaceM2": 62,
        "isVefa": false
      }
    ]
  },
  "fce7d00a9dd3": {
    "id": "fce7d00a9dd3",
    "label": "9 RUE DE MONTFO, Magalas",
    "lat": 43.472857,
    "lng": 3.223207,
    "transactions": [
      {
        "date": "2023-02-02",
        "priceEur": 107850,
        "typeLocal": "Maison",
        "surfaceM2": 57,
        "isVefa": false
      }
    ]
  },
  "94689e3fd9a4": {
    "id": "94689e3fd9a4",
    "label": "11 RUE DE L'EGALITE, Magalas",
    "lat": 43.469332,
    "lng": 3.22325,
    "transactions": [
      {
        "date": "2023-03-17",
        "priceEur": 120000,
        "typeLocal": "Maison",
        "surfaceM2": 43,
        "isVefa": false
      }
    ]
  },
  "4a68ef995cfb": {
    "id": "4a68ef995cfb",
    "label": "7 RUE DES REMPARTS, Magalas",
    "lat": 43.472572,
    "lng": 3.2226,
    "transactions": [
      {
        "date": "2023-04-03",
        "priceEur": 37000,
        "typeLocal": "Maison",
        "surfaceM2": 43,
        "isVefa": false
      }
    ]
  },
  "f921896af80b": {
    "id": "f921896af80b",
    "label": "6 RUE DU MOULIN, Magalas",
    "lat": 43.472559,
    "lng": 3.222483,
    "transactions": [
      {
        "date": "2023-04-05",
        "priceEur": 39000,
        "typeLocal": "Maison",
        "surfaceM2": 25,
        "isVefa": false
      }
    ]
  },
  "525bde3582c6": {
    "id": "525bde3582c6",
    "label": "30 RUE DU CHARDONNAY, Magalas",
    "lat": 43.476587,
    "lng": 3.220595,
    "transactions": [
      {
        "date": "2023-04-11",
        "priceEur": 250000,
        "typeLocal": "Maison",
        "surfaceM2": 90,
        "isVefa": false
      }
    ]
  },
  "857bc638b46f": {
    "id": "857bc638b46f",
    "label": "8 AV DE BEZIERS, Magalas",
    "lat": 43.471442,
    "lng": 3.220679,
    "transactions": [
      {
        "date": "2023-04-27",
        "priceEur": 42000,
        "typeLocal": "Appartement",
        "surfaceM2": 36,
        "isVefa": false
      }
    ]
  },
  "b2199821e793": {
    "id": "b2199821e793",
    "label": "8 RUE DES SEPT CONTOURS, Magalas",
    "lat": 43.471781,
    "lng": 3.222839,
    "transactions": [
      {
        "date": "2023-05-26",
        "priceEur": 96610,
        "typeLocal": "Maison",
        "surfaceM2": 84,
        "isVefa": false
      }
    ]
  },
  "c565e582d239": {
    "id": "c565e582d239",
    "label": "6 RUE DE LA POUSTERLE, Magalas",
    "lat": 43.472589,
    "lng": 3.22085,
    "transactions": [
      {
        "date": "2023-05-26",
        "priceEur": 106000,
        "typeLocal": "Maison",
        "surfaceM2": 66,
        "isVefa": false
      }
    ]
  },
  "3cf183dccf26": {
    "id": "3cf183dccf26",
    "label": "3 RUE DES BASSINS, Magalas",
    "lat": 43.472447,
    "lng": 3.221499,
    "transactions": [
      {
        "date": "2023-06-21",
        "priceEur": 68000,
        "typeLocal": "Maison",
        "surfaceM2": 80,
        "isVefa": false
      }
    ]
  },
  "c789552f4818": {
    "id": "c789552f4818",
    "label": "3B RUE DES BASSINS, Magalas",
    "lat": 43.472413,
    "lng": 3.221386,
    "transactions": [
      {
        "date": "2023-06-21",
        "priceEur": 68000,
        "typeLocal": "Appartement",
        "surfaceM2": 17,
        "isVefa": false
      }
    ]
  },
  "bf01f941a82f": {
    "id": "bf01f941a82f",
    "label": "11 AV DE LA MAIRIE, Magalas",
    "lat": 43.471677,
    "lng": 3.223349,
    "transactions": [
      {
        "date": "2023-06-22",
        "priceEur": 75453,
        "typeLocal": "Maison",
        "surfaceM2": 79,
        "isVefa": false
      }
    ]
  },
  "d317696af36c": {
    "id": "d317696af36c",
    "label": "8 IMP DU CINSAULT, Magalas",
    "lat": 43.475528,
    "lng": 3.221874,
    "transactions": [
      {
        "date": "2025-05-26",
        "priceEur": 286500,
        "typeLocal": "Maison",
        "surfaceM2": 82,
        "isVefa": false
      },
      {
        "date": "2023-06-28",
        "priceEur": 234000,
        "typeLocal": "Maison",
        "surfaceM2": 82,
        "isVefa": false
      }
    ]
  },
  "53ab9094cc02": {
    "id": "53ab9094cc02",
    "label": "8 RUE DE LA POUSTERLE, Magalas",
    "lat": 43.472697,
    "lng": 3.220626,
    "transactions": [
      {
        "date": "2023-06-27",
        "priceEur": 142500,
        "typeLocal": "Maison",
        "surfaceM2": 35,
        "isVefa": false
      }
    ]
  },
  "6eede98ef3d3": {
    "id": "6eede98ef3d3",
    "label": "10 RUE DE LA GARENNE, Magalas",
    "lat": 43.4725,
    "lng": 3.220595,
    "transactions": [
      {
        "date": "2023-07-07",
        "priceEur": 166500,
        "typeLocal": "Maison",
        "surfaceM2": 70,
        "isVefa": false
      }
    ]
  },
  "67985a1c0dbb": {
    "id": "67985a1c0dbb",
    "label": "8 RUE DE LA GARENNE, Magalas",
    "lat": 43.472235,
    "lng": 3.22056,
    "transactions": [
      {
        "date": "2023-07-21",
        "priceEur": 55000,
        "typeLocal": "Maison",
        "surfaceM2": 24,
        "isVefa": false
      }
    ]
  },
  "4ff5c0cc8485": {
    "id": "4ff5c0cc8485",
    "label": "30 RUE DE LA GARENNE, Magalas",
    "lat": 43.473041,
    "lng": 3.221981,
    "transactions": [
      {
        "date": "2023-08-02",
        "priceEur": 58000,
        "typeLocal": "Maison",
        "surfaceM2": 38,
        "isVefa": false
      }
    ]
  },
  "b83ec3ad2bd7": {
    "id": "b83ec3ad2bd7",
    "label": "1 RUE DES TETES, Magalas",
    "lat": 43.471782,
    "lng": 3.220674,
    "transactions": [
      {
        "date": "2023-09-04",
        "priceEur": 21750,
        "typeLocal": "Maison",
        "surfaceM2": 36,
        "isVefa": false
      }
    ]
  },
  "b9306ab8bcea": {
    "id": "b9306ab8bcea",
    "label": "5 RUE DE L'AGASSE, Magalas",
    "lat": 43.472587,
    "lng": 3.220618,
    "transactions": [
      {
        "date": "2023-08-30",
        "priceEur": 112000,
        "typeLocal": "Maison",
        "surfaceM2": 65,
        "isVefa": false
      }
    ]
  },
  "1caeb0f48165": {
    "id": "1caeb0f48165",
    "label": "9 RUE EMILE ZOLA, Magalas",
    "lat": 43.469456,
    "lng": 3.221948,
    "transactions": [
      {
        "date": "2023-09-15",
        "priceEur": 209100,
        "typeLocal": "Maison",
        "surfaceM2": 88,
        "isVefa": false
      }
    ]
  },
  "a16474db4ede": {
    "id": "a16474db4ede",
    "label": "1 LOT LES PRADINELS II, Magalas",
    "lat": 43.47512,
    "lng": 3.224566,
    "transactions": [
      {
        "date": "2023-10-24",
        "priceEur": 100000,
        "typeLocal": "Maison",
        "surfaceM2": 119,
        "isVefa": false
      }
    ]
  },
  "3a34639f6562": {
    "id": "3a34639f6562",
    "label": "1 RUE DU PRADINEL, Magalas",
    "lat": 43.475098,
    "lng": 3.222666,
    "transactions": [
      {
        "date": "2023-11-15",
        "priceEur": 380000,
        "typeLocal": "Maison",
        "surfaceM2": 142,
        "isVefa": false
      }
    ]
  },
  "8816041e4818": {
    "id": "8816041e4818",
    "label": "18 AV DE BEZIERS, Magalas",
    "lat": 43.471278,
    "lng": 3.220058,
    "transactions": [
      {
        "date": "2023-12-21",
        "priceEur": 249350,
        "typeLocal": "Maison",
        "surfaceM2": 52,
        "isVefa": false
      }
    ]
  },
  "9b9ab5ec1134": {
    "id": "9b9ab5ec1134",
    "label": "32 RUE DE LA REPUBLIQUE, Magalas",
    "lat": 43.472993,
    "lng": 3.221461,
    "transactions": [
      {
        "date": "2023-12-28",
        "priceEur": 256500,
        "typeLocal": "Maison",
        "surfaceM2": 60,
        "isVefa": false
      }
    ]
  },
  "089f414bfd9f": {
    "id": "089f414bfd9f",
    "label": "4 RUE DU PRADINEL, Magalas",
    "lat": 43.474679,
    "lng": 3.222898,
    "transactions": [
      {
        "date": "2023-12-22",
        "priceEur": 316500,
        "typeLocal": "Maison",
        "surfaceM2": 97,
        "isVefa": false
      }
    ]
  },
  "a6401647b906": {
    "id": "a6401647b906",
    "label": "8 RUE DU MOULIN, Magalas",
    "lat": 43.472596,
    "lng": 3.222482,
    "transactions": [
      {
        "date": "2024-01-26",
        "priceEur": 49000,
        "typeLocal": "Maison",
        "surfaceM2": 27,
        "isVefa": false
      }
    ]
  },
  "aabcacc158dc": {
    "id": "aabcacc158dc",
    "label": "2 RUE DU TOUR DU MOUTON, Magalas",
    "lat": 43.472157,
    "lng": 3.221528,
    "transactions": [
      {
        "date": "2024-02-07",
        "priceEur": 43000,
        "typeLocal": "Maison",
        "surfaceM2": 42,
        "isVefa": false
      }
    ]
  },
  "e2961e7cc578": {
    "id": "e2961e7cc578",
    "label": "1 RUE FREDERIC JOLIOT CURIE, Magalas",
    "lat": 43.471262,
    "lng": 3.221196,
    "transactions": [
      {
        "date": "2024-01-29",
        "priceEur": 179000,
        "typeLocal": "Maison",
        "surfaceM2": 102,
        "isVefa": false
      }
    ]
  },
  "41c04273b223": {
    "id": "41c04273b223",
    "label": "3 IMP DU CINSAULT, Magalas",
    "lat": 43.475133,
    "lng": 3.221739,
    "transactions": [
      {
        "date": "2024-02-14",
        "priceEur": 208000,
        "typeLocal": "Maison",
        "surfaceM2": 99,
        "isVefa": false
      }
    ]
  },
  "481d83e2253e": {
    "id": "481d83e2253e",
    "label": "6 RUE DE LA GARENNE, Magalas",
    "lat": 43.472192,
    "lng": 3.2206,
    "transactions": [
      {
        "date": "2024-02-27",
        "priceEur": 48000,
        "typeLocal": "Maison",
        "surfaceM2": 70,
        "isVefa": false
      }
    ]
  },
  "24bd1695e9de": {
    "id": "24bd1695e9de",
    "label": "5 PL VIEILLE, Magalas",
    "lat": 43.471849,
    "lng": 3.221902,
    "transactions": [
      {
        "date": "2024-03-01",
        "priceEur": 28000,
        "typeLocal": "Maison",
        "surfaceM2": 26,
        "isVefa": false
      }
    ]
  },
  "d55c61129911": {
    "id": "d55c61129911",
    "label": "12 RUE DE L'ANCIENNE DISTILLERIE, Magalas",
    "lat": 43.472646,
    "lng": 3.223662,
    "transactions": [
      {
        "date": "2024-03-11",
        "priceEur": 215000,
        "typeLocal": "Maison",
        "surfaceM2": 122,
        "isVefa": false
      }
    ]
  },
  "4449c2f29ede": {
    "id": "4449c2f29ede",
    "label": "5 RUE DE LA POUSTERLE, Magalas",
    "lat": 43.472457,
    "lng": 3.220854,
    "transactions": [
      {
        "date": "2024-03-15",
        "priceEur": 100000,
        "typeLocal": "Maison",
        "surfaceM2": 37,
        "isVefa": false
      }
    ]
  },
  "c61a51e67e58": {
    "id": "c61a51e67e58",
    "label": "30 RUE DES TERRASSES DE MONTFO, Magalas",
    "lat": 43.472462,
    "lng": 3.22962,
    "transactions": [
      {
        "date": "2024-03-28",
        "priceEur": 270000,
        "typeLocal": "Maison",
        "surfaceM2": 110,
        "isVefa": false
      }
    ]
  },
  "bd7300b58526": {
    "id": "bd7300b58526",
    "label": "3 RUE DE L'ABATTOIR, Magalas",
    "lat": 43.472302,
    "lng": 3.221988,
    "transactions": [
      {
        "date": "2024-04-12",
        "priceEur": 65000,
        "typeLocal": "Maison",
        "surfaceM2": 39,
        "isVefa": false
      }
    ]
  },
  "79140a4d975d": {
    "id": "79140a4d975d",
    "label": "24 RUE DES CLEMATITES, Magalas",
    "lat": 43.471117,
    "lng": 3.229914,
    "transactions": [
      {
        "date": "2024-04-24",
        "priceEur": 276200,
        "typeLocal": "Maison",
        "surfaceM2": 95,
        "isVefa": false
      }
    ]
  },
  "43cf2dae3086": {
    "id": "43cf2dae3086",
    "label": "17 RUE DE LA REPUBLIQUE, Magalas",
    "lat": 43.472494,
    "lng": 3.221108,
    "transactions": [
      {
        "date": "2024-04-25",
        "priceEur": 10000,
        "typeLocal": "Maison",
        "surfaceM2": 131,
        "isVefa": false
      }
    ]
  },
  "02b0e00ce704": {
    "id": "02b0e00ce704",
    "label": "35B RUE DE LA GARENNE, Magalas",
    "lat": 43.472873,
    "lng": 3.220316,
    "transactions": [
      {
        "date": "2024-05-21",
        "priceEur": 147500,
        "typeLocal": "Maison",
        "surfaceM2": 64,
        "isVefa": false
      }
    ]
  },
  "22aab1f4fb75": {
    "id": "22aab1f4fb75",
    "label": "24 RUE DES SEPT CONTOURS, Magalas",
    "lat": 43.472145,
    "lng": 3.223219,
    "transactions": [
      {
        "date": "2024-06-10",
        "priceEur": 142000,
        "typeLocal": "Maison",
        "surfaceM2": 68,
        "isVefa": false
      }
    ]
  },
  "b19bebaae1c5": {
    "id": "b19bebaae1c5",
    "label": "5 RUE PAUL ELUARD, Magalas",
    "lat": 43.469892,
    "lng": 3.221408,
    "transactions": [
      {
        "date": "2024-06-10",
        "priceEur": 133700,
        "typeLocal": "Maison",
        "surfaceM2": 99,
        "isVefa": false
      }
    ]
  },
  "8ac534978247": {
    "id": "8ac534978247",
    "label": "29 AV CAPITAINE BONNET, Magalas",
    "lat": 43.470205,
    "lng": 3.224429,
    "transactions": [
      {
        "date": "2024-06-13",
        "priceEur": 117350,
        "typeLocal": "Maison",
        "surfaceM2": 95,
        "isVefa": false
      }
    ]
  },
  "88ed911b75d6": {
    "id": "88ed911b75d6",
    "label": "22B RUE DE LA REPUBLIQUE, Magalas",
    "lat": 43.472757,
    "lng": 3.221509,
    "transactions": [
      {
        "date": "2024-08-05",
        "priceEur": 25000,
        "typeLocal": "Maison",
        "surfaceM2": 61,
        "isVefa": false
      }
    ]
  },
  "3f6395feea18": {
    "id": "3f6395feea18",
    "label": "22 RUE DES CLEMATITES, Magalas",
    "lat": 43.471257,
    "lng": 3.229809,
    "transactions": [
      {
        "date": "2024-08-27",
        "priceEur": 283510,
        "typeLocal": "Maison",
        "surfaceM2": 89,
        "isVefa": false
      }
    ]
  },
  "541d7672d289": {
    "id": "541d7672d289",
    "label": "4 RUE DU PONT, Magalas",
    "lat": 43.472514,
    "lng": 3.219427,
    "transactions": [
      {
        "date": "2024-09-24",
        "priceEur": 100000,
        "typeLocal": "Maison",
        "surfaceM2": 82,
        "isVefa": false
      }
    ]
  },
  "3764b2c4ee53": {
    "id": "3764b2c4ee53",
    "label": "39 AV DE BEZIERS, Magalas",
    "lat": 43.470933,
    "lng": 3.21998,
    "transactions": [
      {
        "date": "2024-10-11",
        "priceEur": 93260,
        "typeLocal": "Maison",
        "surfaceM2": 78,
        "isVefa": false
      }
    ]
  },
  "555e92ef5b60": {
    "id": "555e92ef5b60",
    "label": "3 RUE DU MOURVEDRE, Magalas",
    "lat": 43.474699,
    "lng": 3.219897,
    "transactions": [
      {
        "date": "2024-12-05",
        "priceEur": 499500,
        "typeLocal": "Maison",
        "surfaceM2": 149,
        "isVefa": false
      }
    ]
  },
  "253f67ac8821": {
    "id": "253f67ac8821",
    "label": "49 RUE DU CHARDONNAY, Magalas",
    "lat": 43.476823,
    "lng": 3.22117,
    "transactions": [
      {
        "date": "2024-12-11",
        "priceEur": 248835,
        "typeLocal": "Maison",
        "surfaceM2": 85,
        "isVefa": false
      }
    ]
  },
  "b9a995d4509f": {
    "id": "b9a995d4509f",
    "label": "1 RUE SAINT LAURENT, Magalas",
    "lat": 43.471557,
    "lng": 3.222408,
    "transactions": [
      {
        "date": "2024-12-18",
        "priceEur": 109250,
        "typeLocal": "Maison",
        "surfaceM2": 94,
        "isVefa": false
      }
    ]
  },
  "89851f6e918b": {
    "id": "89851f6e918b",
    "label": "7 RUE DE LA GARENNE, Magalas",
    "lat": 43.471687,
    "lng": 3.220749,
    "transactions": [
      {
        "date": "2024-12-20",
        "priceEur": 115700,
        "typeLocal": "Maison",
        "surfaceM2": 60,
        "isVefa": false
      }
    ]
  },
  "e6402c72718c": {
    "id": "e6402c72718c",
    "label": "2 PL NEUVE, Magalas",
    "lat": 43.471599,
    "lng": 3.221864,
    "transactions": [
      {
        "date": "2025-03-11",
        "priceEur": 365000,
        "typeLocal": "Appartement",
        "surfaceM2": 149,
        "isVefa": false
      },
      {
        "date": "2025-03-11",
        "priceEur": 365000,
        "typeLocal": "Appartement",
        "surfaceM2": 89,
        "isVefa": false
      }
    ]
  },
  "f19dfea82e17": {
    "id": "f19dfea82e17",
    "label": "14 RUE DU CHARDONNAY, Magalas",
    "lat": 43.475512,
    "lng": 3.220774,
    "transactions": [
      {
        "date": "2025-03-27",
        "priceEur": 244900,
        "typeLocal": "Maison",
        "surfaceM2": 102,
        "isVefa": false
      }
    ]
  },
  "58bbecae4280": {
    "id": "58bbecae4280",
    "label": "14 RUE DE LA GARENNE, Magalas",
    "lat": 43.472758,
    "lng": 3.220665,
    "transactions": [
      {
        "date": "2025-04-29",
        "priceEur": 78000,
        "typeLocal": "Maison",
        "surfaceM2": 64,
        "isVefa": false
      }
    ]
  }
}