{
  "f892351793d7": {
    "id": "f892351793d7",
    "label": "2B RUE SAUVAGE, Val-de-Scie",
    "lat": 49.712389,
    "lng": 1.119033,
    "transactions": [
      {
        "date": "2020-10-16",
        "priceEur": 145000,
        "typeLocal": "Maison",
        "surfaceM2": 88,
        "isVefa": false
      }
    ]
  },
  "e29e2497dde3": {
    "id": "e29e2497dde3",
    "label": "9 RUE SAUVAGE, Val-de-Scie",
    "lat": 49.713026,
    "lng": 1.119883,
    "transactions": [
      {
        "date": "2022-05-31",
        "priceEur": 80333,
        "typeLocal": "Maison",
        "surfaceM2": 74,
        "isVefa": false
      }
    ]
  },
  "f28342adb04b": {
    "id": "f28342adb04b",
    "label": "9 RUE EMMANUEL LECOEUR, Val-de-Scie",
    "lat": 49.710748,
    "lng": 1.111963,
    "transactions": [
      {
        "date": "2022-09-19",
        "priceEur": 217000,
        "typeLocal": "Maison",
        "surfaceM2": 125,
        "isVefa": false
      }
    ]
  },
  "4bc4e5673f56": {
    "id": "4bc4e5673f56",
    "label": "35 RUE JEAN MACE, Val-de-Scie",
    "lat": 49.715392,
    "lng": 1.110362,
    "transactions": [
      {
        "date": "2022-09-30",
        "priceEur": 165000,
        "typeLocal": "Maison",
        "surfaceM2": 105,
        "isVefa": false
      }
    ]
  },
  "699798327a1e": {
    "id": "699798327a1e",
    "label": "9 RUE DE ROMAINVILLE, Val-de-Scie",
    "lat": 49.713993,
    "lng": 1.112287,
    "transactions": [
      {
        "date": "2022-11-25",
        "priceEur": 173885,
        "typeLocal": "Maison",
        "surfaceM2": 91,
        "isVefa": false
      }
    ]
  },
  "e1b7643e0f92": {
    "id": "e1b7643e0f92",
    "label": "11 RUE DU CHANT DES OISEAUX, Val-de-Scie",
    "lat": 49.713144,
    "lng": 1.110533,
    "transactions": [
      {
        "date": "2022-12-12",
        "priceEur": 218500,
        "typeLocal": "Maison",
        "surfaceM2": 125,
        "isVefa": false
      }
    ]
  },
  "4aa6a8b8234d": {
    "id": "4aa6a8b8234d",
    "label": "2 IMP DE LA VAINVERGUES, Val-de-Scie",
    "lat": 49.713012,
    "lng": 1.111856,
    "transactions": [
      {
        "date": "2022-12-12",
        "priceEur": 203000,
        "typeLocal": "Maison",
        "surfaceM2": 110,
        "isVefa": false
      }
    ]
  },
  "a959e7eb12ff": {
    "id": "a959e7eb12ff",
    "label": "29 RUE JEAN MACE, Val-de-Scie",
    "lat": 49.715793,
    "lng": 1.109748,
    "transactions": [
      {
        "date": "2023-02-14",
        "priceEur": 165000,
        "typeLocal": "Maison",
        "surfaceM2": 72,
        "isVefa": false
      }
    ]
  },
  "8b67391216d8": {
    "id": "8b67391216d8",
    "label": "7 RUE EMMANUEL LECOEUR, Val-de-Scie",
    "lat": 49.710363,
    "lng": 1.113086,
    "transactions": [
      {
        "date": "2023-05-15",
        "priceEur": 194500,
        "typeLocal": "Maison",
        "surfaceM2": 88,
        "isVefa": false
      }
    ]
  },
  "0844bf80f8b5": {
    "id": "0844bf80f8b5",
    "label": "1 RUE DU CHANT DES OISEAUX, Val-de-Scie",
    "lat": 49.713677,
    "lng": 1.112239,
    "transactions": [
      {
        "date": "2023-12-07",
        "priceEur": 184000,
        "typeLocal": "Maison",
        "surfaceM2": 103,
        "isVefa": false
      }
    ]
  },
  "c84f0f581642": {
    "id": "c84f0f581642",
    "label": "13 RUE DE ROMAINVILLE, Val-de-Scie",
    "lat": 49.713872,
    "lng": 1.113201,
    "transactions": [
      {
        "date": "2024-04-04",
        "priceEur": 142000,
        "typeLocal": "Maison",
        "surfaceM2": 86,
        "isVefa": false
      }
    ]
  },
  "60cd38766a4b": {
    "id": "60cd38766a4b",
    "label": "6 RUE DE ROMAINVILLE, Val-de-Scie",
    "lat": 49.71367,
    "lng": 1.111001,
    "transactions": [
      {
        "date": "2024-05-16",
        "priceEur": 130000,
        "typeLocal": "Maison",
        "surfaceM2": 78,
        "isVefa": false
      }
    ]
  },
  "08e878321116": {
    "id": "08e878321116",
    "label": "5 RUE DU CHANT DES OISEAUX, Val-de-Scie",
    "lat": 49.713152,
    "lng": 1.111634,
    "transactions": [
      {
        "date": "2024-10-14",
        "priceEur": 290000,
        "typeLocal": "Maison",
        "surfaceM2": 155,
        "isVefa": false
      }
    ]
  }
}