{
  "a45086a8cc75": {
    "id": "a45086a8cc75",
    "label": "6 RES DE LA PORTE ROMPUE, Mont-Cauvaire",
    "lat": 49.573516,
    "lng": 1.109709,
    "transactions": [
      {
        "date": "2020-10-23",
        "priceEur": 188000,
        "typeLocal": "Maison",
        "surfaceM2": 101,
        "isVefa": false
      }
    ]
  },
  "7e8a7d87d561": {
    "id": "7e8a7d87d561",
    "label": "5025D LE BOUT DES RUES, Mont-Cauvaire",
    "lat": 49.569107,
    "lng": 1.115066,
    "transactions": [
      {
        "date": "2020-11-30",
        "priceEur": 224000,
        "typeLocal": "Maison",
        "surfaceM2": 94,
        "isVefa": false
      }
    ]
  },
  "d829099bd9ac": {
    "id": "d829099bd9ac",
    "label": "434 RTE DE CLERES, Mont-Cauvaire",
    "lat": 49.570615,
    "lng": 1.1107,
    "transactions": [
      {
        "date": "2020-12-23",
        "priceEur": 240000,
        "typeLocal": "Maison",
        "surfaceM2": 141,
        "isVefa": false
      }
    ]
  },
  "8a9157f02c25": {
    "id": "8a9157f02c25",
    "label": "5021 LE VILLAGE SUD, Mont-Cauvaire",
    "lat": 49.56959,
    "lng": 1.11213,
    "transactions": [
      {
        "date": "2021-04-28",
        "priceEur": 427100,
        "typeLocal": "Maison",
        "surfaceM2": 161,
        "isVefa": false
      }
    ]
  },
  "1b2e286421dd": {
    "id": "1b2e286421dd",
    "label": "7B RUE RESIDENCE LES POMMIERS, Mont-Cauvaire",
    "lat": 49.570154,
    "lng": 1.111357,
    "transactions": [
      {
        "date": "2021-07-23",
        "priceEur": 81764.4,
        "typeLocal": "Maison",
        "surfaceM2": 71,
        "isVefa": false
      }
    ]
  },
  "b41507ba799e": {
    "id": "b41507ba799e",
    "label": "5035 LE BOUT DES RUES, Mont-Cauvaire",
    "lat": 49.568683,
    "lng": 1.112442,
    "transactions": [
      {
        "date": "2022-01-31",
        "priceEur": 250000,
        "typeLocal": "Maison",
        "surfaceM2": 109,
        "isVefa": false
      },
      {
        "date": "2022-01-31",
        "priceEur": 250000,
        "typeLocal": "Maison",
        "surfaceM2": 91,
        "isVefa": false
      }
    ]
  },
  "12eff9a290cb": {
    "id": "12eff9a290cb",
    "label": "24 RES DE LA PORTE ROMPUE, Mont-Cauvaire",
    "lat": 49.573991,
    "lng": 1.110039,
    "transactions": [
      {
        "date": "2022-05-20",
        "priceEur": 191000,
        "typeLocal": "Maison",
        "surfaceM2": 85,
        "isVefa": false
      }
    ]
  },
  "7b70f0b0814e": {
    "id": "7b70f0b0814e",
    "label": "5037 LE VILLAGE SUD, Mont-Cauvaire",
    "lat": 49.568947,
    "lng": 1.111303,
    "transactions": [
      {
        "date": "2022-10-25",
        "priceEur": 310200,
        "typeLocal": "Maison",
        "surfaceM2": 104,
        "isVefa": false
      }
    ]
  },
  "9e41b7470d1a": {
    "id": "9e41b7470d1a",
    "label": "26 LE BOUT DES RUES, Mont-Cauvaire",
    "lat": 49.567988,
    "lng": 1.115932,
    "transactions": [
      {
        "date": "2022-12-09",
        "priceEur": 557700,
        "typeLocal": "Maison",
        "surfaceM2": 279,
        "isVefa": false
      }
    ]
  },
  "3c14f545b87d": {
    "id": "3c14f545b87d",
    "label": "7006 RUE RESIDENCE LES POMMIERS, Mont-Cauvaire",
    "lat": 49.571841,
    "lng": 1.112035,
    "transactions": [
      {
        "date": "2023-01-16",
        "priceEur": 326500,
        "typeLocal": "Maison",
        "surfaceM2": 170,
        "isVefa": false
      }
    ]
  },
  "7d3d4f411235": {
    "id": "7d3d4f411235",
    "label": "7003 LE BOUT DES RUES, Mont-Cauvaire",
    "lat": 49.569272,
    "lng": 1.113,
    "transactions": [
      {
        "date": "2023-11-24",
        "priceEur": 261200,
        "typeLocal": "Maison",
        "surfaceM2": 89,
        "isVefa": false
      }
    ]
  },
  "df8c516bb6ac": {
    "id": "df8c516bb6ac",
    "label": "5076 LE VILLAGE SUD, Mont-Cauvaire",
    "lat": 49.57021,
    "lng": 1.109631,
    "transactions": [
      {
        "date": "2023-12-28",
        "priceEur": 100000,
        "typeLocal": "Maison",
        "surfaceM2": 40,
        "isVefa": false
      }
    ]
  },
  "5f6ac7f1b39c": {
    "id": "5f6ac7f1b39c",
    "label": "14 RUE DU BOUT DES RUES, Mont-Cauvaire",
    "lat": 49.569092,
    "lng": 1.113613,
    "transactions": [
      {
        "date": "2025-02-06",
        "priceEur": 214300,
        "typeLocal": "Maison",
        "surfaceM2": 110,
        "isVefa": false
      },
      {
        "date": "2024-07-09",
        "priceEur": 224800,
        "typeLocal": "Maison",
        "surfaceM2": 110,
        "isVefa": false
      }
    ]
  },
  "69739ec466c6": {
    "id": "69739ec466c6",
    "label": "26 RTE DE CLERES, Mont-Cauvaire",
    "lat": 49.571579,
    "lng": 1.110142,
    "transactions": [
      {
        "date": "2024-10-30",
        "priceEur": 122500,
        "typeLocal": "Maison",
        "surfaceM2": 95,
        "isVefa": false
      }
    ]
  },
  "c04df18ecc2b": {
    "id": "c04df18ecc2b",
    "label": "20 RES DE LA PORTE ROMPUE, Mont-Cauvaire",
    "lat": 49.57425,
    "lng": 1.109878,
    "transactions": [
      {
        "date": "2025-01-28",
        "priceEur": 180000,
        "typeLocal": "Maison",
        "surfaceM2": 89,
        "isVefa": false
      }
    ]
  }
}