{
  "57abeadcd50c": {
    "id": "57abeadcd50c",
    "label": "126 RUE DE LA NOBLE EPINE, Bois-Guillaume",
    "lat": 49.480545,
    "lng": 1.115012,
    "transactions": [
      {
        "date": "2023-09-15",
        "priceEur": 325000,
        "typeLocal": "Appartement",
        "surfaceM2": 82,
        "isVefa": false
      },
      {
        "date": "2022-03-25",
        "priceEur": 215500,
        "typeLocal": "Appartement",
        "surfaceM2": 70,
        "isVefa": false
      },
      {
        "date": "2020-07-23",
        "priceEur": 115000,
        "typeLocal": "Appartement",
        "surfaceM2": 50,
        "isVefa": false
      }
    ]
  },
  "01e349dfbc1f": {
    "id": "01e349dfbc1f",
    "label": "201 RUE REINE DES BOIS, Bois-Guillaume",
    "lat": 49.479063,
    "lng": 1.11003,
    "transactions": [
      {
        "date": "2020-08-20",
        "priceEur": 310800,
        "typeLocal": "Maison",
        "surfaceM2": 107,
        "isVefa": false
      }
    ]
  },
  "9181eb88900a": {
    "id": "9181eb88900a",
    "label": "378 RUE DE L OLIVIER DE NORMANDIE, Bois-Guillaume",
    "lat": 49.479961,
    "lng": 1.109706,
    "transactions": [
      {
        "date": "2020-10-20",
        "priceEur": 470000,
        "typeLocal": "Maison",
        "surfaceM2": 134,
        "isVefa": false
      }
    ]
  },
  "e1b396577e8f": {
    "id": "e1b396577e8f",
    "label": "344 SEN DES FORRIERES, Bois-Guillaume",
    "lat": 49.478495,
    "lng": 1.120466,
    "transactions": [
      {
        "date": "2020-10-28",
        "priceEur": 150000,
        "typeLocal": "Maison",
        "surfaceM2": 65,
        "isVefa": false
      }
    ]
  },
  "0bb444575fea": {
    "id": "0bb444575fea",
    "label": "789 CHE DE LA BRETEQUE, Bois-Guillaume",
    "lat": 49.479064,
    "lng": 1.112075,
    "transactions": [
      {
        "date": "2025-01-20",
        "priceEur": 187000,
        "typeLocal": "Appartement",
        "surfaceM2": 64,
        "isVefa": false
      },
      {
        "date": "2023-10-03",
        "priceEur": 240000,
        "typeLocal": "Appartement",
        "surfaceM2": 90,
        "isVefa": false
      },
      {
        "date": "2022-12-20",
        "priceEur": 240000,
        "typeLocal": "Appartement",
        "surfaceM2": 83,
        "isVefa": false
      },
      {
        "date": "2022-07-08",
        "priceEur": 227000,
        "typeLocal": "Appartement",
        "surfaceM2": 78,
        "isVefa": false
      },
      {
        "date": "2020-10-23",
        "priceEur": 178000,
        "typeLocal": "Appartement",
        "surfaceM2": 63,
        "isVefa": false
      }
    ]
  },
  "a6e66defee99": {
    "id": "a6e66defee99",
    "label": "219 RUE HENRI DUNANT, Bois-Guillaume",
    "lat": 49.479683,
    "lng": 1.116576,
    "transactions": [
      {
        "date": "2025-02-28",
        "priceEur": 256000,
        "typeLocal": "Appartement",
        "surfaceM2": 79,
        "isVefa": false
      },
      {
        "date": "2023-07-28",
        "priceEur": 234000,
        "typeLocal": "Appartement",
        "surfaceM2": 72,
        "isVefa": false
      },
      {
        "date": "2022-02-04",
        "priceEur": 243250,
        "typeLocal": "Appartement",
        "surfaceM2": 88,
        "isVefa": false
      },
      {
        "date": "2022-01-31",
        "priceEur": 203500,
        "typeLocal": "Appartement",
        "surfaceM2": 72,
        "isVefa": false
      },
      {
        "date": "2022-01-27",
        "priceEur": 167000,
        "typeLocal": "Appartement",
        "surfaceM2": 49,
        "isVefa": false
      },
      {
        "date": "2020-10-30",
        "priceEur": 212000,
        "typeLocal": "Appartement",
        "surfaceM2": 72,
        "isVefa": false
      }
    ]
  },
  "62a77790e487": {
    "id": "62a77790e487",
    "label": "555 RUE DU TOURNE MIDI, Bois-Guillaume",
    "lat": 49.480265,
    "lng": 1.11437,
    "transactions": [
      {
        "date": "2022-01-04",
        "priceEur": 353000,
        "typeLocal": "Maison",
        "surfaceM2": 90,
        "isVefa": false
      },
      {
        "date": "2020-11-30",
        "priceEur": 295000,
        "typeLocal": "Maison",
        "surfaceM2": 90,
        "isVefa": false
      }
    ]
  },
  "18dbb6a12320": {
    "id": "18dbb6a12320",
    "label": "89 RUE ALPHONSE ALLAIS, Bois-Guillaume",
    "lat": 49.477379,
    "lng": 1.109917,
    "transactions": [
      {
        "date": "2020-11-19",
        "priceEur": 284829,
        "typeLocal": "Maison",
        "surfaceM2": 93,
        "isVefa": false
      }
    ]
  },
  "de20b09612af": {
    "id": "de20b09612af",
    "label": "81 RUE FAIROUELLE, Bois-Guillaume",
    "lat": 49.477021,
    "lng": 1.120405,
    "transactions": [
      {
        "date": "2020-12-16",
        "priceEur": 180000,
        "typeLocal": "Maison",
        "surfaceM2": 60,
        "isVefa": false
      }
    ]
  },
  "ecdfb799498f": {
    "id": "ecdfb799498f",
    "label": "261 RUE DU BOQUETTIER, Bois-Guillaume",
    "lat": 49.481743,
    "lng": 1.112601,
    "transactions": [
      {
        "date": "2020-12-28",
        "priceEur": 400000,
        "typeLocal": "Maison",
        "surfaceM2": 124,
        "isVefa": false
      }
    ]
  },
  "0fa0a60e69ae": {
    "id": "0fa0a60e69ae",
    "label": "225 RUE HENRI DUNANT, Bois-Guillaume",
    "lat": 49.480119,
    "lng": 1.116937,
    "transactions": [
      {
        "date": "2025-02-26",
        "priceEur": 237000,
        "typeLocal": "Appartement",
        "surfaceM2": 93,
        "isVefa": false
      },
      {
        "date": "2024-05-15",
        "priceEur": 207000,
        "typeLocal": "Appartement",
        "surfaceM2": 72,
        "isVefa": false
      },
      {
        "date": "2023-10-03",
        "priceEur": 210000,
        "typeLocal": "Appartement",
        "surfaceM2": 74,
        "isVefa": false
      },
      {
        "date": "2022-05-09",
        "priceEur": 210000,
        "typeLocal": "Appartement",
        "surfaceM2": 75,
        "isVefa": false
      },
      {
        "date": "2021-01-14",
        "priceEur": 203000,
        "typeLocal": "Appartement",
        "surfaceM2": 75,
        "isVefa": false
      },
      {
        "date": "2020-12-28",
        "priceEur": 209000,
        "typeLocal": "Appartement",
        "surfaceM2": 75,
        "isVefa": false
      }
    ]
  },
  "a3450dc89e84": {
    "id": "a3450dc89e84",
    "label": "790 CHE DE LA BRETEQUE, Bois-Guillaume",
    "lat": 49.479491,
    "lng": 1.112566,
    "transactions": [
      {
        "date": "2022-03-28",
        "priceEur": 163500,
        "typeLocal": "Appartement",
        "surfaceM2": 50,
        "isVefa": false
      },
      {
        "date": "2021-10-22",
        "priceEur": 171000,
        "typeLocal": "Appartement",
        "surfaceM2": 69,
        "isVefa": false
      },
      {
        "date": "2021-07-12",
        "priceEur": 170000,
        "typeLocal": "Appartement",
        "surfaceM2": 66,
        "isVefa": false
      }
    ]
  },
  "1d54cfdac2d6": {
    "id": "1d54cfdac2d6",
    "label": "44B SEN DU HAMEL, Bois-Guillaume",
    "lat": 49.47594,
    "lng": 1.120452,
    "transactions": [
      {
        "date": "2021-10-27",
        "priceEur": 238000,
        "typeLocal": "Maison",
        "surfaceM2": 74,
        "isVefa": false
      }
    ]
  },
  "31fb7a2d5989": {
    "id": "31fb7a2d5989",
    "label": "12 RUE JEHAN LE POVREMOYNE, Bois-Guillaume",
    "lat": 49.477532,
    "lng": 1.109744,
    "transactions": [
      {
        "date": "2021-01-18",
        "priceEur": 280000,
        "typeLocal": "Maison",
        "surfaceM2": 97,
        "isVefa": false
      }
    ]
  },
  "706e36d73cdf": {
    "id": "706e36d73cdf",
    "label": "213 RUE DE L HERBE ST JEAN, Bois-Guillaume",
    "lat": 49.481962,
    "lng": 1.116816,
    "transactions": [
      {
        "date": "2021-01-27",
        "priceEur": 310000,
        "typeLocal": "Maison",
        "surfaceM2": 150,
        "isVefa": false
      }
    ]
  },
  "f4ab632d2d90": {
    "id": "f4ab632d2d90",
    "label": "37 RUE DE L'OSIER DE ST ANTOINE, Bois-Guillaume",
    "lat": 49.479888,
    "lng": 1.110835,
    "transactions": [
      {
        "date": "2025-06-25",
        "priceEur": 245000,
        "typeLocal": "Appartement",
        "surfaceM2": 106,
        "isVefa": false
      },
      {
        "date": "2023-06-22",
        "priceEur": 219300,
        "typeLocal": "Appartement",
        "surfaceM2": 67,
        "isVefa": false
      },
      {
        "date": "2022-08-20",
        "priceEur": 100000,
        "typeLocal": "Appartement",
        "surfaceM2": 39,
        "isVefa": false
      },
      {
        "date": "2022-08-17",
        "priceEur": 130600,
        "typeLocal": "Appartement",
        "surfaceM2": 43,
        "isVefa": false
      },
      {
        "date": "2022-01-31",
        "priceEur": 217000,
        "typeLocal": "Appartement",
        "surfaceM2": 88,
        "isVefa": false
      },
      {
        "date": "2021-08-10",
        "priceEur": 170000,
        "typeLocal": "Appartement",
        "surfaceM2": 66,
        "isVefa": false
      },
      {
        "date": "2021-02-16",
        "priceEur": 215500,
        "typeLocal": "Appartement",
        "surfaceM2": 88,
        "isVefa": false
      }
    ]
  },
  "9c3443c93768": {
    "id": "9c3443c93768",
    "label": "91 RUE GAIAC, Bois-Guillaume",
    "lat": 49.479258,
    "lng": 1.118992,
    "transactions": [
      {
        "date": "2024-09-12",
        "priceEur": 507000,
        "typeLocal": "Maison",
        "surfaceM2": 140,
        "isVefa": false
      },
      {
        "date": "2021-03-30",
        "priceEur": 413000,
        "typeLocal": "Maison",
        "surfaceM2": 140,
        "isVefa": false
      }
    ]
  },
  "e0aa5034abf7": {
    "id": "e0aa5034abf7",
    "label": "30 RUE HENRI DUNANT, Bois-Guillaume",
    "lat": 49.478893,
    "lng": 1.114151,
    "transactions": [
      {
        "date": "2021-05-11",
        "priceEur": 376000,
        "typeLocal": "Maison",
        "surfaceM2": 126,
        "isVefa": false
      }
    ]
  },
  "f9cc5ffa3765": {
    "id": "f9cc5ffa3765",
    "label": "379 RUE DE L OLIVIER DE NORMANDIE, Bois-Guillaume",
    "lat": 49.480245,
    "lng": 1.110181,
    "transactions": [
      {
        "date": "2021-06-08",
        "priceEur": 518500,
        "typeLocal": "Maison",
        "surfaceM2": 182,
        "isVefa": false
      }
    ]
  },
  "00b6a14aacc2": {
    "id": "00b6a14aacc2",
    "label": "56 RUE DE LA NOBLE EPINE, Bois-Guillaume",
    "lat": 49.480165,
    "lng": 1.11585,
    "transactions": [
      {
        "date": "2024-03-25",
        "priceEur": 274000,
        "typeLocal": "Appartement",
        "surfaceM2": 87,
        "isVefa": false
      },
      {
        "date": "2022-01-10",
        "priceEur": 252000,
        "typeLocal": "Appartement",
        "surfaceM2": 89,
        "isVefa": false
      },
      {
        "date": "2021-06-16",
        "priceEur": 230000,
        "typeLocal": "Appartement",
        "surfaceM2": 87,
        "isVefa": false
      }
    ]
  },
  "4f8367e9f56f": {
    "id": "4f8367e9f56f",
    "label": "185 RUE REINE DES BOIS, Bois-Guillaume",
    "lat": 49.478953,
    "lng": 1.1103,
    "transactions": [
      {
        "date": "2021-07-26",
        "priceEur": 274000,
        "typeLocal": "Maison",
        "surfaceM2": 95,
        "isVefa": false
      }
    ]
  },
  "9bf084878e91": {
    "id": "9bf084878e91",
    "label": "212 RUE DE L HERBE ST JEAN, Bois-Guillaume",
    "lat": 49.481691,
    "lng": 1.117012,
    "transactions": [
      {
        "date": "2021-07-16",
        "priceEur": 480200,
        "typeLocal": "Maison",
        "surfaceM2": 143,
        "isVefa": false
      }
    ]
  },
  "f8146aea5040": {
    "id": "f8146aea5040",
    "label": "9009 CHE DE LA BRETEQUE, Bois-Guillaume",
    "lat": 49.480476,
    "lng": 1.110912,
    "transactions": [
      {
        "date": "2021-08-03",
        "priceEur": 275000,
        "typeLocal": "Maison",
        "surfaceM2": 112,
        "isVefa": false
      }
    ]
  },
  "a4d2b4651512": {
    "id": "a4d2b4651512",
    "label": "300 RUE DE L HERBE ST JEAN, Bois-Guillaume",
    "lat": 49.481476,
    "lng": 1.118166,
    "transactions": [
      {
        "date": "2021-08-25",
        "priceEur": 469500,
        "typeLocal": "Maison",
        "surfaceM2": 124,
        "isVefa": false
      }
    ]
  },
  "972ad748bca4": {
    "id": "972ad748bca4",
    "label": "126 RUE DES CHAMPS, Bois-Guillaume",
    "lat": 49.476124,
    "lng": 1.117021,
    "transactions": [
      {
        "date": "2021-10-07",
        "priceEur": 222062.5,
        "typeLocal": "Maison",
        "surfaceM2": 66,
        "isVefa": false
      }
    ]
  },
  "2b936eb98735": {
    "id": "2b936eb98735",
    "label": "78 RUE DE LA NOBLE EPINE, Bois-Guillaume",
    "lat": 49.480165,
    "lng": 1.11585,
    "transactions": [
      {
        "date": "2021-10-08",
        "priceEur": 229000,
        "typeLocal": "Appartement",
        "surfaceM2": 79,
        "isVefa": false
      }
    ]
  },
  "894c82366005": {
    "id": "894c82366005",
    "label": "117 ALL DE L'AUBORNE, Bois-Guillaume",
    "lat": 49.479056,
    "lng": 1.119964,
    "transactions": [
      {
        "date": "2022-01-07",
        "priceEur": 559750,
        "typeLocal": "Maison",
        "surfaceM2": 219,
        "isVefa": false
      }
    ]
  },
  "29e523a8e7a1": {
    "id": "29e523a8e7a1",
    "label": "273 RUE DE L HERBE ST JEAN, Bois-Guillaume",
    "lat": 49.481873,
    "lng": 1.117635,
    "transactions": [
      {
        "date": "2022-02-17",
        "priceEur": 500000,
        "typeLocal": "Maison",
        "surfaceM2": 183,
        "isVefa": false
      }
    ]
  },
  "8299ab25a4bd": {
    "id": "8299ab25a4bd",
    "label": "971 CHE DE LA BRETEQUE, Bois-Guillaume",
    "lat": 49.480341,
    "lng": 1.110538,
    "transactions": [
      {
        "date": "2022-04-14",
        "priceEur": 426000,
        "typeLocal": "Maison",
        "surfaceM2": 141,
        "isVefa": false
      }
    ]
  },
  "0dac98fbea0e": {
    "id": "0dac98fbea0e",
    "label": "30 ALL DU THYMIER, Bois-Guillaume",
    "lat": 49.480191,
    "lng": 1.117882,
    "transactions": [
      {
        "date": "2022-06-10",
        "priceEur": 437000,
        "typeLocal": "Maison",
        "surfaceM2": 128,
        "isVefa": false
      }
    ]
  },
  "aaed47fb178b": {
    "id": "aaed47fb178b",
    "label": "11 PL AUX ERABLES, Bois-Guillaume",
    "lat": 49.480109,
    "lng": 1.114189,
    "transactions": [
      {
        "date": "2022-06-20",
        "priceEur": 315000,
        "typeLocal": "Maison",
        "surfaceM2": 104,
        "isVefa": false
      }
    ]
  },
  "fa8d6f2c62e5": {
    "id": "fa8d6f2c62e5",
    "label": "232 RUE DES FLORALIES, Bois-Guillaume",
    "lat": 49.476697,
    "lng": 1.119155,
    "transactions": [
      {
        "date": "2022-07-26",
        "priceEur": 350000,
        "typeLocal": "Maison",
        "surfaceM2": 88,
        "isVefa": false
      }
    ]
  },
  "eb1529bc9261": {
    "id": "eb1529bc9261",
    "label": "82 ALL ROLAND DORGELES, Bois-Guillaume",
    "lat": 49.478008,
    "lng": 1.115688,
    "transactions": [
      {
        "date": "2022-08-31",
        "priceEur": 355000,
        "typeLocal": "Maison",
        "surfaceM2": 92,
        "isVefa": false
      }
    ]
  },
  "f30a5cd780c2": {
    "id": "f30a5cd780c2",
    "label": "130 RUE DES FLORALIES, Bois-Guillaume",
    "lat": 49.475985,
    "lng": 1.117864,
    "transactions": [
      {
        "date": "2022-08-30",
        "priceEur": 230000,
        "typeLocal": "Maison",
        "surfaceM2": 53,
        "isVefa": false
      }
    ]
  },
  "349a2bf41063": {
    "id": "349a2bf41063",
    "label": "79 SEN DU FOYARD, Bois-Guillaume",
    "lat": 49.481103,
    "lng": 1.113333,
    "transactions": [
      {
        "date": "2022-11-25",
        "priceEur": 500000,
        "typeLocal": "Maison",
        "surfaceM2": 125,
        "isVefa": false
      }
    ]
  },
  "870acaf9d608": {
    "id": "870acaf9d608",
    "label": "16 RUE JEHAN LE POVREMOYNE, Bois-Guillaume",
    "lat": 49.477586,
    "lng": 1.109855,
    "transactions": [
      {
        "date": "2023-01-27",
        "priceEur": 385500,
        "typeLocal": "Maison",
        "surfaceM2": 98,
        "isVefa": false
      }
    ]
  },
  "c37d1fd073ea": {
    "id": "c37d1fd073ea",
    "label": "35 ALL ROLAND DORGELES, Bois-Guillaume",
    "lat": 49.477659,
    "lng": 1.115234,
    "transactions": [
      {
        "date": "2023-02-10",
        "priceEur": 286200,
        "typeLocal": "Maison",
        "surfaceM2": 91,
        "isVefa": false
      }
    ]
  },
  "46df790b6469": {
    "id": "46df790b6469",
    "label": "9016 CHE DE LA BRETEQUE, Bois-Guillaume",
    "lat": 49.48099,
    "lng": 1.110498,
    "transactions": [
      {
        "date": "2023-06-20",
        "priceEur": 330000,
        "typeLocal": "Maison",
        "surfaceM2": 112,
        "isVefa": false
      }
    ]
  },
  "d7dc081a01d3": {
    "id": "d7dc081a01d3",
    "label": "56 RUE DU MORILLON, Bois-Guillaume",
    "lat": 49.478868,
    "lng": 1.11929,
    "transactions": [
      {
        "date": "2023-07-17",
        "priceEur": 535000,
        "typeLocal": "Maison",
        "surfaceM2": 191,
        "isVefa": false
      }
    ]
  },
  "0462a478d7f5": {
    "id": "0462a478d7f5",
    "label": "981 CHE DE LA BRETEQUE, Bois-Guillaume",
    "lat": 49.480427,
    "lng": 1.110458,
    "transactions": [
      {
        "date": "2023-07-13",
        "priceEur": 374000,
        "typeLocal": "Maison",
        "surfaceM2": 117,
        "isVefa": false
      }
    ]
  },
  "1b0c6acb3223": {
    "id": "1b0c6acb3223",
    "label": "72 ALL DES PEPINIERES, Bois-Guillaume",
    "lat": 49.477579,
    "lng": 1.115964,
    "transactions": [
      {
        "date": "2023-07-27",
        "priceEur": 581000,
        "typeLocal": "Maison",
        "surfaceM2": 178,
        "isVefa": false
      }
    ]
  },
  "9582b59f3528": {
    "id": "9582b59f3528",
    "label": "357 RUE DE L OLIVIER DE NORMANDIE, Bois-Guillaume",
    "lat": 49.480452,
    "lng": 1.110054,
    "transactions": [
      {
        "date": "2023-08-07",
        "priceEur": 439000,
        "typeLocal": "Maison",
        "surfaceM2": 128,
        "isVefa": false
      }
    ]
  },
  "5c802cce1daf": {
    "id": "5c802cce1daf",
    "label": "244 SEN DU HAMEL, Bois-Guillaume",
    "lat": 49.47567,
    "lng": 1.118507,
    "transactions": [
      {
        "date": "2025-06-11",
        "priceEur": 200000,
        "typeLocal": "Maison",
        "surfaceM2": 67,
        "isVefa": false
      },
      {
        "date": "2023-08-30",
        "priceEur": 185000,
        "typeLocal": "Maison",
        "surfaceM2": 67,
        "isVefa": false
      }
    ]
  },
  "fe1f55dd1475": {
    "id": "fe1f55dd1475",
    "label": "9008 CHE DE LA BRETEQUE, Bois-Guillaume",
    "lat": 49.48047,
    "lng": 1.111067,
    "transactions": [
      {
        "date": "2023-09-29",
        "priceEur": 293000,
        "typeLocal": "Maison",
        "surfaceM2": 112,
        "isVefa": false
      }
    ]
  },
  "4836df4ac29c": {
    "id": "4836df4ac29c",
    "label": "2483 RUE DE LA HAIE, Bois-Guillaume",
    "lat": 49.476941,
    "lng": 1.120198,
    "transactions": [
      {
        "date": "2023-11-29",
        "priceEur": 333000,
        "typeLocal": "Maison",
        "surfaceM2": 122,
        "isVefa": false
      }
    ]
  },
  "77df2e6d6131": {
    "id": "77df2e6d6131",
    "label": "290 RUE DES CHAMPS, Bois-Guillaume",
    "lat": 49.477246,
    "lng": 1.115647,
    "transactions": [
      {
        "date": "2023-12-08",
        "priceEur": 300000,
        "typeLocal": "Maison",
        "surfaceM2": 91,
        "isVefa": false
      }
    ]
  },
  "1908dc82362d": {
    "id": "1908dc82362d",
    "label": "266 RUE DU BOQUETTIER, Bois-Guillaume",
    "lat": 49.481334,
    "lng": 1.112594,
    "transactions": [
      {
        "date": "2024-01-24",
        "priceEur": 475000,
        "typeLocal": "Maison",
        "surfaceM2": 162,
        "isVefa": false
      }
    ]
  },
  "bb952f42ab81": {
    "id": "bb952f42ab81",
    "label": "73 SEN DU HAMEL, Bois-Guillaume",
    "lat": 49.475518,
    "lng": 1.119784,
    "transactions": [
      {
        "date": "2024-04-30",
        "priceEur": 385000,
        "typeLocal": "Maison",
        "surfaceM2": 132,
        "isVefa": false
      }
    ]
  },
  "3c08de9e6fdc": {
    "id": "3c08de9e6fdc",
    "label": "50 ALL DE NOGUIER, Bois-Guillaume",
    "lat": 49.479901,
    "lng": 1.114251,
    "transactions": [
      {
        "date": "2024-07-12",
        "priceEur": 414300,
        "typeLocal": "Maison",
        "surfaceM2": 109,
        "isVefa": false
      }
    ]
  },
  "dcfbe345fc54": {
    "id": "dcfbe345fc54",
    "label": "92 RUE DE LA NOBLE EPINE, Bois-Guillaume",
    "lat": 49.480545,
    "lng": 1.115012,
    "transactions": [
      {
        "date": "2024-08-12",
        "priceEur": 156300,
        "typeLocal": "Appartement",
        "surfaceM2": 59,
        "isVefa": false
      }
    ]
  },
  "5a033fd23b98": {
    "id": "5a033fd23b98",
    "label": "204 SEN DU HAMEL, Bois-Guillaume",
    "lat": 49.476015,
    "lng": 1.118596,
    "transactions": [
      {
        "date": "2024-09-06",
        "priceEur": 306000,
        "typeLocal": "Maison",
        "surfaceM2": 119,
        "isVefa": false
      }
    ]
  },
  "8976a5049eba": {
    "id": "8976a5049eba",
    "label": "159 RUE DU TOURNE MIDI, Bois-Guillaume",
    "lat": 49.48098,
    "lng": 1.11777,
    "transactions": [
      {
        "date": "2024-11-22",
        "priceEur": 460000,
        "typeLocal": "Maison",
        "surfaceM2": 137,
        "isVefa": false
      }
    ]
  },
  "c2c7e2e992fb": {
    "id": "c2c7e2e992fb",
    "label": "353 RUE DE L OLIVIER DE NORMANDIE, Bois-Guillaume",
    "lat": 49.480516,
    "lng": 1.109688,
    "transactions": [
      {
        "date": "2025-02-07",
        "priceEur": 390000,
        "typeLocal": "Maison",
        "surfaceM2": 138,
        "isVefa": false
      }
    ]
  },
  "8720d0450c31": {
    "id": "8720d0450c31",
    "label": "188 RUE DES FLORALIES, Bois-Guillaume",
    "lat": 49.476359,
    "lng": 1.118542,
    "transactions": [
      {
        "date": "2025-02-19",
        "priceEur": 417000,
        "typeLocal": "Maison",
        "surfaceM2": 124,
        "isVefa": false
      }
    ]
  },
  "aadfcd31faa5": {
    "id": "aadfcd31faa5",
    "label": "387 RUE DU TOURNE MIDI, Bois-Guillaume",
    "lat": 49.481174,
    "lng": 1.11601,
    "transactions": [
      {
        "date": "2025-04-14",
        "priceEur": 340000,
        "typeLocal": "Maison",
        "surfaceM2": 116,
        "isVefa": false
      },
      {
        "date": "2025-04-14",
        "priceEur": 170000,
        "typeLocal": "Maison",
        "surfaceM2": 116,
        "isVefa": false
      }
    ]
  },
  "769cb407e632": {
    "id": "769cb407e632",
    "label": "180 ALL ROLAND DORGELES, Bois-Guillaume",
    "lat": 49.478633,
    "lng": 1.114975,
    "transactions": [
      {
        "date": "2025-04-28",
        "priceEur": 68250,
        "typeLocal": "Maison",
        "surfaceM2": 112,
        "isVefa": false
      }
    ]
  }
}