{
  "2b1622a991bc": {
    "id": "2b1622a991bc",
    "label": "9 RUE DE L'ENCLOS DU VILLAGE, Castries",
    "lat": 43.676502,
    "lng": 3.988478,
    "transactions": [
      {
        "date": "2021-06-04",
        "priceEur": 473000,
        "typeLocal": "Maison",
        "surfaceM2": 152,
        "isVefa": false
      },
      {
        "date": "2021-03-25",
        "priceEur": 390000,
        "typeLocal": "Maison",
        "surfaceM2": 152,
        "isVefa": false
      }
    ]
  },
  "73fdfba28aa2": {
    "id": "73fdfba28aa2",
    "label": "9 IMP DU STADE, Castries",
    "lat": 43.680691,
    "lng": 3.988515,
    "transactions": [
      {
        "date": "2021-06-29",
        "priceEur": 338850,
        "typeLocal": "Maison",
        "surfaceM2": 82,
        "isVefa": false
      }
    ]
  },
  "60887520161c": {
    "id": "60887520161c",
    "label": "25 RUE DE LA PIERRE BLEUE, Castries",
    "lat": 43.683504,
    "lng": 3.98816,
    "transactions": [
      {
        "date": "2024-09-20",
        "priceEur": 128070,
        "typeLocal": "Appartement",
        "surfaceM2": 47,
        "isVefa": false
      },
      {
        "date": "2024-08-12",
        "priceEur": 138150,
        "typeLocal": "Appartement",
        "surfaceM2": 54,
        "isVefa": false
      },
      {
        "date": "2023-09-29",
        "priceEur": 103730,
        "typeLocal": "Appartement",
        "surfaceM2": 26,
        "isVefa": false
      },
      {
        "date": "2022-03-15",
        "priceEur": 203160,
        "typeLocal": "Appartement",
        "surfaceM2": 54,
        "isVefa": false
      },
      {
        "date": "2021-11-23",
        "priceEur": 208880,
        "typeLocal": "Appartement",
        "surfaceM2": 57,
        "isVefa": false
      },
      {
        "date": "2021-11-23",
        "priceEur": 208880,
        "typeLocal": "Appartement",
        "surfaceM2": 26,
        "isVefa": false
      }
    ]
  },
  "a8a3606e04e7": {
    "id": "a8a3606e04e7",
    "label": "5 IMP DES CHEVALIERS, Castries",
    "lat": 43.675836,
    "lng": 3.991618,
    "transactions": [
      {
        "date": "2022-01-04",
        "priceEur": 425000,
        "typeLocal": "Maison",
        "surfaceM2": 116,
        "isVefa": false
      }
    ]
  },
  "cb11657cee83": {
    "id": "cb11657cee83",
    "label": "15 IMP DU STADE, Castries",
    "lat": 43.680483,
    "lng": 3.988572,
    "transactions": [
      {
        "date": "2022-10-17",
        "priceEur": 202686,
        "typeLocal": "Maison",
        "surfaceM2": 81,
        "isVefa": false
      }
    ]
  },
  "943b1540f917": {
    "id": "943b1540f917",
    "label": "13 PL DES MUSCATS, Castries",
    "lat": 43.67739,
    "lng": 3.993613,
    "transactions": [
      {
        "date": "2022-11-18",
        "priceEur": 505340,
        "typeLocal": "Maison",
        "surfaceM2": 120,
        "isVefa": false
      }
    ]
  },
  "2e7382992523": {
    "id": "2e7382992523",
    "label": "10 RUE DE L'ENCLOS DU VILLAGE, Castries",
    "lat": 43.675923,
    "lng": 3.988613,
    "transactions": [
      {
        "date": "2023-12-18",
        "priceEur": 560600,
        "typeLocal": "Appartement",
        "surfaceM2": 18,
        "isVefa": false
      },
      {
        "date": "2023-12-18",
        "priceEur": 560600,
        "typeLocal": "Maison",
        "surfaceM2": 120,
        "isVefa": false
      }
    ]
  },
  "1fe3e802a92b": {
    "id": "1fe3e802a92b",
    "label": "268 RUE DES CANDINIERES, Castries",
    "lat": 43.676376,
    "lng": 3.991442,
    "transactions": [
      {
        "date": "2024-02-08",
        "priceEur": 180000,
        "typeLocal": "Maison",
        "surfaceM2": 90,
        "isVefa": false
      }
    ]
  },
  "660c4670442b": {
    "id": "660c4670442b",
    "label": "51 RUE DES ARAMONS, Castries",
    "lat": 43.677077,
    "lng": 3.991899,
    "transactions": [
      {
        "date": "2024-01-29",
        "priceEur": 507450,
        "typeLocal": "Maison",
        "surfaceM2": 134,
        "isVefa": false
      }
    ]
  },
  "fd2f3bb505c0": {
    "id": "fd2f3bb505c0",
    "label": "13 IMP DU STADE, Castries",
    "lat": 43.680547,
    "lng": 3.988564,
    "transactions": [
      {
        "date": "2024-07-10",
        "priceEur": 296280,
        "typeLocal": "Maison",
        "surfaceM2": 83,
        "isVefa": false
      }
    ]
  },
  "e08aeed2704a": {
    "id": "e08aeed2704a",
    "label": "8 RUE DE L'ENCLOS DU VILLAGE, Castries",
    "lat": 43.676271,
    "lng": 3.988718,
    "transactions": [
      {
        "date": "2024-07-16",
        "priceEur": 457000,
        "typeLocal": "Maison",
        "surfaceM2": 141,
        "isVefa": false
      }
    ]
  },
  "1d121f1e58ce": {
    "id": "1d121f1e58ce",
    "label": "11 IMP DU STADE, Castries",
    "lat": 43.680605,
    "lng": 3.988537,
    "transactions": [
      {
        "date": "2025-02-28",
        "priceEur": 315100,
        "typeLocal": "Maison",
        "surfaceM2": 82,
        "isVefa": false
      }
    ]
  },
  "cfcecf9b8595": {
    "id": "cfcecf9b8595",
    "label": "7 IMP DES PINS, Castries",
    "lat": 43.681188,
    "lng": 3.988071,
    "transactions": [
      {
        "date": "2025-04-07",
        "priceEur": 409000,
        "typeLocal": "Maison",
        "surfaceM2": 114,
        "isVefa": false
      }
    ]
  },
  "7883e6c97ec9": {
    "id": "7883e6c97ec9",
    "label": "301 RUE DES CANDINIERES, Castries",
    "lat": 43.676253,
    "lng": 3.992159,
    "transactions": [
      {
        "date": "2025-05-22",
        "priceEur": 442170,
        "typeLocal": "Maison",
        "surfaceM2": 84,
        "isVefa": false
      }
    ]
  }
}