{
  "c62b11dda5e7": {
    "id": "c62b11dda5e7",
    "label": "5180 LA REGIE, Saint-Sauveur-d'Émalleville",
    "lat": 49.610301,
    "lng": 0.305504,
    "transactions": [
      {
        "date": "2020-08-19",
        "priceEur": 217460,
        "typeLocal": "Maison",
        "surfaceM2": 90,
        "isVefa": false
      }
    ]
  },
  "1d0e1043d70c": {
    "id": "1d0e1043d70c",
    "label": "5236 IMP DES JONQUILLES, Saint-Sauveur-d'Émalleville",
    "lat": 49.609541,
    "lng": 0.304375,
    "transactions": [
      {
        "date": "2020-11-12",
        "priceEur": 188000,
        "typeLocal": "Maison",
        "surfaceM2": 90,
        "isVefa": false
      }
    ]
  },
  "4d0a858d0740": {
    "id": "4d0a858d0740",
    "label": "1114 RTE DES DEUX EGLISES, Saint-Sauveur-d'Émalleville",
    "lat": 49.609541,
    "lng": 0.304375,
    "transactions": [
      {
        "date": "2020-11-19",
        "priceEur": 316000,
        "typeLocal": "Maison",
        "surfaceM2": 144,
        "isVefa": false
      }
    ]
  },
  "ad8ff7e76daf": {
    "id": "ad8ff7e76daf",
    "label": "5252 LA REGIE, Saint-Sauveur-d'Émalleville",
    "lat": 49.60814,
    "lng": 0.30459,
    "transactions": [
      {
        "date": "2021-02-19",
        "priceEur": 225000,
        "typeLocal": "Maison",
        "surfaceM2": 110,
        "isVefa": false
      }
    ]
  },
  "70b882971bc2": {
    "id": "70b882971bc2",
    "label": "354 RUE DU BOURDON, Saint-Sauveur-d'Émalleville",
    "lat": 49.605135,
    "lng": 0.302478,
    "transactions": [
      {
        "date": "2021-10-01",
        "priceEur": 207500,
        "typeLocal": "Maison",
        "surfaceM2": 102,
        "isVefa": false
      }
    ]
  },
  "bb50127ed27d": {
    "id": "bb50127ed27d",
    "label": "440 RUE DU BOURDON, Saint-Sauveur-d'Émalleville",
    "lat": 49.605394,
    "lng": 0.30306,
    "transactions": [
      {
        "date": "2022-07-27",
        "priceEur": 286820,
        "typeLocal": "Maison",
        "surfaceM2": 112,
        "isVefa": false
      }
    ]
  },
  "a68a785e0781": {
    "id": "a68a785e0781",
    "label": "295 RUE DU BOURDON, Saint-Sauveur-d'Émalleville",
    "lat": 49.605018,
    "lng": 0.301626,
    "transactions": [
      {
        "date": "2022-08-26",
        "priceEur": 248500,
        "typeLocal": "Maison",
        "surfaceM2": 115,
        "isVefa": false
      }
    ]
  },
  "93b260aa4075": {
    "id": "93b260aa4075",
    "label": "265 RUE DU BOURDON, Saint-Sauveur-d'Émalleville",
    "lat": 49.604455,
    "lng": 0.301749,
    "transactions": [
      {
        "date": "2022-08-26",
        "priceEur": 253600,
        "typeLocal": "Maison",
        "surfaceM2": 106,
        "isVefa": false
      }
    ]
  },
  "a2608d8eb1c7": {
    "id": "a2608d8eb1c7",
    "label": "429 RUE DU BOURDON, Saint-Sauveur-d'Émalleville",
    "lat": 49.606092,
    "lng": 0.302381,
    "transactions": [
      {
        "date": "2023-11-20",
        "priceEur": 165000,
        "typeLocal": "Maison",
        "surfaceM2": 88,
        "isVefa": false
      }
    ]
  },
  "74d7ac691c34": {
    "id": "74d7ac691c34",
    "label": "6 LOT LE BEL HORIZON, Saint-Sauveur-d'Émalleville",
    "lat": 49.608092,
    "lng": 0.306225,
    "transactions": [
      {
        "date": "2023-11-30",
        "priceEur": 277350,
        "typeLocal": "Maison",
        "surfaceM2": 152,
        "isVefa": false
      }
    ]
  },
  "edb6639105e4": {
    "id": "edb6639105e4",
    "label": "7 IMP DES JONQUILLES, Saint-Sauveur-d'Émalleville",
    "lat": 49.609541,
    "lng": 0.304375,
    "transactions": [
      {
        "date": "2024-10-10",
        "priceEur": 330000,
        "typeLocal": "Maison",
        "surfaceM2": 165,
        "isVefa": false
      }
    ]
  }
}