{
  "b9c0f992cd82": {
    "id": "b9c0f992cd82",
    "label": "5484F CANTEMERLES, Les Aires",
    "lat": 43.579567,
    "lng": 3.076621,
    "transactions": [
      {
        "date": "2021-02-12",
        "priceEur": 200000,
        "typeLocal": "Maison",
        "surfaceM2": 93,
        "isVefa": false
      },
      {
        "date": "2021-02-12",
        "priceEur": 200000,
        "typeLocal": "Maison",
        "surfaceM2": 93,
        "isVefa": false
      }
    ]
  },
  "e686f4fc7f3c": {
    "id": "e686f4fc7f3c",
    "label": "5 RUE DES MOURELS, Les Aires",
    "lat": 43.57734,
    "lng": 3.083548,
    "transactions": [
      {
        "date": "2021-07-21",
        "priceEur": 34000,
        "typeLocal": "Maison",
        "surfaceM2": 28,
        "isVefa": false
      }
    ]
  },
  "08e4abd48b20": {
    "id": "08e4abd48b20",
    "label": "8 RUE DES ESCALIERS, Les Aires",
    "lat": 43.577244,
    "lng": 3.08351,
    "transactions": [
      {
        "date": "2021-10-29",
        "priceEur": 38000,
        "typeLocal": "Maison",
        "surfaceM2": 63,
        "isVefa": false
      }
    ]
  },
  "d5487f67eb0f": {
    "id": "d5487f67eb0f",
    "label": "76 CHE DE ROSSIGNE, Les Aires",
    "lat": 43.580065,
    "lng": 3.076502,
    "transactions": [
      {
        "date": "2023-07-12",
        "priceEur": 280000,
        "typeLocal": "Maison",
        "surfaceM2": 120,
        "isVefa": false
      },
      {
        "date": "2023-07-12",
        "priceEur": 280000,
        "typeLocal": "Maison",
        "surfaceM2": 120,
        "isVefa": false
      }
    ]
  },
  "ed27b43fcdda": {
    "id": "ed27b43fcdda",
    "label": "1 RUE DE LA SOURCE, Les Aires",
    "lat": 43.577219,
    "lng": 3.083662,
    "transactions": [
      {
        "date": "2024-01-25",
        "priceEur": 12000,
        "typeLocal": "Maison",
        "surfaceM2": 62,
        "isVefa": false
      }
    ]
  }
}