{
  "a6f708fcbb45": {
    "id": "a6f708fcbb45",
    "label": "77 AV DES COMBATTANTS, Cazilhac",
    "lat": 43.92265,
    "lng": 3.702992,
    "transactions": [
      {
        "date": "2020-11-16",
        "priceEur": 150000,
        "typeLocal": "Appartement",
        "surfaceM2": 75,
        "isVefa": false
      },
      {
        "date": "2020-11-16",
        "priceEur": 150000,
        "typeLocal": "Appartement",
        "surfaceM2": 75,
        "isVefa": false
      }
    ]
  },
  "e45ff7a6937f": {
    "id": "e45ff7a6937f",
    "label": "11 LOT LES MURIERS, Cazilhac",
    "lat": 43.923813,
    "lng": 3.702482,
    "transactions": [
      {
        "date": "2021-01-06",
        "priceEur": 145800,
        "typeLocal": "Maison",
        "surfaceM2": 54,
        "isVefa": false
      }
    ]
  },
  "6d97b87f2fee": {
    "id": "6d97b87f2fee",
    "label": "280 RTE DES CHATAIGNERAIES, Cazilhac",
    "lat": 43.92248,
    "lng": 3.706992,
    "transactions": [
      {
        "date": "2021-02-27",
        "priceEur": 250150,
        "typeLocal": "Maison",
        "surfaceM2": 105,
        "isVefa": false
      },
      {
        "date": "2021-02-27",
        "priceEur": 250150,
        "typeLocal": "Maison",
        "surfaceM2": 105,
        "isVefa": false
      }
    ]
  },
  "a497eb67c119": {
    "id": "a497eb67c119",
    "label": "528 AV DES COMBATTANTS, Cazilhac",
    "lat": 43.926688,
    "lng": 3.70374,
    "transactions": [
      {
        "date": "2021-04-16",
        "priceEur": 35870.46,
        "typeLocal": "Maison",
        "surfaceM2": 15,
        "isVefa": false
      }
    ]
  },
  "9498cfc2dde7": {
    "id": "9498cfc2dde7",
    "label": "67 AV DES COMBATTANTS, Cazilhac",
    "lat": 43.922521,
    "lng": 3.703179,
    "transactions": [
      {
        "date": "2021-08-06",
        "priceEur": 123000,
        "typeLocal": "Maison",
        "surfaceM2": 86,
        "isVefa": false
      }
    ]
  },
  "9f8498763645": {
    "id": "9f8498763645",
    "label": "183B RTE DES CHATAIGNERAIES, Cazilhac",
    "lat": 43.922064,
    "lng": 3.705787,
    "transactions": [
      {
        "date": "2021-08-30",
        "priceEur": 140000,
        "typeLocal": "Maison",
        "surfaceM2": 91,
        "isVefa": false
      }
    ]
  },
  "58a02af49b69": {
    "id": "58a02af49b69",
    "label": "9015 LES CALQUIERES, Ganges",
    "lat": 43.928479,
    "lng": 3.706643,
    "transactions": [
      {
        "date": "2021-11-06",
        "priceEur": 108000,
        "typeLocal": "Appartement",
        "surfaceM2": 82,
        "isVefa": false
      },
      {
        "date": "2021-11-06",
        "priceEur": 108000,
        "typeLocal": "Appartement",
        "surfaceM2": 70,
        "isVefa": false
      }
    ]
  },
  "b4269ae0d896": {
    "id": "b4269ae0d896",
    "label": "6 RUE DES TANNEURS, Ganges",
    "lat": 43.929009,
    "lng": 3.705184,
    "transactions": [
      {
        "date": "2021-11-23",
        "priceEur": 105000,
        "typeLocal": "Appartement",
        "surfaceM2": 65,
        "isVefa": false
      }
    ]
  },
  "c9b1d3b8eb38": {
    "id": "c9b1d3b8eb38",
    "label": "276 CHE BUISSON DE ROBERT, Cazilhac",
    "lat": 43.926188,
    "lng": 3.70245,
    "transactions": [
      {
        "date": "2022-04-02",
        "priceEur": 140000,
        "typeLocal": "Maison",
        "surfaceM2": 77,
        "isVefa": false
      }
    ]
  },
  "70196da57253": {
    "id": "70196da57253",
    "label": "708 AV DES COMBATTANTS, Cazilhac",
    "lat": 43.928334,
    "lng": 3.703508,
    "transactions": [
      {
        "date": "2022-05-25",
        "priceEur": 233965,
        "typeLocal": "Appartement",
        "surfaceM2": 25,
        "isVefa": false
      },
      {
        "date": "2022-05-25",
        "priceEur": 233965,
        "typeLocal": "Appartement",
        "surfaceM2": 70,
        "isVefa": false
      }
    ]
  },
  "e8b2803db364": {
    "id": "e8b2803db364",
    "label": "5233F AV DES COMBATTANTS, Cazilhac",
    "lat": 43.92821,
    "lng": 3.703462,
    "transactions": [
      {
        "date": "2022-05-25",
        "priceEur": 233965,
        "typeLocal": "Maison",
        "surfaceM2": 36,
        "isVefa": false
      }
    ]
  },
  "bcd0380e248e": {
    "id": "bcd0380e248e",
    "label": "222 CHE DU FESQUET, Cazilhac",
    "lat": 43.922942,
    "lng": 3.710912,
    "transactions": [
      {
        "date": "2022-06-16",
        "priceEur": 215000,
        "typeLocal": "Maison",
        "surfaceM2": 111,
        "isVefa": false
      }
    ]
  },
  "d5f6f423a50b": {
    "id": "d5f6f423a50b",
    "label": "555 AV DES COMBATTANTS, Cazilhac",
    "lat": 43.926694,
    "lng": 3.702755,
    "transactions": [
      {
        "date": "2022-06-27",
        "priceEur": 197000,
        "typeLocal": "Maison",
        "surfaceM2": 58,
        "isVefa": false
      }
    ]
  },
  "cf201356cd0b": {
    "id": "cf201356cd0b",
    "label": "246 RTE DE VAL MARIE, Cazilhac",
    "lat": 43.922714,
    "lng": 3.706571,
    "transactions": [
      {
        "date": "2022-07-28",
        "priceEur": 223000,
        "typeLocal": "Maison",
        "surfaceM2": 117,
        "isVefa": false
      }
    ]
  },
  "1c9847135017": {
    "id": "1c9847135017",
    "label": "48 CHE DU FESQUET, Cazilhac",
    "lat": 43.923401,
    "lng": 3.708332,
    "transactions": [
      {
        "date": "2022-11-30",
        "priceEur": 206600,
        "typeLocal": "Maison",
        "surfaceM2": 65,
        "isVefa": false
      }
    ]
  },
  "19cf574c29b8": {
    "id": "19cf574c29b8",
    "label": "645B AV DES COMBATTANTS, Cazilhac",
    "lat": 43.927555,
    "lng": 3.703313,
    "transactions": [
      {
        "date": "2022-12-30",
        "priceEur": 372,
        "typeLocal": "Maison",
        "surfaceM2": 57,
        "isVefa": false
      }
    ]
  },
  "dda88a47f3c3": {
    "id": "dda88a47f3c3",
    "label": "622 CHE DES MEUSES, Cazilhac",
    "lat": 43.924089,
    "lng": 3.706336,
    "transactions": [
      {
        "date": "2023-02-27",
        "priceEur": 17000,
        "typeLocal": "Maison",
        "surfaceM2": 91,
        "isVefa": false
      }
    ]
  },
  "d2af28471250": {
    "id": "d2af28471250",
    "label": "75 RTE DE VAL MARIE, Cazilhac",
    "lat": 43.922494,
    "lng": 3.704267,
    "transactions": [
      {
        "date": "2023-03-14",
        "priceEur": 215000,
        "typeLocal": "Maison",
        "surfaceM2": 31,
        "isVefa": false
      }
    ]
  },
  "c8437a93d8a3": {
    "id": "c8437a93d8a3",
    "label": "847 AV DES COMBATTANTS, Cazilhac",
    "lat": 43.929342,
    "lng": 3.702855,
    "transactions": [
      {
        "date": "2023-04-17",
        "priceEur": 279570,
        "typeLocal": "Maison",
        "surfaceM2": 83,
        "isVefa": false
      }
    ]
  },
  "4e7ae16e4fd3": {
    "id": "4e7ae16e4fd3",
    "label": "363 AV DES COMBATTANTS, Cazilhac",
    "lat": 43.925158,
    "lng": 3.703395,
    "transactions": [
      {
        "date": "2023-03-27",
        "priceEur": 328,
        "typeLocal": "Maison",
        "surfaceM2": 88,
        "isVefa": false
      }
    ]
  },
  "386fd0cd4164": {
    "id": "386fd0cd4164",
    "label": "435 AV DES COMBATTANTS, Cazilhac",
    "lat": 43.925839,
    "lng": 3.703374,
    "transactions": [
      {
        "date": "2023-04-18",
        "priceEur": 108,
        "typeLocal": "Maison",
        "surfaceM2": 94,
        "isVefa": false
      }
    ]
  },
  "d1adf9a9ceed": {
    "id": "d1adf9a9ceed",
    "label": "15 RUE DE CINEY, Cazilhac",
    "lat": 43.92184,
    "lng": 3.702662,
    "transactions": [
      {
        "date": "2023-08-31",
        "priceEur": 276225,
        "typeLocal": "Maison",
        "surfaceM2": 93,
        "isVefa": false
      }
    ]
  },
  "795a5c7bb815": {
    "id": "795a5c7bb815",
    "label": "306 AV DES COMBATTANTS, Cazilhac",
    "lat": 43.924177,
    "lng": 3.70361,
    "transactions": [
      {
        "date": "2023-06-26",
        "priceEur": 20,
        "typeLocal": "Maison",
        "surfaceM2": 178,
        "isVefa": false
      }
    ]
  },
  "6b4f0c7c040d": {
    "id": "6b4f0c7c040d",
    "label": "48B CHE DU FESQUET, Cazilhac",
    "lat": 43.923345,
    "lng": 3.708256,
    "transactions": [
      {
        "date": "2024-10-01",
        "priceEur": 246000,
        "typeLocal": "Maison",
        "surfaceM2": 79,
        "isVefa": false
      }
    ]
  },
  "978bb087069e": {
    "id": "978bb087069e",
    "label": "581 AV DES COMBATTANTS, Cazilhac",
    "lat": 43.927093,
    "lng": 3.702779,
    "transactions": [
      {
        "date": "2024-11-28",
        "priceEur": 262000,
        "typeLocal": "Maison",
        "surfaceM2": 116,
        "isVefa": false
      },
      {
        "date": "2024-11-28",
        "priceEur": 262000,
        "typeLocal": "Maison",
        "surfaceM2": 116,
        "isVefa": false
      }
    ]
  },
  "f9a4bdb3f2ae": {
    "id": "f9a4bdb3f2ae",
    "label": "845 AV DES COMBATTANTS, Cazilhac",
    "lat": 43.929191,
    "lng": 3.702799,
    "transactions": [
      {
        "date": "2025-02-11",
        "priceEur": 61140,
        "typeLocal": "Appartement",
        "surfaceM2": 56,
        "isVefa": false
      }
    ]
  }
}