{
  "98e184abd3f6": {
    "id": "98e184abd3f6",
    "label": "441 CHE DE MONTPELLIER, Villetelle",
    "lat": 43.729051,
    "lng": 4.138124,
    "transactions": [
      {
        "date": "2020-07-31",
        "priceEur": 305000,
        "typeLocal": "Maison",
        "surfaceM2": 99,
        "isVefa": false
      },
      {
        "date": "2020-07-31",
        "priceEur": 305000,
        "typeLocal": "Maison",
        "surfaceM2": 99,
        "isVefa": false
      }
    ]
  },
  "2ff6083dd79c": {
    "id": "2ff6083dd79c",
    "label": "34 CHE DES CARRIERES, Villetelle",
    "lat": 43.731047,
    "lng": 4.134979,
    "transactions": [
      {
        "date": "2020-07-31",
        "priceEur": 510000,
        "typeLocal": "Maison",
        "surfaceM2": 142,
        "isVefa": false
      },
      {
        "date": "2020-07-31",
        "priceEur": 510000,
        "typeLocal": "Maison",
        "surfaceM2": 142,
        "isVefa": false
      }
    ]
  },
  "1308a3cd8bc7": {
    "id": "1308a3cd8bc7",
    "label": "899 CHEMIN DE MONTPELLIER, Villetelle",
    "lat": 43.726578,
    "lng": 4.134251,
    "transactions": [
      {
        "date": "2020-09-30",
        "priceEur": 591700,
        "typeLocal": "Maison",
        "surfaceM2": 166,
        "isVefa": false
      },
      {
        "date": "2020-09-30",
        "priceEur": 591700,
        "typeLocal": "Maison",
        "surfaceM2": 166,
        "isVefa": false
      }
    ]
  },
  "c49560bb5790": {
    "id": "c49560bb5790",
    "label": "6103F CHE DES AMANDIERS, Villetelle",
    "lat": 43.731061,
    "lng": 4.136056,
    "transactions": [
      {
        "date": "2020-11-23",
        "priceEur": 422000,
        "typeLocal": "Maison",
        "surfaceM2": 103,
        "isVefa": false
      }
    ]
  },
  "4c909bc6a0ff": {
    "id": "4c909bc6a0ff",
    "label": "148 IMP DU GRES, Villetelle",
    "lat": 43.724091,
    "lng": 4.134553,
    "transactions": [
      {
        "date": "2021-02-05",
        "priceEur": 248000,
        "typeLocal": "Maison",
        "surfaceM2": 68,
        "isVefa": false
      }
    ]
  },
  "584cd2f18254": {
    "id": "584cd2f18254",
    "label": "445 CHE DE MONTPELLIER, Villetelle",
    "lat": 43.729028,
    "lng": 4.137428,
    "transactions": [
      {
        "date": "2021-02-12",
        "priceEur": 477500,
        "typeLocal": "Maison",
        "surfaceM2": 187,
        "isVefa": false
      },
      {
        "date": "2021-02-12",
        "priceEur": 477500,
        "typeLocal": "Maison",
        "surfaceM2": 187,
        "isVefa": false
      }
    ]
  },
  "a62d22ae4d3f": {
    "id": "a62d22ae4d3f",
    "label": "404 RUE DU ROMARIN, Villetelle",
    "lat": 43.72435,
    "lng": 4.131902,
    "transactions": [
      {
        "date": "2021-06-25",
        "priceEur": 372850,
        "typeLocal": "Maison",
        "surfaceM2": 124,
        "isVefa": false
      }
    ]
  },
  "e58aaadae305": {
    "id": "e58aaadae305",
    "label": "612 CHEMIN DE MONTPELLIER, Villetelle",
    "lat": 43.728665,
    "lng": 4.136183,
    "transactions": [
      {
        "date": "2021-06-07",
        "priceEur": 626850,
        "typeLocal": "Maison",
        "surfaceM2": 165,
        "isVefa": false
      }
    ]
  },
  "5ec9a214da71": {
    "id": "5ec9a214da71",
    "label": "91 CHE DES CARRIERES, Villetelle",
    "lat": 43.73138,
    "lng": 4.134191,
    "transactions": [
      {
        "date": "2021-07-29",
        "priceEur": 327500,
        "typeLocal": "Maison",
        "surfaceM2": 95,
        "isVefa": false
      }
    ]
  },
  "aa47485916a4": {
    "id": "aa47485916a4",
    "label": "2 LOT RESIDENCE LES PINS, Villetelle",
    "lat": 43.73129,
    "lng": 4.136528,
    "transactions": [
      {
        "date": "2021-08-24",
        "priceEur": 381800,
        "typeLocal": "Maison",
        "surfaceM2": 112,
        "isVefa": false
      },
      {
        "date": "2021-08-24",
        "priceEur": 381800,
        "typeLocal": "Maison",
        "surfaceM2": 112,
        "isVefa": false
      }
    ]
  },
  "d7dc6b0b30e1": {
    "id": "d7dc6b0b30e1",
    "label": "140 IMP DE SANTOLINE, Villetelle",
    "lat": 43.729363,
    "lng": 4.138801,
    "transactions": [
      {
        "date": "2021-12-15",
        "priceEur": 128189,
        "typeLocal": "Maison",
        "surfaceM2": 100,
        "isVefa": false
      },
      {
        "date": "2021-12-15",
        "priceEur": 128189,
        "typeLocal": "Maison",
        "surfaceM2": 100,
        "isVefa": false
      }
    ]
  },
  "7c94f3e4b082": {
    "id": "7c94f3e4b082",
    "label": "386 CHEMIN DE MONTPELLIER, Villetelle",
    "lat": 43.729919,
    "lng": 4.136556,
    "transactions": [
      {
        "date": "2022-02-24",
        "priceEur": 384000,
        "typeLocal": "Maison",
        "surfaceM2": 80,
        "isVefa": false
      }
    ]
  },
  "f9446ae56523": {
    "id": "f9446ae56523",
    "label": "6104F IMP DU GRES, Villetelle",
    "lat": 43.723983,
    "lng": 4.134211,
    "transactions": [
      {
        "date": "2022-06-16",
        "priceEur": 350000,
        "typeLocal": "Maison",
        "surfaceM2": 127,
        "isVefa": false
      }
    ]
  },
  "257239dc3ef6": {
    "id": "257239dc3ef6",
    "label": "38 IMP DE LA PINEDE, Villetelle",
    "lat": 43.728105,
    "lng": 4.135365,
    "transactions": [
      {
        "date": "2022-07-04",
        "priceEur": 424955,
        "typeLocal": "Maison",
        "surfaceM2": 115,
        "isVefa": false
      }
    ]
  },
  "4e500c9b417d": {
    "id": "4e500c9b417d",
    "label": "621 RTE DE LUNEL, Villetelle",
    "lat": 43.728017,
    "lng": 4.141165,
    "transactions": [
      {
        "date": "2022-11-22",
        "priceEur": 125100,
        "typeLocal": "Maison",
        "surfaceM2": 111,
        "isVefa": false
      },
      {
        "date": "2022-11-22",
        "priceEur": 125100,
        "typeLocal": "Maison",
        "surfaceM2": 111,
        "isVefa": false
      }
    ]
  },
  "d384b20eabc4": {
    "id": "d384b20eabc4",
    "label": "270 RUE DES GRENADIERS, Villetelle",
    "lat": 43.729975,
    "lng": 4.138648,
    "transactions": [
      {
        "date": "2023-01-24",
        "priceEur": 659400,
        "typeLocal": "Maison",
        "surfaceM2": 149,
        "isVefa": false
      }
    ]
  },
  "e631dba87fcf": {
    "id": "e631dba87fcf",
    "label": "583 CHEMIN DE MONTPELLIER, Villetelle",
    "lat": 43.728246,
    "lng": 4.136608,
    "transactions": [
      {
        "date": "2023-05-31",
        "priceEur": 490000,
        "typeLocal": "Maison",
        "surfaceM2": 130,
        "isVefa": false
      }
    ]
  },
  "365c12f86630": {
    "id": "365c12f86630",
    "label": "250 RUE DU ROMARIN, Villetelle",
    "lat": 43.724004,
    "lng": 4.130969,
    "transactions": [
      {
        "date": "2023-06-14",
        "priceEur": 497000,
        "typeLocal": "Maison",
        "surfaceM2": 110,
        "isVefa": false
      }
    ]
  },
  "d0442adf63cf": {
    "id": "d0442adf63cf",
    "label": "260 RUE DU ROMARIN, Villetelle",
    "lat": 43.724144,
    "lng": 4.130993,
    "transactions": [
      {
        "date": "2023-11-16",
        "priceEur": 351125,
        "typeLocal": "Maison",
        "surfaceM2": 96,
        "isVefa": false
      }
    ]
  },
  "d2810eb0de7c": {
    "id": "d2810eb0de7c",
    "label": "620 CHEMIN DE MONTPELLIER, Villetelle",
    "lat": 43.7285,
    "lng": 4.135616,
    "transactions": [
      {
        "date": "2023-12-28",
        "priceEur": 100000,
        "typeLocal": "Maison",
        "surfaceM2": 49,
        "isVefa": false
      },
      {
        "date": "2023-12-28",
        "priceEur": 100000,
        "typeLocal": "Maison",
        "surfaceM2": 386,
        "isVefa": false
      }
    ]
  },
  "09aaa7ed624a": {
    "id": "09aaa7ed624a",
    "label": "1089 CHEMIN DE MONTPELLIER, Villetelle",
    "lat": 43.724931,
    "lng": 4.133074,
    "transactions": [
      {
        "date": "2024-05-30",
        "priceEur": 514000,
        "typeLocal": "Maison",
        "surfaceM2": 135,
        "isVefa": false
      },
      {
        "date": "2024-05-30",
        "priceEur": 514000,
        "typeLocal": "Maison",
        "surfaceM2": 135,
        "isVefa": false
      }
    ]
  },
  "ce4b820ee6af": {
    "id": "ce4b820ee6af",
    "label": "93 RUE DES SALADELLES, Villetelle",
    "lat": 43.729779,
    "lng": 4.13936,
    "transactions": [
      {
        "date": "2024-09-20",
        "priceEur": 584950,
        "typeLocal": "Maison",
        "surfaceM2": 145,
        "isVefa": false
      }
    ]
  },
  "745782a75f25": {
    "id": "745782a75f25",
    "label": "1193 CHEMIN DE MONTPELLIER, Villetelle",
    "lat": 43.724164,
    "lng": 4.132468,
    "transactions": [
      {
        "date": "2024-11-18",
        "priceEur": 347060,
        "typeLocal": "Maison",
        "surfaceM2": 82,
        "isVefa": false
      },
      {
        "date": "2024-11-18",
        "priceEur": 347060,
        "typeLocal": "Maison",
        "surfaceM2": 82,
        "isVefa": false
      }
    ]
  },
  "91bfeeb548fc": {
    "id": "91bfeeb548fc",
    "label": "141 CHE DE MONTPELLIER, Villetelle",
    "lat": 43.731297,
    "lng": 4.139073,
    "transactions": [
      {
        "date": "2024-11-29",
        "priceEur": 460000,
        "typeLocal": "Maison",
        "surfaceM2": 118,
        "isVefa": false
      }
    ]
  },
  "2cb63895d476": {
    "id": "2cb63895d476",
    "label": "120 RUE DES GRENADIERS, Villetelle",
    "lat": 43.730963,
    "lng": 4.139689,
    "transactions": [
      {
        "date": "2025-03-26",
        "priceEur": 459200,
        "typeLocal": "Maison",
        "surfaceM2": 119,
        "isVefa": false
      }
    ]
  }
}