{
  "6e349851232a": {
    "id": "6e349851232a",
    "label": "102 RES JULIEN BREBANT, Gravelines",
    "lat": 50.990236,
    "lng": 2.143483,
    "transactions": [
      {
        "date": "2020-09-04",
        "priceEur": 312000,
        "typeLocal": "Maison",
        "surfaceM2": 129,
        "isVefa": false
      }
    ]
  },
  "539041f81618": {
    "id": "539041f81618",
    "label": "30A RUE CHARLES LEURETTE, Gravelines",
    "lat": 50.990918,
    "lng": 2.142702,
    "transactions": [
      {
        "date": "2021-01-28",
        "priceEur": 194000,
        "typeLocal": "Maison",
        "surfaceM2": 87,
        "isVefa": false
      }
    ]
  },
  "05cf3bebfee5": {
    "id": "05cf3bebfee5",
    "label": "9 RUE BEAUMARCHAIS, Gravelines",
    "lat": 50.991656,
    "lng": 2.142444,
    "transactions": [
      {
        "date": "2021-10-29",
        "priceEur": 208560,
        "typeLocal": "Maison",
        "surfaceM2": 106,
        "isVefa": false
      }
    ]
  },
  "749be8e62f5b": {
    "id": "749be8e62f5b",
    "label": "25 RUE GUSTAVE FLAUBERT, Gravelines",
    "lat": 50.988122,
    "lng": 2.143359,
    "transactions": [
      {
        "date": "2021-11-26",
        "priceEur": 168000,
        "typeLocal": "Maison",
        "surfaceM2": 90,
        "isVefa": false
      }
    ]
  },
  "f0f2c753364e": {
    "id": "f0f2c753364e",
    "label": "14 RUE THEOPHILE GAUTIER, Gravelines",
    "lat": 50.991801,
    "lng": 2.143708,
    "transactions": [
      {
        "date": "2022-04-13",
        "priceEur": 170000,
        "typeLocal": "Maison",
        "surfaceM2": 93,
        "isVefa": false
      }
    ]
  },
  "b6d587d92d3f": {
    "id": "b6d587d92d3f",
    "label": "34 RES ALPHONSE DAUDET, Gravelines",
    "lat": 50.987239,
    "lng": 2.144954,
    "transactions": [
      {
        "date": "2022-12-30",
        "priceEur": 130000,
        "typeLocal": "Maison",
        "surfaceM2": 79,
        "isVefa": false
      },
      {
        "date": "2022-12-30",
        "priceEur": 130000,
        "typeLocal": "Maison",
        "surfaceM2": 95,
        "isVefa": false
      }
    ]
  },
  "61f0799710d6": {
    "id": "61f0799710d6",
    "label": "28 RUE GUSTAVE FLAUBERT, Gravelines",
    "lat": 50.987692,
    "lng": 2.143323,
    "transactions": [
      {
        "date": "2023-04-14",
        "priceEur": 192000,
        "typeLocal": "Maison",
        "surfaceM2": 111,
        "isVefa": false
      }
    ]
  },
  "38a738df9e80": {
    "id": "38a738df9e80",
    "label": "29 RUE GUSTAVE FLAUBERT, Gravelines",
    "lat": 50.987997,
    "lng": 2.143721,
    "transactions": [
      {
        "date": "2023-09-20",
        "priceEur": 180650,
        "typeLocal": "Maison",
        "surfaceM2": 90,
        "isVefa": false
      }
    ]
  },
  "237ba5a438ce": {
    "id": "237ba5a438ce",
    "label": "12B RUE DU MOULIN, Gravelines",
    "lat": 50.986884,
    "lng": 2.144143,
    "transactions": [
      {
        "date": "2024-06-19",
        "priceEur": 170000,
        "typeLocal": "Maison",
        "surfaceM2": 107,
        "isVefa": false
      }
    ]
  },
  "4e54bcf7cb04": {
    "id": "4e54bcf7cb04",
    "label": "13 RES ALPHONSE DAUDET, Gravelines",
    "lat": 50.98785,
    "lng": 2.14424,
    "transactions": [
      {
        "date": "2024-06-19",
        "priceEur": 108000,
        "typeLocal": "Maison",
        "surfaceM2": 95,
        "isVefa": false
      }
    ]
  },
  "acdd599bfde7": {
    "id": "acdd599bfde7",
    "label": "42 RES ALPHONSE DAUDET, Gravelines",
    "lat": 50.987032,
    "lng": 2.144427,
    "transactions": [
      {
        "date": "2024-12-31",
        "priceEur": 90000,
        "typeLocal": "Maison",
        "surfaceM2": 79,
        "isVefa": false
      }
    ]
  },
  "17736c3cd4b4": {
    "id": "17736c3cd4b4",
    "label": "7 RUE THEOPHILE GAUTIER, Gravelines",
    "lat": 50.991534,
    "lng": 2.142975,
    "transactions": [
      {
        "date": "2025-01-03",
        "priceEur": 194750,
        "typeLocal": "Maison",
        "surfaceM2": 93,
        "isVefa": false
      }
    ]
  }
}