{
  "8cacffa2aecf": {
    "id": "8cacffa2aecf",
    "label": "20 ACH ANC CHEM DES MOULINS, Aspiran",
    "lat": 43.56641,
    "lng": 3.470827,
    "transactions": [
      {
        "date": "2020-10-07",
        "priceEur": 110150,
        "typeLocal": "Appartement",
        "surfaceM2": 83,
        "isVefa": false
      }
    ]
  },
  "dd65c77689f4": {
    "id": "dd65c77689f4",
    "label": "5B CHEMIN DES MOULINS, Aspiran",
    "lat": 43.568697,
    "lng": 3.467084,
    "transactions": [
      {
        "date": "2021-06-21",
        "priceEur": 357500,
        "typeLocal": "Maison",
        "surfaceM2": 140,
        "isVefa": false
      }
    ]
  },
  "fdec3b4304b0": {
    "id": "fdec3b4304b0",
    "label": "15 CHE DES MOULINS, Aspiran",
    "lat": 43.568293,
    "lng": 3.469635,
    "transactions": [
      {
        "date": "2022-01-25",
        "priceEur": 453400,
        "typeLocal": "Maison",
        "surfaceM2": 152,
        "isVefa": false
      },
      {
        "date": "2022-01-25",
        "priceEur": 453400,
        "typeLocal": "Maison",
        "surfaceM2": 152,
        "isVefa": false
      }
    ]
  },
  "e56aa64370bc": {
    "id": "e56aa64370bc",
    "label": "9 CHE DES MOULINS, Aspiran",
    "lat": 43.568461,
    "lng": 3.468231,
    "transactions": [
      {
        "date": "2022-02-03",
        "priceEur": 169400,
        "typeLocal": "Maison",
        "surfaceM2": 99,
        "isVefa": false
      },
      {
        "date": "2022-02-03",
        "priceEur": 169400,
        "typeLocal": "Maison",
        "surfaceM2": 99,
        "isVefa": false
      }
    ]
  },
  "89474302871e": {
    "id": "89474302871e",
    "label": "115 RUE DE LA CLAIRETTE, Aspiran",
    "lat": 43.568298,
    "lng": 3.46087,
    "transactions": [
      {
        "date": "2022-05-03",
        "priceEur": 266600,
        "typeLocal": "Maison",
        "surfaceM2": 111,
        "isVefa": false
      }
    ]
  },
  "2ecc29f8ef06": {
    "id": "2ecc29f8ef06",
    "label": "27 AV DE LA GARE, Aspiran",
    "lat": 43.569365,
    "lng": 3.462602,
    "transactions": [
      {
        "date": "2022-04-29",
        "priceEur": 175000,
        "typeLocal": "Maison",
        "surfaceM2": 90,
        "isVefa": false
      },
      {
        "date": "2022-04-29",
        "priceEur": 175000,
        "typeLocal": "Maison",
        "surfaceM2": 90,
        "isVefa": false
      }
    ]
  },
  "2c34d4d6da46": {
    "id": "2c34d4d6da46",
    "label": "19B CHE DES MOULINS, Aspiran",
    "lat": 43.567621,
    "lng": 3.470374,
    "transactions": [
      {
        "date": "2022-11-08",
        "priceEur": 150000,
        "typeLocal": "Maison",
        "surfaceM2": 60,
        "isVefa": false
      },
      {
        "date": "2022-11-08",
        "priceEur": 150000,
        "typeLocal": "Maison",
        "surfaceM2": 60,
        "isVefa": false
      }
    ]
  },
  "e86f85a117b4": {
    "id": "e86f85a117b4",
    "label": "1 CHE DES MOULINS, Aspiran",
    "lat": 43.569324,
    "lng": 3.465785,
    "transactions": [
      {
        "date": "2022-12-05",
        "priceEur": 372000,
        "typeLocal": "Appartement",
        "surfaceM2": 60,
        "isVefa": false
      }
    ]
  },
  "eaee028ce419": {
    "id": "eaee028ce419",
    "label": "22 ACH ANC CHEM DES MOULINS, Aspiran",
    "lat": 43.56641,
    "lng": 3.470827,
    "transactions": [
      {
        "date": "2023-08-14",
        "priceEur": 285000,
        "typeLocal": "Appartement",
        "surfaceM2": 100,
        "isVefa": false
      }
    ]
  },
  "f569e0657133": {
    "id": "f569e0657133",
    "label": "2 CHE DES PEYSSOUNES, Aspiran",
    "lat": 43.568497,
    "lng": 3.465935,
    "transactions": [
      {
        "date": "2023-10-02",
        "priceEur": 161500,
        "typeLocal": "Maison",
        "surfaceM2": 103,
        "isVefa": false
      }
    ]
  },
  "9cae4ca8f573": {
    "id": "9cae4ca8f573",
    "label": "112 RUE DE LA CLAIRETTE, Aspiran",
    "lat": 43.568648,
    "lng": 3.460871,
    "transactions": [
      {
        "date": "2024-01-30",
        "priceEur": 279470,
        "typeLocal": "Maison",
        "surfaceM2": 103,
        "isVefa": false
      }
    ]
  },
  "76f0bf7f2a03": {
    "id": "76f0bf7f2a03",
    "label": "8T CHE DES PEYSSOUNES, Aspiran",
    "lat": 43.566519,
    "lng": 3.466841,
    "transactions": [
      {
        "date": "2025-03-27",
        "priceEur": 315750,
        "typeLocal": "Maison",
        "surfaceM2": 90,
        "isVefa": false
      }
    ]
  }
}