{
  "cc804ade5033": {
    "id": "cc804ade5033",
    "label": "9 IMP RONSARD, Agde",
    "lat": 43.308369,
    "lng": 3.467409,
    "transactions": [
      {
        "date": "2020-07-30",
        "priceEur": 147025,
        "typeLocal": "Maison",
        "surfaceM2": 61,
        "isVefa": false
      }
    ]
  },
  "89db4051bd3b": {
    "id": "89db4051bd3b",
    "label": "7 BD DU SAINT CHRIST, Agde",
    "lat": 43.30345,
    "lng": 3.4657,
    "transactions": [
      {
        "date": "2020-07-09",
        "priceEur": 281000,
        "typeLocal": "Maison",
        "surfaceM2": 110,
        "isVefa": false
      }
    ]
  },
  "2ee9e7fa40e5": {
    "id": "2ee9e7fa40e5",
    "label": "77 RUE SADI CARNOT, Agde",
    "lat": 43.305979,
    "lng": 3.469862,
    "transactions": [
      {
        "date": "2023-08-25",
        "priceEur": 144400,
        "typeLocal": "Appartement",
        "surfaceM2": 61,
        "isVefa": false
      },
      {
        "date": "2023-07-28",
        "priceEur": 108000,
        "typeLocal": "Appartement",
        "surfaceM2": 69,
        "isVefa": false
      },
      {
        "date": "2023-01-12",
        "priceEur": 144400,
        "typeLocal": "Appartement",
        "surfaceM2": 61,
        "isVefa": false
      },
      {
        "date": "2022-12-23",
        "priceEur": 150000,
        "typeLocal": "Appartement",
        "surfaceM2": 69,
        "isVefa": false
      },
      {
        "date": "2020-07-31",
        "priceEur": 120000,
        "typeLocal": "Appartement",
        "surfaceM2": 61,
        "isVefa": false
      }
    ]
  },
  "c22fd3a2ffc4": {
    "id": "c22fd3a2ffc4",
    "label": "3 RUE FONTAINE DE NOUGUIER, Agde",
    "lat": 43.305236,
    "lng": 3.467962,
    "transactions": [
      {
        "date": "2022-07-29",
        "priceEur": 196000,
        "typeLocal": "Appartement",
        "surfaceM2": 77,
        "isVefa": false
      },
      {
        "date": "2021-11-22",
        "priceEur": 224600,
        "typeLocal": "Appartement",
        "surfaceM2": 77,
        "isVefa": false
      },
      {
        "date": "2021-09-20",
        "priceEur": 98600,
        "typeLocal": "Appartement",
        "surfaceM2": 36,
        "isVefa": false
      },
      {
        "date": "2020-08-13",
        "priceEur": 166500,
        "typeLocal": "Appartement",
        "surfaceM2": 77,
        "isVefa": false
      }
    ]
  },
  "7c7dc1d500d9": {
    "id": "7c7dc1d500d9",
    "label": "5 IMP DU BON COIN, Agde",
    "lat": 43.305045,
    "lng": 3.46772,
    "transactions": [
      {
        "date": "2023-08-28",
        "priceEur": 335200,
        "typeLocal": "Maison",
        "surfaceM2": 89,
        "isVefa": false
      },
      {
        "date": "2020-08-17",
        "priceEur": 180000,
        "typeLocal": "Maison",
        "surfaceM2": 89,
        "isVefa": false
      }
    ]
  },
  "037990ddab2e": {
    "id": "037990ddab2e",
    "label": "3B RUE DU GRENAT, Agde",
    "lat": 43.301917,
    "lng": 3.470897,
    "transactions": [
      {
        "date": "2020-08-10",
        "priceEur": 243500,
        "typeLocal": "Maison",
        "surfaceM2": 88,
        "isVefa": false
      }
    ]
  },
  "a18eb44de79c": {
    "id": "a18eb44de79c",
    "label": "5 IMP DU PRADO, Agde",
    "lat": 43.306465,
    "lng": 3.465773,
    "transactions": [
      {
        "date": "2020-09-03",
        "priceEur": 307000,
        "typeLocal": "Maison",
        "surfaceM2": 89,
        "isVefa": false
      }
    ]
  },
  "14b530863027": {
    "id": "14b530863027",
    "label": "28 RUE LUCIEN PETIT, Agde",
    "lat": 43.303926,
    "lng": 3.469534,
    "transactions": [
      {
        "date": "2020-09-11",
        "priceEur": 60000,
        "typeLocal": "Maison",
        "surfaceM2": 80,
        "isVefa": false
      }
    ]
  },
  "d90ca2308dcf": {
    "id": "d90ca2308dcf",
    "label": "10 BD DES LUCIOLES, Agde",
    "lat": 43.301308,
    "lng": 3.469028,
    "transactions": [
      {
        "date": "2020-09-14",
        "priceEur": 280000,
        "typeLocal": "Maison",
        "surfaceM2": 71,
        "isVefa": false
      }
    ]
  },
  "ca8f076c8774": {
    "id": "ca8f076c8774",
    "label": "12 RUE ANTOINE DE SAINT EXUPERY, Agde",
    "lat": 43.303177,
    "lng": 3.468794,
    "transactions": [
      {
        "date": "2020-09-07",
        "priceEur": 238000,
        "typeLocal": "Maison",
        "surfaceM2": 66,
        "isVefa": false
      }
    ]
  },
  "52de92fcc91a": {
    "id": "52de92fcc91a",
    "label": "6 RUE DE LA CAPELETTE, Agde",
    "lat": 43.301801,
    "lng": 3.465313,
    "transactions": [
      {
        "date": "2020-09-21",
        "priceEur": 328510,
        "typeLocal": "Maison",
        "surfaceM2": 130,
        "isVefa": false
      }
    ]
  },
  "fd02394e01e9": {
    "id": "fd02394e01e9",
    "label": "2 RUE ARTHUR RIMBAUD, Agde",
    "lat": 43.304824,
    "lng": 3.471304,
    "transactions": [
      {
        "date": "2021-05-27",
        "priceEur": 150000,
        "typeLocal": "Appartement",
        "surfaceM2": 80,
        "isVefa": false
      },
      {
        "date": "2020-09-16",
        "priceEur": 130500,
        "typeLocal": "Appartement",
        "surfaceM2": 44,
        "isVefa": false
      }
    ]
  },
  "b83c8d46ff52": {
    "id": "b83c8d46ff52",
    "label": "14 RUE ANTOINE DE SAINT EXUPERY, Agde",
    "lat": 43.303266,
    "lng": 3.468903,
    "transactions": [
      {
        "date": "2020-09-22",
        "priceEur": 160000,
        "typeLocal": "Maison",
        "surfaceM2": 98,
        "isVefa": false
      }
    ]
  },
  "82723345f220": {
    "id": "82723345f220",
    "label": "1 IMP DU CLAPAS, Agde",
    "lat": 43.308182,
    "lng": 3.471068,
    "transactions": [
      {
        "date": "2022-11-03",
        "priceEur": 106000,
        "typeLocal": "Appartement",
        "surfaceM2": 64,
        "isVefa": false
      },
      {
        "date": "2020-09-25",
        "priceEur": 152000,
        "typeLocal": "Appartement",
        "surfaceM2": 64,
        "isVefa": false
      }
    ]
  },
  "805659d49385": {
    "id": "805659d49385",
    "label": "39 RUE SADI CARNOT, Agde",
    "lat": 43.3091,
    "lng": 3.469211,
    "transactions": [
      {
        "date": "2023-11-28",
        "priceEur": 213750,
        "typeLocal": "Maison",
        "surfaceM2": 96,
        "isVefa": false
      },
      {
        "date": "2020-09-29",
        "priceEur": 185000,
        "typeLocal": "Maison",
        "surfaceM2": 96,
        "isVefa": false
      }
    ]
  },
  "abcf00d6c094": {
    "id": "abcf00d6c094",
    "label": "20 RUE VELASQUEZ, Agde",
    "lat": 43.306373,
    "lng": 3.467021,
    "transactions": [
      {
        "date": "2022-10-03",
        "priceEur": 247000,
        "typeLocal": "Maison",
        "surfaceM2": 78,
        "isVefa": false
      },
      {
        "date": "2020-09-08",
        "priceEur": 204970,
        "typeLocal": "Maison",
        "surfaceM2": 78,
        "isVefa": false
      }
    ]
  },
  "00c7fe1ee0e9": {
    "id": "00c7fe1ee0e9",
    "label": "2 IMP DE SICARD, Agde",
    "lat": 43.306237,
    "lng": 3.468262,
    "transactions": [
      {
        "date": "2020-10-14",
        "priceEur": 329280,
        "typeLocal": "Appartement",
        "surfaceM2": 38,
        "isVefa": false
      },
      {
        "date": "2020-10-14",
        "priceEur": 329280,
        "typeLocal": "Maison",
        "surfaceM2": 127,
        "isVefa": false
      }
    ]
  },
  "58680359fe60": {
    "id": "58680359fe60",
    "label": "62 RUE SADI CARNOT, Agde",
    "lat": 43.307961,
    "lng": 3.469255,
    "transactions": [
      {
        "date": "2023-03-31",
        "priceEur": 216850,
        "typeLocal": "Appartement",
        "surfaceM2": 51,
        "isVefa": false
      },
      {
        "date": "2020-10-20",
        "priceEur": 171000,
        "typeLocal": "Appartement",
        "surfaceM2": 55,
        "isVefa": false
      }
    ]
  },
  "b841fa9c3cf1": {
    "id": "b841fa9c3cf1",
    "label": "74 RUE SADI CARNOT, Agde",
    "lat": 43.306956,
    "lng": 3.468777,
    "transactions": [
      {
        "date": "2024-05-23",
        "priceEur": 77000,
        "typeLocal": "Appartement",
        "surfaceM2": 25,
        "isVefa": false
      },
      {
        "date": "2023-03-20",
        "priceEur": 85000,
        "typeLocal": "Appartement",
        "surfaceM2": 35,
        "isVefa": false
      },
      {
        "date": "2022-05-31",
        "priceEur": 90000,
        "typeLocal": "Appartement",
        "surfaceM2": 41,
        "isVefa": false
      },
      {
        "date": "2020-12-17",
        "priceEur": 68000,
        "typeLocal": "Appartement",
        "surfaceM2": 44,
        "isVefa": false
      }
    ]
  },
  "c4fabfebfa0c": {
    "id": "c4fabfebfa0c",
    "label": "13 RUE LEO LAGRANGE, Agde",
    "lat": 43.304279,
    "lng": 3.466761,
    "transactions": [
      {
        "date": "2020-12-23",
        "priceEur": 240000,
        "typeLocal": "Appartement",
        "surfaceM2": 150,
        "isVefa": false
      },
      {
        "date": "2020-12-23",
        "priceEur": 240000,
        "typeLocal": "Appartement",
        "surfaceM2": 60,
        "isVefa": false
      },
      {
        "date": "2020-12-23",
        "priceEur": 240000,
        "typeLocal": "Appartement",
        "surfaceM2": 50,
        "isVefa": false
      }
    ]
  },
  "68943312bfc9": {
    "id": "68943312bfc9",
    "label": "5 RUE ALCIDE VIALA, Agde",
    "lat": 43.306176,
    "lng": 3.46738,
    "transactions": [
      {
        "date": "2020-12-22",
        "priceEur": 194265,
        "typeLocal": "Maison",
        "surfaceM2": 62,
        "isVefa": false
      }
    ]
  },
  "fa1df418d623": {
    "id": "fa1df418d623",
    "label": "6 RUE JEAN JACQUES COSTE FLORET, Agde",
    "lat": 43.302175,
    "lng": 3.468152,
    "transactions": [
      {
        "date": "2020-12-18",
        "priceEur": 244800,
        "typeLocal": "Maison",
        "surfaceM2": 88,
        "isVefa": false
      }
    ]
  },
  "098e6d84913b": {
    "id": "098e6d84913b",
    "label": "58B RUE SADI CARNOT, Agde",
    "lat": 43.308534,
    "lng": 3.469075,
    "transactions": [
      {
        "date": "2024-03-13",
        "priceEur": 273000,
        "typeLocal": "Maison",
        "surfaceM2": 118,
        "isVefa": false
      },
      {
        "date": "2021-01-25",
        "priceEur": 270000,
        "typeLocal": "Maison",
        "surfaceM2": 118,
        "isVefa": false
      }
    ]
  },
  "43f4b6e07f50": {
    "id": "43f4b6e07f50",
    "label": "67 RUE SADI CARNOT, Agde",
    "lat": 43.307133,
    "lng": 3.469731,
    "transactions": [
      {
        "date": "2023-10-25",
        "priceEur": 145000,
        "typeLocal": "Appartement",
        "surfaceM2": 68,
        "isVefa": false
      },
      {
        "date": "2022-08-29",
        "priceEur": 125000,
        "typeLocal": "Appartement",
        "surfaceM2": 56,
        "isVefa": false
      },
      {
        "date": "2021-01-28",
        "priceEur": 130000,
        "typeLocal": "Appartement",
        "surfaceM2": 69,
        "isVefa": false
      }
    ]
  },
  "74bbab881a12": {
    "id": "74bbab881a12",
    "label": "9 RUE ALCIDE VIALA, Agde",
    "lat": 43.305993,
    "lng": 3.467335,
    "transactions": [
      {
        "date": "2021-02-02",
        "priceEur": 199900,
        "typeLocal": "Maison",
        "surfaceM2": 80,
        "isVefa": false
      }
    ]
  },
  "6f183d53adef": {
    "id": "6f183d53adef",
    "label": "2 RUE DU ROCHER, Agde",
    "lat": 43.30865,
    "lng": 3.471405,
    "transactions": [
      {
        "date": "2024-06-04",
        "priceEur": 114000,
        "typeLocal": "Appartement",
        "surfaceM2": 44,
        "isVefa": false
      },
      {
        "date": "2021-02-15",
        "priceEur": 110000,
        "typeLocal": "Appartement",
        "surfaceM2": 69,
        "isVefa": false
      }
    ]
  },
  "28ca6d96a910": {
    "id": "28ca6d96a910",
    "label": "6 RUE VELASQUEZ, Agde",
    "lat": 43.30587,
    "lng": 3.46677,
    "transactions": [
      {
        "date": "2021-02-04",
        "priceEur": 130000,
        "typeLocal": "Maison",
        "surfaceM2": 62,
        "isVefa": false
      }
    ]
  },
  "e9aaa796168b": {
    "id": "e9aaa796168b",
    "label": "5 RUE VELASQUEZ, Agde",
    "lat": 43.306123,
    "lng": 3.466452,
    "transactions": [
      {
        "date": "2021-02-25",
        "priceEur": 245500,
        "typeLocal": "Maison",
        "surfaceM2": 88,
        "isVefa": false
      }
    ]
  },
  "62b537fc2aab": {
    "id": "62b537fc2aab",
    "label": "27 RUE LEO LAGRANGE, Agde",
    "lat": 43.303519,
    "lng": 3.466508,
    "transactions": [
      {
        "date": "2021-03-05",
        "priceEur": 180000,
        "typeLocal": "Appartement",
        "surfaceM2": 95,
        "isVefa": false
      },
      {
        "date": "2021-03-05",
        "priceEur": 180000,
        "typeLocal": "Appartement",
        "surfaceM2": 40,
        "isVefa": false
      }
    ]
  },
  "b269aa3d9673": {
    "id": "b269aa3d9673",
    "label": "6 IMP DU BON COIN, Agde",
    "lat": 43.304957,
    "lng": 3.468054,
    "transactions": [
      {
        "date": "2021-03-12",
        "priceEur": 266450,
        "typeLocal": "Maison",
        "surfaceM2": 89,
        "isVefa": false
      }
    ]
  },
  "dbfd8c98060d": {
    "id": "dbfd8c98060d",
    "label": "6 IMP CLEMENT MAROT, Agde",
    "lat": 43.307767,
    "lng": 3.468025,
    "transactions": [
      {
        "date": "2021-02-25",
        "priceEur": 205000,
        "typeLocal": "Maison",
        "surfaceM2": 74,
        "isVefa": false
      }
    ]
  },
  "430d8093dcc1": {
    "id": "430d8093dcc1",
    "label": "50 RUE SADI CARNOT, Agde",
    "lat": 43.308923,
    "lng": 3.468334,
    "transactions": [
      {
        "date": "2021-03-24",
        "priceEur": 270000,
        "typeLocal": "Maison",
        "surfaceM2": 95,
        "isVefa": true
      }
    ]
  },
  "d3c3600bd9cf": {
    "id": "d3c3600bd9cf",
    "label": "5 RUE ANTOINE DE SAINT EXUPERY, Agde",
    "lat": 43.303405,
    "lng": 3.468487,
    "transactions": [
      {
        "date": "2021-03-30",
        "priceEur": 215000,
        "typeLocal": "Maison",
        "surfaceM2": 95,
        "isVefa": false
      }
    ]
  },
  "30e74a22587c": {
    "id": "30e74a22587c",
    "label": "29 RUE JEAN JACQUES COSTE FLORET, Agde",
    "lat": 43.3013,
    "lng": 3.468906,
    "transactions": [
      {
        "date": "2021-11-16",
        "priceEur": 243000,
        "typeLocal": "Maison",
        "surfaceM2": 70,
        "isVefa": false
      },
      {
        "date": "2021-03-24",
        "priceEur": 145700,
        "typeLocal": "Maison",
        "surfaceM2": 70,
        "isVefa": false
      }
    ]
  },
  "d6b9b1215035": {
    "id": "d6b9b1215035",
    "label": "3 IMP DES DAUPHINS, Agde",
    "lat": 43.304366,
    "lng": 3.467887,
    "transactions": [
      {
        "date": "2021-04-22",
        "priceEur": 218690,
        "typeLocal": "Maison",
        "surfaceM2": 67,
        "isVefa": false
      }
    ]
  },
  "e1e37678b8ed": {
    "id": "e1e37678b8ed",
    "label": "17 RUE DES AVELINES, Agde",
    "lat": 43.306943,
    "lng": 3.470882,
    "transactions": [
      {
        "date": "2021-04-28",
        "priceEur": 210000,
        "typeLocal": "Maison",
        "surfaceM2": 157,
        "isVefa": false
      }
    ]
  },
  "53d756d341d6": {
    "id": "53d756d341d6",
    "label": "19 RUE AUGUSTE BAUSSAN, Agde",
    "lat": 43.302064,
    "lng": 3.46601,
    "transactions": [
      {
        "date": "2021-06-02",
        "priceEur": 315000,
        "typeLocal": "Maison",
        "surfaceM2": 148,
        "isVefa": false
      }
    ]
  },
  "4ed9b2a702f1": {
    "id": "4ed9b2a702f1",
    "label": "26 RUE LUCIEN PETIT, Agde",
    "lat": 43.304003,
    "lng": 3.469563,
    "transactions": [
      {
        "date": "2021-07-12",
        "priceEur": 200000,
        "typeLocal": "Maison",
        "surfaceM2": 68,
        "isVefa": false
      }
    ]
  },
  "e5eb5057b8ad": {
    "id": "e5eb5057b8ad",
    "label": "8 IMP STEPHANE MALLARME, Agde",
    "lat": 43.305392,
    "lng": 3.470121,
    "transactions": [
      {
        "date": "2021-07-28",
        "priceEur": 289000,
        "typeLocal": "Maison",
        "surfaceM2": 90,
        "isVefa": false
      }
    ]
  },
  "89128db7ce8c": {
    "id": "89128db7ce8c",
    "label": "25 RUE LEO LAGRANGE, Agde",
    "lat": 43.303516,
    "lng": 3.466713,
    "transactions": [
      {
        "date": "2022-11-29",
        "priceEur": 385200,
        "typeLocal": "Maison",
        "surfaceM2": 119,
        "isVefa": false
      },
      {
        "date": "2021-07-30",
        "priceEur": 320000,
        "typeLocal": "Maison",
        "surfaceM2": 119,
        "isVefa": false
      }
    ]
  },
  "cb0d56282157": {
    "id": "cb0d56282157",
    "label": "13B BD GEORGES POMPIDOU, Agde",
    "lat": 43.306811,
    "lng": 3.468706,
    "transactions": [
      {
        "date": "2021-10-28",
        "priceEur": 160000,
        "typeLocal": "Appartement",
        "surfaceM2": 66,
        "isVefa": false
      },
      {
        "date": "2021-10-28",
        "priceEur": 160000,
        "typeLocal": "Appartement",
        "surfaceM2": 30,
        "isVefa": false
      },
      {
        "date": "2021-07-30",
        "priceEur": 58700,
        "typeLocal": "Appartement",
        "surfaceM2": 31,
        "isVefa": false
      }
    ]
  },
  "3a6906d83204": {
    "id": "3a6906d83204",
    "label": "7 IMP DU PRADO, Agde",
    "lat": 43.30672,
    "lng": 3.465662,
    "transactions": [
      {
        "date": "2025-03-25",
        "priceEur": 89500,
        "typeLocal": "Appartement",
        "surfaceM2": 36,
        "isVefa": false
      },
      {
        "date": "2025-03-21",
        "priceEur": 116900,
        "typeLocal": "Appartement",
        "surfaceM2": 30,
        "isVefa": false
      },
      {
        "date": "2024-10-14",
        "priceEur": 120000,
        "typeLocal": "Appartement",
        "surfaceM2": 34,
        "isVefa": false
      },
      {
        "date": "2021-08-26",
        "priceEur": 96610,
        "typeLocal": "Appartement",
        "surfaceM2": 30,
        "isVefa": false
      }
    ]
  },
  "0d9f5f559f6d": {
    "id": "0d9f5f559f6d",
    "label": "2 RUE LEO LAGRANGE, Agde",
    "lat": 43.30484,
    "lng": 3.466053,
    "transactions": [
      {
        "date": "2025-03-28",
        "priceEur": 196370,
        "typeLocal": "Appartement",
        "surfaceM2": 72,
        "isVefa": false
      },
      {
        "date": "2021-09-02",
        "priceEur": 171750,
        "typeLocal": "Appartement",
        "surfaceM2": 74,
        "isVefa": false
      }
    ]
  },
  "d0bdc3224f66": {
    "id": "d0bdc3224f66",
    "label": "9007 LA CADENE, Agde",
    "lat": 43.302142,
    "lng": 3.461534,
    "transactions": [
      {
        "date": "2021-09-20",
        "priceEur": 75000,
        "typeLocal": "Maison",
        "surfaceM2": 30,
        "isVefa": false
      },
      {
        "date": "2021-09-20",
        "priceEur": 75000,
        "typeLocal": "Maison",
        "surfaceM2": 92,
        "isVefa": false
      }
    ]
  },
  "2aacb9be3642": {
    "id": "2aacb9be3642",
    "label": "54 RUE DANTON, Agde",
    "lat": 43.308415,
    "lng": 3.466265,
    "transactions": [
      {
        "date": "2021-09-27",
        "priceEur": 271850,
        "typeLocal": "Maison",
        "surfaceM2": 85,
        "isVefa": false
      }
    ]
  },
  "fcbe9745e4ef": {
    "id": "fcbe9745e4ef",
    "label": "26 RUE DE LA PRUNETTE, Agde",
    "lat": 43.303087,
    "lng": 3.467602,
    "transactions": [
      {
        "date": "2021-09-30",
        "priceEur": 222000,
        "typeLocal": "Maison",
        "surfaceM2": 80,
        "isVefa": false
      }
    ]
  },
  "e2f7be06e27a": {
    "id": "e2f7be06e27a",
    "label": "19 RUE LEO LAGRANGE, Agde",
    "lat": 43.303836,
    "lng": 3.46652,
    "transactions": [
      {
        "date": "2021-09-29",
        "priceEur": 245000,
        "typeLocal": "Maison",
        "surfaceM2": 121,
        "isVefa": false
      }
    ]
  },
  "3e648bd4fc18": {
    "id": "3e648bd4fc18",
    "label": "9 RUE LUCIEN PETIT, Agde",
    "lat": 43.305206,
    "lng": 3.469963,
    "transactions": [
      {
        "date": "2021-10-05",
        "priceEur": 325000,
        "typeLocal": "Maison",
        "surfaceM2": 130,
        "isVefa": false
      }
    ]
  },
  "23fd0941021c": {
    "id": "23fd0941021c",
    "label": "3 IMP DU BON COIN, Agde",
    "lat": 43.304891,
    "lng": 3.467683,
    "transactions": [
      {
        "date": "2021-11-02",
        "priceEur": 139000,
        "typeLocal": "Maison",
        "surfaceM2": 90,
        "isVefa": false
      }
    ]
  },
  "7cff6cd34df8": {
    "id": "7cff6cd34df8",
    "label": "3 RUE FRANCOIS VILLON, Agde",
    "lat": 43.308196,
    "lng": 3.467025,
    "transactions": [
      {
        "date": "2021-10-22",
        "priceEur": 334500,
        "typeLocal": "Maison",
        "surfaceM2": 79,
        "isVefa": false
      }
    ]
  },
  "58b135ac6b80": {
    "id": "58b135ac6b80",
    "label": "15 BD GEORGES POMPIDOU, Agde",
    "lat": 43.306945,
    "lng": 3.469928,
    "transactions": [
      {
        "date": "2022-08-11",
        "priceEur": 90500,
        "typeLocal": "Appartement",
        "surfaceM2": 64,
        "isVefa": false
      },
      {
        "date": "2022-03-22",
        "priceEur": 95000,
        "typeLocal": "Appartement",
        "surfaceM2": 64,
        "isVefa": false
      },
      {
        "date": "2021-11-17",
        "priceEur": 121340,
        "typeLocal": "Appartement",
        "surfaceM2": 64,
        "isVefa": false
      }
    ]
  },
  "e938fe10d3ad": {
    "id": "e938fe10d3ad",
    "label": "4 RUE ARTHUR RIMBAUD, Agde",
    "lat": 43.304824,
    "lng": 3.471304,
    "transactions": [
      {
        "date": "2025-05-15",
        "priceEur": 91650,
        "typeLocal": "Appartement",
        "surfaceM2": 30,
        "isVefa": false
      },
      {
        "date": "2025-04-28",
        "priceEur": 252490,
        "typeLocal": "Appartement",
        "surfaceM2": 81,
        "isVefa": false
      },
      {
        "date": "2025-03-11",
        "priceEur": 77000,
        "typeLocal": "Appartement",
        "surfaceM2": 30,
        "isVefa": false
      },
      {
        "date": "2024-08-30",
        "priceEur": 76500,
        "typeLocal": "Appartement",
        "surfaceM2": 30,
        "isVefa": false
      },
      {
        "date": "2024-07-04",
        "priceEur": 72000,
        "typeLocal": "Appartement",
        "surfaceM2": 30,
        "isVefa": false
      },
      {
        "date": "2022-11-03",
        "priceEur": 145050,
        "typeLocal": "Appartement",
        "surfaceM2": 46,
        "isVefa": false
      },
      {
        "date": "2022-01-10",
        "priceEur": 86960,
        "typeLocal": "Appartement",
        "surfaceM2": 46,
        "isVefa": false
      },
      {
        "date": "2021-11-16",
        "priceEur": 180000,
        "typeLocal": "Appartement",
        "surfaceM2": 81,
        "isVefa": false
      },
      {
        "date": "2021-11-02",
        "priceEur": 92000,
        "typeLocal": "Appartement",
        "surfaceM2": 35,
        "isVefa": false
      }
    ]
  },
  "b26145134398": {
    "id": "b26145134398",
    "label": "17 RUE JEAN NOHAIN, Agde",
    "lat": 43.307534,
    "lng": 3.467955,
    "transactions": [
      {
        "date": "2023-11-24",
        "priceEur": 281000,
        "typeLocal": "Maison",
        "surfaceM2": 88,
        "isVefa": false
      },
      {
        "date": "2021-11-22",
        "priceEur": 126000,
        "typeLocal": "Maison",
        "surfaceM2": 88,
        "isVefa": false
      }
    ]
  },
  "fa2907be0072": {
    "id": "fa2907be0072",
    "label": "6 BD GEORGES POMPIDOU, Agde",
    "lat": 43.306393,
    "lng": 3.469292,
    "transactions": [
      {
        "date": "2021-12-02",
        "priceEur": 267900,
        "typeLocal": "Maison",
        "surfaceM2": 80,
        "isVefa": false
      }
    ]
  },
  "542cdd11f3b1": {
    "id": "542cdd11f3b1",
    "label": "14 RUE GEORGES GUYNEMER, Agde",
    "lat": 43.303667,
    "lng": 3.469548,
    "transactions": [
      {
        "date": "2021-12-22",
        "priceEur": 270000,
        "typeLocal": "Maison",
        "surfaceM2": 82,
        "isVefa": false
      }
    ]
  },
  "7e672c366da6": {
    "id": "7e672c366da6",
    "label": "18 RUE JEAN JACQUES COSTE FLORET, Agde",
    "lat": 43.301547,
    "lng": 3.468238,
    "transactions": [
      {
        "date": "2023-04-03",
        "priceEur": 304900,
        "typeLocal": "Maison",
        "surfaceM2": 71,
        "isVefa": false
      },
      {
        "date": "2021-12-29",
        "priceEur": 213000,
        "typeLocal": "Maison",
        "surfaceM2": 71,
        "isVefa": false
      }
    ]
  },
  "86fed92d0131": {
    "id": "86fed92d0131",
    "label": "16 BD GEORGES POMPIDOU, Agde",
    "lat": 43.306434,
    "lng": 3.470161,
    "transactions": [
      {
        "date": "2021-12-23",
        "priceEur": 290000,
        "typeLocal": "Maison",
        "surfaceM2": 79,
        "isVefa": false
      }
    ]
  },
  "f51f038ea59b": {
    "id": "f51f038ea59b",
    "label": "4 BD GEORGES POMPIDOU, Agde",
    "lat": 43.306351,
    "lng": 3.468026,
    "transactions": [
      {
        "date": "2021-12-28",
        "priceEur": 364000,
        "typeLocal": "Maison",
        "surfaceM2": 32,
        "isVefa": false
      }
    ]
  },
  "25057ffd8ce7": {
    "id": "25057ffd8ce7",
    "label": "40 RUE LUCIEN PETIT, Agde",
    "lat": 43.301553,
    "lng": 3.469962,
    "transactions": [
      {
        "date": "2025-03-04",
        "priceEur": 396500,
        "typeLocal": "Appartement",
        "surfaceM2": 27,
        "isVefa": false
      },
      {
        "date": "2025-03-04",
        "priceEur": 396500,
        "typeLocal": "Maison",
        "surfaceM2": 78,
        "isVefa": false
      },
      {
        "date": "2022-01-14",
        "priceEur": 382100,
        "typeLocal": "Maison",
        "surfaceM2": 78,
        "isVefa": false
      },
      {
        "date": "2022-01-14",
        "priceEur": 382100,
        "typeLocal": "Appartement",
        "surfaceM2": 27,
        "isVefa": false
      }
    ]
  },
  "69872ff0e983": {
    "id": "69872ff0e983",
    "label": "11 IMP RONSARD, Agde",
    "lat": 43.308413,
    "lng": 3.467295,
    "transactions": [
      {
        "date": "2022-01-20",
        "priceEur": 268000,
        "typeLocal": "Maison",
        "surfaceM2": 78,
        "isVefa": false
      }
    ]
  },
  "17d5b21d5ebd": {
    "id": "17d5b21d5ebd",
    "label": "15 RUE DES ESCAIS, Agde",
    "lat": 43.304613,
    "lng": 3.470923,
    "transactions": [
      {
        "date": "2022-03-03",
        "priceEur": 250000,
        "typeLocal": "Maison",
        "surfaceM2": 73,
        "isVefa": false
      }
    ]
  },
  "f542e030394d": {
    "id": "f542e030394d",
    "label": "20 RUE FRANCOIS VILLON, Agde",
    "lat": 43.307915,
    "lng": 3.467595,
    "transactions": [
      {
        "date": "2022-03-28",
        "priceEur": 220400,
        "typeLocal": "Maison",
        "surfaceM2": 64,
        "isVefa": false
      }
    ]
  },
  "dedd3681ed4a": {
    "id": "dedd3681ed4a",
    "label": "35 RUE DANTON, Agde",
    "lat": 43.308889,
    "lng": 3.467289,
    "transactions": [
      {
        "date": "2024-10-28",
        "priceEur": 143000,
        "typeLocal": "Appartement",
        "surfaceM2": 86,
        "isVefa": false
      },
      {
        "date": "2022-03-14",
        "priceEur": 165000,
        "typeLocal": "Appartement",
        "surfaceM2": 86,
        "isVefa": false
      }
    ]
  },
  "8799e694a998": {
    "id": "8799e694a998",
    "label": "6 RUE LOUIS REBOUL, Agde",
    "lat": 43.301593,
    "lng": 3.468848,
    "transactions": [
      {
        "date": "2022-05-09",
        "priceEur": 289000,
        "typeLocal": "Maison",
        "surfaceM2": 89,
        "isVefa": false
      }
    ]
  },
  "84a4e42b36ed": {
    "id": "84a4e42b36ed",
    "label": "18 RUE LEO LAGRANGE, Agde",
    "lat": 43.303724,
    "lng": 3.466008,
    "transactions": [
      {
        "date": "2022-05-25",
        "priceEur": 430000,
        "typeLocal": "Maison",
        "surfaceM2": 125,
        "isVefa": false
      }
    ]
  },
  "89e6e33a0afe": {
    "id": "89e6e33a0afe",
    "label": "16 RUE FRANCOIS VILLON, Agde",
    "lat": 43.307897,
    "lng": 3.467446,
    "transactions": [
      {
        "date": "2022-06-16",
        "priceEur": 125000,
        "typeLocal": "Appartement",
        "surfaceM2": 76,
        "isVefa": false
      }
    ]
  },
  "95f5d17616a2": {
    "id": "95f5d17616a2",
    "label": "5 RUE DES GRILLONS, Agde",
    "lat": 43.302595,
    "lng": 3.466814,
    "transactions": [
      {
        "date": "2022-06-09",
        "priceEur": 280000,
        "typeLocal": "Maison",
        "surfaceM2": 134,
        "isVefa": false
      }
    ]
  },
  "7e5b1c34579b": {
    "id": "7e5b1c34579b",
    "label": "29 RUE LUCIEN PETIT, Agde",
    "lat": 43.301834,
    "lng": 3.470607,
    "transactions": [
      {
        "date": "2022-06-17",
        "priceEur": 605000,
        "typeLocal": "Maison",
        "surfaceM2": 168,
        "isVefa": false
      }
    ]
  },
  "7e3c449c7289": {
    "id": "7e3c449c7289",
    "label": "19 RUE DES ROSACEES, Agde",
    "lat": 43.305787,
    "lng": 3.469322,
    "transactions": [
      {
        "date": "2022-06-22",
        "priceEur": 248420,
        "typeLocal": "Maison",
        "surfaceM2": 56,
        "isVefa": false
      }
    ]
  },
  "d2ab2cb3fd0a": {
    "id": "d2ab2cb3fd0a",
    "label": "12 RUE DES ROSACEES, Agde",
    "lat": 43.306008,
    "lng": 3.470193,
    "transactions": [
      {
        "date": "2022-06-22",
        "priceEur": 268137,
        "typeLocal": "Maison",
        "surfaceM2": 74,
        "isVefa": false
      }
    ]
  },
  "a35ea6deb06e": {
    "id": "a35ea6deb06e",
    "label": "12 RUE PAUL VERLAINE, Agde",
    "lat": 43.305073,
    "lng": 3.470983,
    "transactions": [
      {
        "date": "2022-07-07",
        "priceEur": 232500,
        "typeLocal": "Maison",
        "surfaceM2": 106,
        "isVefa": false
      }
    ]
  },
  "c4473a9cb5da": {
    "id": "c4473a9cb5da",
    "label": "3 RUE JEAN JACQUES COSTE FLORET, Agde",
    "lat": 43.302789,
    "lng": 3.468295,
    "transactions": [
      {
        "date": "2022-07-08",
        "priceEur": 216300,
        "typeLocal": "Maison",
        "surfaceM2": 71,
        "isVefa": false
      }
    ]
  },
  "670b23724cfa": {
    "id": "670b23724cfa",
    "label": "3 RUE JEAN NOHAIN, Agde",
    "lat": 43.307813,
    "lng": 3.466521,
    "transactions": [
      {
        "date": "2022-07-11",
        "priceEur": 398181.53,
        "typeLocal": "Maison",
        "surfaceM2": 144,
        "isVefa": false
      }
    ]
  },
  "704748c7bf0d": {
    "id": "704748c7bf0d",
    "label": "8 RUE DE LA PRUNETTE, Agde",
    "lat": 43.305075,
    "lng": 3.468442,
    "transactions": [
      {
        "date": "2022-07-26",
        "priceEur": 410000,
        "typeLocal": "Maison",
        "surfaceM2": 113,
        "isVefa": false
      }
    ]
  },
  "3f51319edb58": {
    "id": "3f51319edb58",
    "label": "10 RUE DE LA CARRIERE, Agde",
    "lat": 43.301725,
    "lng": 3.467312,
    "transactions": [
      {
        "date": "2022-08-17",
        "priceEur": 330000,
        "typeLocal": "Maison",
        "surfaceM2": 118,
        "isVefa": false
      }
    ]
  },
  "fe5c66ce1656": {
    "id": "fe5c66ce1656",
    "label": "7 RUE DES GRILLONS, Agde",
    "lat": 43.302622,
    "lng": 3.466417,
    "transactions": [
      {
        "date": "2022-10-14",
        "priceEur": 531300,
        "typeLocal": "Maison",
        "surfaceM2": 116,
        "isVefa": false
      }
    ]
  },
  "169cd9f4a4e4": {
    "id": "169cd9f4a4e4",
    "label": "39 RUE DANTON, Agde",
    "lat": 43.307279,
    "lng": 3.465942,
    "transactions": [
      {
        "date": "2022-10-20",
        "priceEur": 465000,
        "typeLocal": "Maison",
        "surfaceM2": 146,
        "isVefa": false
      }
    ]
  },
  "bc7854d5cb1c": {
    "id": "bc7854d5cb1c",
    "label": "2 RUE DES AVELINES, Agde",
    "lat": 43.307684,
    "lng": 3.471205,
    "transactions": [
      {
        "date": "2022-11-14",
        "priceEur": 294415,
        "typeLocal": "Maison",
        "surfaceM2": 86,
        "isVefa": false
      }
    ]
  },
  "78f2514d45fc": {
    "id": "78f2514d45fc",
    "label": "1 IMP DES PRUNETTES, Agde",
    "lat": 43.304017,
    "lng": 3.467582,
    "transactions": [
      {
        "date": "2025-01-23",
        "priceEur": 290000,
        "typeLocal": "Maison",
        "surfaceM2": 86,
        "isVefa": false
      },
      {
        "date": "2022-11-04",
        "priceEur": 261670,
        "typeLocal": "Maison",
        "surfaceM2": 86,
        "isVefa": false
      }
    ]
  },
  "bd635664beb6": {
    "id": "bd635664beb6",
    "label": "15 RUE DE LA CARRIERE, Agde",
    "lat": 43.301794,
    "lng": 3.466748,
    "transactions": [
      {
        "date": "2022-12-13",
        "priceEur": 378000,
        "typeLocal": "Maison",
        "surfaceM2": 108,
        "isVefa": false
      }
    ]
  },
  "d3fddcd08dd3": {
    "id": "d3fddcd08dd3",
    "label": "20 RUE DE L EGALITE, Agde",
    "lat": 43.308421,
    "lng": 3.470219,
    "transactions": [
      {
        "date": "2022-12-15",
        "priceEur": 475000,
        "typeLocal": "Maison",
        "surfaceM2": 103,
        "isVefa": false
      }
    ]
  },
  "a12b8b7f4f05": {
    "id": "a12b8b7f4f05",
    "label": "18 RUE VELASQUEZ, Agde",
    "lat": 43.306296,
    "lng": 3.466987,
    "transactions": [
      {
        "date": "2023-07-11",
        "priceEur": 250000,
        "typeLocal": "Maison",
        "surfaceM2": 78,
        "isVefa": false
      },
      {
        "date": "2023-01-20",
        "priceEur": 205000,
        "typeLocal": "Maison",
        "surfaceM2": 78,
        "isVefa": false
      }
    ]
  },
  "da80d174adce": {
    "id": "da80d174adce",
    "label": "4 RUE DES ROSACEES, Agde",
    "lat": 43.306281,
    "lng": 3.470541,
    "transactions": [
      {
        "date": "2023-01-25",
        "priceEur": 380900,
        "typeLocal": "Maison",
        "surfaceM2": 96,
        "isVefa": false
      }
    ]
  },
  "fd64b2b3be40": {
    "id": "fd64b2b3be40",
    "label": "10 IMP MIREILLE, Agde",
    "lat": 43.307119,
    "lng": 3.466462,
    "transactions": [
      {
        "date": "2023-02-07",
        "priceEur": 160000,
        "typeLocal": "Maison",
        "surfaceM2": 79,
        "isVefa": false
      }
    ]
  },
  "f5ecc2df5f14": {
    "id": "f5ecc2df5f14",
    "label": "2B RUE DES AVELINES, Agde",
    "lat": 43.307608,
    "lng": 3.471214,
    "transactions": [
      {
        "date": "2023-02-14",
        "priceEur": 339300,
        "typeLocal": "Maison",
        "surfaceM2": 137,
        "isVefa": false
      }
    ]
  },
  "5ced24c5756c": {
    "id": "5ced24c5756c",
    "label": "2 BD DES LUCIOLES, Agde",
    "lat": 43.301454,
    "lng": 3.469615,
    "transactions": [
      {
        "date": "2023-04-04",
        "priceEur": 240000,
        "typeLocal": "Maison",
        "surfaceM2": 99,
        "isVefa": false
      }
    ]
  },
  "d33e431f9cc1": {
    "id": "d33e431f9cc1",
    "label": "50 RUE DANTON, Agde",
    "lat": 43.308746,
    "lng": 3.46642,
    "transactions": [
      {
        "date": "2023-03-24",
        "priceEur": 380000,
        "typeLocal": "Maison",
        "surfaceM2": 118,
        "isVefa": false
      }
    ]
  },
  "678cc4411f40": {
    "id": "678cc4411f40",
    "label": "41 RUE LOUIS VALLIERE, Agde",
    "lat": 43.301394,
    "lng": 3.470841,
    "transactions": [
      {
        "date": "2023-04-03",
        "priceEur": 160000,
        "typeLocal": "Appartement",
        "surfaceM2": 83,
        "isVefa": false
      }
    ]
  },
  "5ad98734c910": {
    "id": "5ad98734c910",
    "label": "1 IMP STEPHANE MALLARME, Agde",
    "lat": 43.305644,
    "lng": 3.469472,
    "transactions": [
      {
        "date": "2023-04-27",
        "priceEur": 332100,
        "typeLocal": "Maison",
        "surfaceM2": 90,
        "isVefa": false
      }
    ]
  },
  "40793c41dc1f": {
    "id": "40793c41dc1f",
    "label": "23 RUE LEO LAGRANGE, Agde",
    "lat": 43.303647,
    "lng": 3.466765,
    "transactions": [
      {
        "date": "2023-05-22",
        "priceEur": 235000,
        "typeLocal": "Maison",
        "surfaceM2": 123,
        "isVefa": false
      }
    ]
  },
  "06028cce0fd0": {
    "id": "06028cce0fd0",
    "label": "7 IMP DU JAPON, Agde",
    "lat": 43.307972,
    "lng": 3.470279,
    "transactions": [
      {
        "date": "2023-06-22",
        "priceEur": 286000,
        "typeLocal": "Maison",
        "surfaceM2": 156,
        "isVefa": false
      }
    ]
  },
  "83819b72d187": {
    "id": "83819b72d187",
    "label": "4 RUE PHILIPPE DAUBY, Agde",
    "lat": 43.302107,
    "lng": 3.469769,
    "transactions": [
      {
        "date": "2023-06-13",
        "priceEur": 199500,
        "typeLocal": "Maison",
        "surfaceM2": 71,
        "isVefa": false
      }
    ]
  },
  "c4cdd46b1259": {
    "id": "c4cdd46b1259",
    "label": "9 RUE ANTOINE DE SAINT EXUPERY, Agde",
    "lat": 43.303671,
    "lng": 3.468577,
    "transactions": [
      {
        "date": "2023-06-26",
        "priceEur": 217235,
        "typeLocal": "Maison",
        "surfaceM2": 100,
        "isVefa": false
      }
    ]
  },
  "1b719a9e404f": {
    "id": "1b719a9e404f",
    "label": "21 RUE FRANCOIS VILLON, Agde",
    "lat": 43.308472,
    "lng": 3.468288,
    "transactions": [
      {
        "date": "2023-09-01",
        "priceEur": 192000,
        "typeLocal": "Maison",
        "surfaceM2": 74,
        "isVefa": false
      }
    ]
  },
  "0d3e12c51b13": {
    "id": "0d3e12c51b13",
    "label": "7 IMP DU BON COIN, Agde",
    "lat": 43.305124,
    "lng": 3.467705,
    "transactions": [
      {
        "date": "2023-09-21",
        "priceEur": 262000,
        "typeLocal": "Maison",
        "surfaceM2": 90,
        "isVefa": false
      }
    ]
  },
  "3cebaabb18ff": {
    "id": "3cebaabb18ff",
    "label": "12 RUE DE LA CARRIERE, Agde",
    "lat": 43.301836,
    "lng": 3.467157,
    "transactions": [
      {
        "date": "2023-11-06",
        "priceEur": 30000,
        "typeLocal": "Appartement",
        "surfaceM2": 68,
        "isVefa": false
      },
      {
        "date": "2023-11-06",
        "priceEur": 30000,
        "typeLocal": "Appartement",
        "surfaceM2": 144,
        "isVefa": false
      }
    ]
  },
  "0752819e2124": {
    "id": "0752819e2124",
    "label": "15 RUE JEAN NOHAIN, Agde",
    "lat": 43.307599,
    "lng": 3.46772,
    "transactions": [
      {
        "date": "2023-11-22",
        "priceEur": 323000,
        "typeLocal": "Maison",
        "surfaceM2": 70,
        "isVefa": false
      }
    ]
  },
  "23d3b752a9f6": {
    "id": "23d3b752a9f6",
    "label": "11 RUE DE LA CAPELETTE, Agde",
    "lat": 43.301539,
    "lng": 3.465571,
    "transactions": [
      {
        "date": "2023-11-28",
        "priceEur": 376900,
        "typeLocal": "Maison",
        "surfaceM2": 106,
        "isVefa": false
      }
    ]
  },
  "4cc0eb246a81": {
    "id": "4cc0eb246a81",
    "label": "1 IMP DU BON COIN, Agde",
    "lat": 43.304809,
    "lng": 3.467686,
    "transactions": [
      {
        "date": "2023-12-08",
        "priceEur": 305000,
        "typeLocal": "Maison",
        "surfaceM2": 89,
        "isVefa": false
      }
    ]
  },
  "29f63037bea0": {
    "id": "29f63037bea0",
    "label": "4 RUE DES GRILLONS, Agde",
    "lat": 43.302758,
    "lng": 3.467452,
    "transactions": [
      {
        "date": "2023-11-24",
        "priceEur": 420000,
        "typeLocal": "Maison",
        "surfaceM2": 136,
        "isVefa": false
      }
    ]
  },
  "df2fe78d1ae0": {
    "id": "df2fe78d1ae0",
    "label": "9 RUE JEAN JACQUES COSTE FLORET, Agde",
    "lat": 43.302773,
    "lng": 3.46872,
    "transactions": [
      {
        "date": "2023-12-13",
        "priceEur": 228000,
        "typeLocal": "Maison",
        "surfaceM2": 71,
        "isVefa": false
      }
    ]
  },
  "ea26b21dbbde": {
    "id": "ea26b21dbbde",
    "label": "8 RUE LUCIEN PETIT, Agde",
    "lat": 43.304924,
    "lng": 3.469267,
    "transactions": [
      {
        "date": "2024-01-25",
        "priceEur": 361000,
        "typeLocal": "Maison",
        "surfaceM2": 87,
        "isVefa": false
      }
    ]
  },
  "a849fa81f945": {
    "id": "a849fa81f945",
    "label": "12 RUE DES CITES, Agde",
    "lat": 43.304366,
    "lng": 3.467887,
    "transactions": [
      {
        "date": "2024-01-30",
        "priceEur": 224132,
        "typeLocal": "Maison",
        "surfaceM2": 108,
        "isVefa": false
      }
    ]
  },
  "8075d3ed3a59": {
    "id": "8075d3ed3a59",
    "label": "4 RUE DE LA CAPELETTE, Agde",
    "lat": 43.302031,
    "lng": 3.465377,
    "transactions": [
      {
        "date": "2024-03-06",
        "priceEur": 356800,
        "typeLocal": "Maison",
        "surfaceM2": 135,
        "isVefa": false
      }
    ]
  },
  "b9ace9dbebce": {
    "id": "b9ace9dbebce",
    "label": "18 RUE LUCIEN PETIT, Agde",
    "lat": 43.304385,
    "lng": 3.469359,
    "transactions": [
      {
        "date": "2024-04-12",
        "priceEur": 190000,
        "typeLocal": "Maison",
        "surfaceM2": 68,
        "isVefa": false
      }
    ]
  },
  "b17158743495": {
    "id": "b17158743495",
    "label": "63 RUE SADI CARNOT, Agde",
    "lat": 43.307437,
    "lng": 3.469877,
    "transactions": [
      {
        "date": "2024-04-15",
        "priceEur": 117000,
        "typeLocal": "Appartement",
        "surfaceM2": 58,
        "isVefa": false
      }
    ]
  },
  "5b50287b37f9": {
    "id": "5b50287b37f9",
    "label": "10B RUE FONTAINE DE NOUGUIER, Agde",
    "lat": 43.305805,
    "lng": 3.467653,
    "transactions": [
      {
        "date": "2024-06-03",
        "priceEur": 650000,
        "typeLocal": "Maison",
        "surfaceM2": 142,
        "isVefa": false
      }
    ]
  },
  "a23a382915fa": {
    "id": "a23a382915fa",
    "label": "30 RUE FRANCOIS VILLON, Agde",
    "lat": 43.308159,
    "lng": 3.468406,
    "transactions": [
      {
        "date": "2024-06-25",
        "priceEur": 133800,
        "typeLocal": "Appartement",
        "surfaceM2": 72,
        "isVefa": false
      }
    ]
  },
  "924ed70e7a6e": {
    "id": "924ed70e7a6e",
    "label": "21 RUE LUCIEN PETIT, Agde",
    "lat": 43.303594,
    "lng": 3.47015,
    "transactions": [
      {
        "date": "2025-06-06",
        "priceEur": 169000,
        "typeLocal": "Appartement",
        "surfaceM2": 39,
        "isVefa": false
      },
      {
        "date": "2025-04-09",
        "priceEur": 400000,
        "typeLocal": "Appartement",
        "surfaceM2": 63,
        "isVefa": false
      },
      {
        "date": "2025-04-09",
        "priceEur": 400000,
        "typeLocal": "Appartement",
        "surfaceM2": 39,
        "isVefa": false
      },
      {
        "date": "2024-12-19",
        "priceEur": 209900,
        "typeLocal": "Appartement",
        "surfaceM2": 43,
        "isVefa": false
      },
      {
        "date": "2024-07-04",
        "priceEur": 200000,
        "typeLocal": "Appartement",
        "surfaceM2": 43,
        "isVefa": true
      }
    ]
  },
  "f01dad4cd4b8": {
    "id": "f01dad4cd4b8",
    "label": "14 BD GEORGES POMPIDOU, Agde",
    "lat": 43.306319,
    "lng": 3.469796,
    "transactions": [
      {
        "date": "2024-07-11",
        "priceEur": 272000,
        "typeLocal": "Maison",
        "surfaceM2": 79,
        "isVefa": false
      }
    ]
  },
  "7b4e1b0765c4": {
    "id": "7b4e1b0765c4",
    "label": "22 RUE FONTAINE DE NOUGUIER, Agde",
    "lat": 43.305525,
    "lng": 3.466897,
    "transactions": [
      {
        "date": "2024-07-22",
        "priceEur": 201500,
        "typeLocal": "Maison",
        "surfaceM2": 136,
        "isVefa": false
      }
    ]
  },
  "6460c74fbdb3": {
    "id": "6460c74fbdb3",
    "label": "2 IMP SADI CARNOT, Agde",
    "lat": 43.307437,
    "lng": 3.469877,
    "transactions": [
      {
        "date": "2024-08-26",
        "priceEur": 211000,
        "typeLocal": "Appartement",
        "surfaceM2": 83,
        "isVefa": false
      }
    ]
  },
  "ae22cfb1546f": {
    "id": "ae22cfb1546f",
    "label": "18 RUE FRANCOIS VILLON, Agde",
    "lat": 43.307917,
    "lng": 3.467538,
    "transactions": [
      {
        "date": "2024-09-24",
        "priceEur": 153550,
        "typeLocal": "Appartement",
        "surfaceM2": 72,
        "isVefa": false
      }
    ]
  },
  "bf2b36bdaf27": {
    "id": "bf2b36bdaf27",
    "label": "5 IMP DES DAUPHINS, Agde",
    "lat": 43.304366,
    "lng": 3.467887,
    "transactions": [
      {
        "date": "2024-09-17",
        "priceEur": 235600,
        "typeLocal": "Maison",
        "surfaceM2": 70,
        "isVefa": false
      }
    ]
  },
  "163f0b313dde": {
    "id": "163f0b313dde",
    "label": "38 RUE DE LA PRUNETTE, Agde",
    "lat": 43.302013,
    "lng": 3.467617,
    "transactions": [
      {
        "date": "2024-10-10",
        "priceEur": 427130,
        "typeLocal": "Maison",
        "surfaceM2": 134,
        "isVefa": false
      }
    ]
  },
  "e3fd31a8be6f": {
    "id": "e3fd31a8be6f",
    "label": "4 RUE ALCIDE VIALA, Agde",
    "lat": 43.305802,
    "lng": 3.467071,
    "transactions": [
      {
        "date": "2024-10-09",
        "priceEur": 182700,
        "typeLocal": "Maison",
        "surfaceM2": 73,
        "isVefa": false
      }
    ]
  },
  "2d8351e61dc2": {
    "id": "2d8351e61dc2",
    "label": "10 IMP RONSARD, Agde",
    "lat": 43.308639,
    "lng": 3.467455,
    "transactions": [
      {
        "date": "2024-11-14",
        "priceEur": 255200,
        "typeLocal": "Appartement",
        "surfaceM2": 25,
        "isVefa": false
      },
      {
        "date": "2024-11-14",
        "priceEur": 255200,
        "typeLocal": "Appartement",
        "surfaceM2": 74,
        "isVefa": false
      }
    ]
  },
  "23dd8b7c5264": {
    "id": "23dd8b7c5264",
    "label": "3 RUE DE LA CAPELETTE, Agde",
    "lat": 43.302473,
    "lng": 3.465906,
    "transactions": [
      {
        "date": "2024-12-24",
        "priceEur": 478000,
        "typeLocal": "Maison",
        "surfaceM2": 126,
        "isVefa": false
      }
    ]
  },
  "6b83bd251267": {
    "id": "6b83bd251267",
    "label": "14 RUE LOUIS REBOUL, Agde",
    "lat": 43.301924,
    "lng": 3.469438,
    "transactions": [
      {
        "date": "2025-01-28",
        "priceEur": 249900,
        "typeLocal": "Maison",
        "surfaceM2": 71,
        "isVefa": false
      }
    ]
  },
  "de5cce48bcdf": {
    "id": "de5cce48bcdf",
    "label": "28 RUE DES ESCAIS, Agde",
    "lat": 43.303947,
    "lng": 3.471344,
    "transactions": [
      {
        "date": "2025-01-17",
        "priceEur": 290000,
        "typeLocal": "Maison",
        "surfaceM2": 67,
        "isVefa": false
      }
    ]
  },
  "cd4d3f55f604": {
    "id": "cd4d3f55f604",
    "label": "24 RUE ANTOINE DE SAINT EXUPERY, Agde",
    "lat": 43.303837,
    "lng": 3.469151,
    "transactions": [
      {
        "date": "2025-02-07",
        "priceEur": 205000,
        "typeLocal": "Maison",
        "surfaceM2": 68,
        "isVefa": false
      }
    ]
  },
  "71687de72f6c": {
    "id": "71687de72f6c",
    "label": "16 RUE ANTOINE DE SAINT EXUPERY, Agde",
    "lat": 43.303362,
    "lng": 3.46891,
    "transactions": [
      {
        "date": "2025-03-21",
        "priceEur": 253000,
        "typeLocal": "Maison",
        "surfaceM2": 82,
        "isVefa": false
      }
    ]
  },
  "bd7c48b89fd0": {
    "id": "bd7c48b89fd0",
    "label": "3 IMP DES EMERAUDES, Agde",
    "lat": 43.303055,
    "lng": 3.471402,
    "transactions": [
      {
        "date": "2025-04-23",
        "priceEur": 230000,
        "typeLocal": "Maison",
        "surfaceM2": 98,
        "isVefa": false
      }
    ]
  }
}