{
  "3228ef2f9ed0": {
    "id": "3228ef2f9ed0",
    "label": "35 RUE GUY DE MAUPASSANT, Grainville-Ymauville",
    "lat": 49.650897,
    "lng": 0.415541,
    "transactions": [
      {
        "date": "2023-10-11",
        "priceEur": 356000,
        "typeLocal": "Maison",
        "surfaceM2": 335,
        "isVefa": false
      },
      {
        "date": "2021-04-23",
        "priceEur": 302000,
        "typeLocal": "Maison",
        "surfaceM2": 335,
        "isVefa": false
      }
    ]
  },
  "7acf06749fc9": {
    "id": "7acf06749fc9",
    "label": "144 RUE GUY DE MAUPASSANT, Grainville-Ymauville",
    "lat": 49.651618,
    "lng": 0.414973,
    "transactions": [
      {
        "date": "2021-07-23",
        "priceEur": 210962,
        "typeLocal": "Maison",
        "surfaceM2": 140,
        "isVefa": false
      }
    ]
  },
  "024240bfc5e1": {
    "id": "024240bfc5e1",
    "label": "5136 GRAINVILLE, Grainville-Ymauville",
    "lat": 49.648461,
    "lng": 0.41157,
    "transactions": [
      {
        "date": "2021-09-21",
        "priceEur": 215000,
        "typeLocal": "Maison",
        "surfaceM2": 74,
        "isVefa": false
      }
    ]
  },
  "f16c0126d406": {
    "id": "f16c0126d406",
    "label": "267 RTE D'ANTIVILLE, Grainville-Ymauville",
    "lat": 49.647681,
    "lng": 0.41353,
    "transactions": [
      {
        "date": "2022-06-14",
        "priceEur": 216000,
        "typeLocal": "Maison",
        "surfaceM2": 59,
        "isVefa": false
      }
    ]
  },
  "9354faa49e43": {
    "id": "9354faa49e43",
    "label": "150 CHE DE LA TERRE A POT, Grainville-Ymauville",
    "lat": 49.648872,
    "lng": 0.411993,
    "transactions": [
      {
        "date": "2022-07-12",
        "priceEur": 393000,
        "typeLocal": "Maison",
        "surfaceM2": 121,
        "isVefa": false
      }
    ]
  },
  "1b0208f39a3e": {
    "id": "1b0208f39a3e",
    "label": "5003 YMAUVILLE, Grainville-Ymauville",
    "lat": 49.651411,
    "lng": 0.41481,
    "transactions": [
      {
        "date": "2022-10-27",
        "priceEur": 314650,
        "typeLocal": "Maison",
        "surfaceM2": 165,
        "isVefa": false
      }
    ]
  },
  "63fe9383edeb": {
    "id": "63fe9383edeb",
    "label": "1270 RTE DU FOND DE GRAINVILLE, Grainville-Ymauville",
    "lat": 49.649888,
    "lng": 0.413582,
    "transactions": [
      {
        "date": "2023-12-22",
        "priceEur": 120000,
        "typeLocal": "Maison",
        "surfaceM2": 90,
        "isVefa": false
      }
    ]
  },
  "3551f8850e8b": {
    "id": "3551f8850e8b",
    "label": "1210 RTE DU FOND DE GRAINVILLE, Grainville-Ymauville",
    "lat": 49.650156,
    "lng": 0.4123,
    "transactions": [
      {
        "date": "2024-05-30",
        "priceEur": 173660,
        "typeLocal": "Maison",
        "surfaceM2": 70,
        "isVefa": false
      }
    ]
  },
  "a90d6ecdf2e1": {
    "id": "a90d6ecdf2e1",
    "label": "169 RUE GUY DE MAUPASSANT, Grainville-Ymauville",
    "lat": 49.651547,
    "lng": 0.414314,
    "transactions": [
      {
        "date": "2024-10-02",
        "priceEur": 189000,
        "typeLocal": "Maison",
        "surfaceM2": 11,
        "isVefa": false
      }
    ]
  }
}