{
  "18c475c42a8f": {
    "id": "18c475c42a8f",
    "label": "5192 SAINT AUBIN SUR SCIE VILLA, Saint-Aubin-sur-Scie",
    "lat": 49.870192,
    "lng": 1.070528,
    "transactions": [
      {
        "date": "2020-07-24",
        "priceEur": 53000,
        "typeLocal": "Maison",
        "surfaceM2": 90,
        "isVefa": false
      }
    ]
  },
  "967d34541b37": {
    "id": "967d34541b37",
    "label": "5191 SAINT AUBIN SUR SCIE VILLA, Saint-Aubin-sur-Scie",
    "lat": 49.870571,
    "lng": 1.070459,
    "transactions": [
      {
        "date": "2020-08-26",
        "priceEur": 223000,
        "typeLocal": "Maison",
        "surfaceM2": 118,
        "isVefa": false
      }
    ]
  },
  "40f1ed4b5e91": {
    "id": "40f1ed4b5e91",
    "label": "5203 SAINT AUBIN SUR SCIE VILLA, Saint-Aubin-sur-Scie",
    "lat": 49.867121,
    "lng": 1.071402,
    "transactions": [
      {
        "date": "2021-01-12",
        "priceEur": 53000,
        "typeLocal": "Maison",
        "surfaceM2": 101,
        "isVefa": false
      }
    ]
  },
  "49a6309e6684": {
    "id": "49a6309e6684",
    "label": "284 RUE DES BASSES TERRES, Saint-Aubin-sur-Scie",
    "lat": 49.869265,
    "lng": 1.065956,
    "transactions": [
      {
        "date": "2022-03-14",
        "priceEur": 210000,
        "typeLocal": "Maison",
        "surfaceM2": 100,
        "isVefa": false
      }
    ]
  },
  "fbc5d584c833": {
    "id": "fbc5d584c833",
    "label": "28 IMP DES LAVANDIERES, Saint-Aubin-sur-Scie",
    "lat": 49.871696,
    "lng": 1.068966,
    "transactions": [
      {
        "date": "2022-08-22",
        "priceEur": 180000,
        "typeLocal": "Maison",
        "surfaceM2": 70,
        "isVefa": false
      }
    ]
  },
  "cd0c4007d331": {
    "id": "cd0c4007d331",
    "label": "557 RTE DE ROUEN, Saint-Aubin-sur-Scie",
    "lat": 49.870064,
    "lng": 1.070551,
    "transactions": [
      {
        "date": "2022-11-02",
        "priceEur": 345000,
        "typeLocal": "Appartement",
        "surfaceM2": 52,
        "isVefa": false
      },
      {
        "date": "2022-11-02",
        "priceEur": 345000,
        "typeLocal": "Appartement",
        "surfaceM2": 41,
        "isVefa": false
      },
      {
        "date": "2022-11-02",
        "priceEur": 345000,
        "typeLocal": "Appartement",
        "surfaceM2": 45,
        "isVefa": false
      }
    ]
  },
  "92f7f21c58c4": {
    "id": "92f7f21c58c4",
    "label": "901 CHE DE LA RECLUSE, Saint-Aubin-sur-Scie",
    "lat": 49.866537,
    "lng": 1.070348,
    "transactions": [
      {
        "date": "2023-03-14",
        "priceEur": 875000,
        "typeLocal": "Maison",
        "surfaceM2": 400,
        "isVefa": false
      }
    ]
  },
  "a6dba240cf9f": {
    "id": "a6dba240cf9f",
    "label": "7 RES LE CLOS LES GRANGETTES, Saint-Aubin-sur-Scie",
    "lat": 49.873206,
    "lng": 1.067368,
    "transactions": [
      {
        "date": "2023-04-11",
        "priceEur": 6796875,
        "typeLocal": "Maison",
        "surfaceM2": 75,
        "isVefa": false
      },
      {
        "date": "2023-04-11",
        "priceEur": 6796875,
        "typeLocal": "Maison",
        "surfaceM2": 76,
        "isVefa": false
      },
      {
        "date": "2023-04-11",
        "priceEur": 6796875,
        "typeLocal": "Maison",
        "surfaceM2": 69,
        "isVefa": false
      }
    ]
  },
  "1e3af5772768": {
    "id": "1e3af5772768",
    "label": "61 IMP DU PIGEONNIER, Saint-Aubin-sur-Scie",
    "lat": 49.872109,
    "lng": 1.071791,
    "transactions": [
      {
        "date": "2023-04-11",
        "priceEur": 6796875,
        "typeLocal": "Maison",
        "surfaceM2": 86,
        "isVefa": false
      },
      {
        "date": "2023-04-11",
        "priceEur": 6796875,
        "typeLocal": "Maison",
        "surfaceM2": 76,
        "isVefa": false
      }
    ]
  },
  "2187bf532a5f": {
    "id": "2187bf532a5f",
    "label": "26 IMP DU PIGEONNIER, Saint-Aubin-sur-Scie",
    "lat": 49.871772,
    "lng": 1.070463,
    "transactions": [
      {
        "date": "2023-04-11",
        "priceEur": 6796875,
        "typeLocal": "Maison",
        "surfaceM2": 96,
        "isVefa": false
      }
    ]
  },
  "f3ecb9e7461d": {
    "id": "f3ecb9e7461d",
    "label": "64 IMP DU PIGEONNIER, Saint-Aubin-sur-Scie",
    "lat": 49.871857,
    "lng": 1.071746,
    "transactions": [
      {
        "date": "2023-04-11",
        "priceEur": 6796875,
        "typeLocal": "Appartement",
        "surfaceM2": 71,
        "isVefa": false
      },
      {
        "date": "2023-04-11",
        "priceEur": 6796875,
        "typeLocal": "Maison",
        "surfaceM2": 101,
        "isVefa": false
      },
      {
        "date": "2023-04-11",
        "priceEur": 6796875,
        "typeLocal": "Appartement",
        "surfaceM2": 70,
        "isVefa": false
      }
    ]
  },
  "9c23166311c7": {
    "id": "9c23166311c7",
    "label": "188 IMP DU PIGEONNIER, Saint-Aubin-sur-Scie",
    "lat": 49.871503,
    "lng": 1.07289,
    "transactions": [
      {
        "date": "2023-04-11",
        "priceEur": 6796875,
        "typeLocal": "Appartement",
        "surfaceM2": 71,
        "isVefa": false
      },
      {
        "date": "2023-04-11",
        "priceEur": 6796875,
        "typeLocal": "Maison",
        "surfaceM2": 76,
        "isVefa": false
      },
      {
        "date": "2023-04-11",
        "priceEur": 6796875,
        "typeLocal": "Appartement",
        "surfaceM2": 70,
        "isVefa": false
      }
    ]
  },
  "92395356dfe4": {
    "id": "92395356dfe4",
    "label": "18 RES LE CLOS LES GRANGETTES, Saint-Aubin-sur-Scie",
    "lat": 49.873133,
    "lng": 1.068661,
    "transactions": [
      {
        "date": "2023-04-11",
        "priceEur": 6796875,
        "typeLocal": "Maison",
        "surfaceM2": 77,
        "isVefa": false
      }
    ]
  },
  "721016c8e734": {
    "id": "721016c8e734",
    "label": "768 RTE DE ROUEN, Saint-Aubin-sur-Scie",
    "lat": 49.871763,
    "lng": 1.069584,
    "transactions": [
      {
        "date": "2023-04-27",
        "priceEur": 140000,
        "typeLocal": "Maison",
        "surfaceM2": 85,
        "isVefa": false
      }
    ]
  },
  "39ae8e112346": {
    "id": "39ae8e112346",
    "label": "42 IMP DU PIGEONNIER, Saint-Aubin-sur-Scie",
    "lat": 49.871743,
    "lng": 1.070779,
    "transactions": [
      {
        "date": "2023-12-27",
        "priceEur": 255000,
        "typeLocal": "Maison",
        "surfaceM2": 75,
        "isVefa": false
      }
    ]
  },
  "0d642099a5df": {
    "id": "0d642099a5df",
    "label": "63 RUE DU GOUFFRE, Saint-Aubin-sur-Scie",
    "lat": 49.872065,
    "lng": 1.068065,
    "transactions": [
      {
        "date": "2024-02-13",
        "priceEur": 60000,
        "typeLocal": "Maison",
        "surfaceM2": 50,
        "isVefa": false
      }
    ]
  },
  "5fc0a59ee07f": {
    "id": "5fc0a59ee07f",
    "label": "79 CHE GUY DE MAUPASSANT, Saint-Aubin-sur-Scie",
    "lat": 49.872012,
    "lng": 1.069844,
    "transactions": [
      {
        "date": "2024-10-25",
        "priceEur": 129000,
        "typeLocal": "Maison",
        "surfaceM2": 64,
        "isVefa": false
      }
    ]
  },
  "abcf9b8f4a79": {
    "id": "abcf9b8f4a79",
    "label": "2 RES LE CLOS LES GRANGETTES, Saint-Aubin-sur-Scie",
    "lat": 49.873385,
    "lng": 1.068181,
    "transactions": [
      {
        "date": "2024-12-16",
        "priceEur": 124000,
        "typeLocal": "Maison",
        "surfaceM2": 76,
        "isVefa": false
      },
      {
        "date": "2024-12-16",
        "priceEur": 124000,
        "typeLocal": "Maison",
        "surfaceM2": 67,
        "isVefa": false
      }
    ]
  }
}