{
  "46cb9a1d4e0f": {
    "id": "46cb9a1d4e0f",
    "label": "47 IMP DE LA CHAPELLE, Sauqueville",
    "lat": 49.85619,
    "lng": 1.068794,
    "transactions": [
      {
        "date": "2020-11-19",
        "priceEur": 252000,
        "typeLocal": "Maison",
        "surfaceM2": 152,
        "isVefa": false
      }
    ]
  },
  "a22615202124": {
    "id": "a22615202124",
    "label": "24 RTE DE ROUEN, Tourville-sur-Arques",
    "lat": 49.859095,
    "lng": 1.070999,
    "transactions": [
      {
        "date": "2024-07-26",
        "priceEur": 124095,
        "typeLocal": "Maison",
        "surfaceM2": 110,
        "isVefa": false
      },
      {
        "date": "2020-12-29",
        "priceEur": 200000,
        "typeLocal": "Maison",
        "surfaceM2": 110,
        "isVefa": false
      }
    ]
  },
  "3f082801106d": {
    "id": "3f082801106d",
    "label": "128 RUE OCTAVE MUREAU, Sauqueville",
    "lat": 49.854337,
    "lng": 1.06933,
    "transactions": [
      {
        "date": "2021-07-22",
        "priceEur": 169000,
        "typeLocal": "Maison",
        "surfaceM2": 73,
        "isVefa": false
      }
    ]
  },
  "f1bed05c2850": {
    "id": "f1bed05c2850",
    "label": "148 RES LE GRAND BOIS, Sauqueville",
    "lat": 49.853064,
    "lng": 1.067719,
    "transactions": [
      {
        "date": "2021-07-02",
        "priceEur": 290000,
        "typeLocal": "Maison",
        "surfaceM2": 165,
        "isVefa": false
      }
    ]
  },
  "453ad982a4ee": {
    "id": "453ad982a4ee",
    "label": "185 RTE DE LA POMME, Sauqueville",
    "lat": 49.854575,
    "lng": 1.071318,
    "transactions": [
      {
        "date": "2021-08-23",
        "priceEur": 247000,
        "typeLocal": "Maison",
        "surfaceM2": 173,
        "isVefa": false
      }
    ]
  },
  "f81140a53fc0": {
    "id": "f81140a53fc0",
    "label": "57 RTE DES COTEAUX, Tourville-sur-Arques",
    "lat": 49.855618,
    "lng": 1.072683,
    "transactions": [
      {
        "date": "2022-11-22",
        "priceEur": 135000,
        "typeLocal": "Maison",
        "surfaceM2": 120,
        "isVefa": false
      },
      {
        "date": "2021-10-01",
        "priceEur": 78000,
        "typeLocal": "Maison",
        "surfaceM2": 120,
        "isVefa": false
      }
    ]
  },
  "8459f896a641": {
    "id": "8459f896a641",
    "label": "115 IMP DE LA CHAPELLE, Sauqueville",
    "lat": 49.855982,
    "lng": 1.068224,
    "transactions": [
      {
        "date": "2022-06-09",
        "priceEur": 191000,
        "typeLocal": "Maison",
        "surfaceM2": 104,
        "isVefa": false
      }
    ]
  },
  "cf34902dd475": {
    "id": "cf34902dd475",
    "label": "30 RES BELLEVUE, Sauqueville",
    "lat": 49.853962,
    "lng": 1.0683,
    "transactions": [
      {
        "date": "2022-06-09",
        "priceEur": 195000,
        "typeLocal": "Maison",
        "surfaceM2": 147,
        "isVefa": false
      }
    ]
  },
  "f624664a45b3": {
    "id": "f624664a45b3",
    "label": "75 RES LE GRAND BOIS, Sauqueville",
    "lat": 49.854298,
    "lng": 1.067362,
    "transactions": [
      {
        "date": "2023-06-26",
        "priceEur": 189900,
        "typeLocal": "Maison",
        "surfaceM2": 88,
        "isVefa": false
      }
    ]
  },
  "379c8eb94c7b": {
    "id": "379c8eb94c7b",
    "label": "312 RTE DE LA POMME, Sauqueville",
    "lat": 49.853071,
    "lng": 1.070081,
    "transactions": [
      {
        "date": "2023-07-12",
        "priceEur": 260000,
        "typeLocal": "Maison",
        "surfaceM2": 300,
        "isVefa": false
      }
    ]
  },
  "579754e26666": {
    "id": "579754e26666",
    "label": "58 RTE DES COTEAUX, Tourville-sur-Arques",
    "lat": 49.856594,
    "lng": 1.072954,
    "transactions": [
      {
        "date": "2023-08-09",
        "priceEur": 78000,
        "typeLocal": "Maison",
        "surfaceM2": 24,
        "isVefa": false
      }
    ]
  },
  "f38f62dbbfc1": {
    "id": "f38f62dbbfc1",
    "label": "279 RTE DE LA POMME, Sauqueville",
    "lat": 49.853575,
    "lng": 1.070981,
    "transactions": [
      {
        "date": "2024-06-18",
        "priceEur": 18870,
        "typeLocal": "Maison",
        "surfaceM2": 135,
        "isVefa": false
      }
    ]
  },
  "ca174965546c": {
    "id": "ca174965546c",
    "label": "171 RUE OCTAVE MUREAU, Sauqueville",
    "lat": 49.85402,
    "lng": 1.068933,
    "transactions": [
      {
        "date": "2025-01-31",
        "priceEur": 170000,
        "typeLocal": "Maison",
        "surfaceM2": 125,
        "isVefa": false
      }
    ]
  },
  "4fe8556f5dd7": {
    "id": "4fe8556f5dd7",
    "label": "174 RTE DE LA POMME, Sauqueville",
    "lat": 49.854888,
    "lng": 1.070339,
    "transactions": [
      {
        "date": "2025-01-31",
        "priceEur": 80956.97,
        "typeLocal": "Maison",
        "surfaceM2": 42,
        "isVefa": false
      }
    ]
  },
  "86cc1589368e": {
    "id": "86cc1589368e",
    "label": "191 RUE DE LA MAIRIE, Sauqueville",
    "lat": 49.85627,
    "lng": 1.069149,
    "transactions": [
      {
        "date": "2025-04-29",
        "priceEur": 128000,
        "typeLocal": "Maison",
        "surfaceM2": 66,
        "isVefa": false
      }
    ]
  }
}