{
  "ddfab84299a2": {
    "id": "ddfab84299a2",
    "label": "378 RUE D ISNEL, Isneauville",
    "lat": 49.493589,
    "lng": 1.139551,
    "transactions": [
      {
        "date": "2020-10-29",
        "priceEur": 610000,
        "typeLocal": "Maison",
        "surfaceM2": 195,
        "isVefa": false
      }
    ]
  },
  "6d16944a647d": {
    "id": "6d16944a647d",
    "label": "665 RUE DE LA RONCE, Isneauville",
    "lat": 49.493214,
    "lng": 1.138134,
    "transactions": [
      {
        "date": "2020-12-22",
        "priceEur": 310000,
        "typeLocal": "Maison",
        "surfaceM2": 106,
        "isVefa": false
      }
    ]
  },
  "9e8745477cc9": {
    "id": "9e8745477cc9",
    "label": "971 RUE DE LA RONCE, Isneauville",
    "lat": 49.495831,
    "lng": 1.13945,
    "transactions": [
      {
        "date": "2020-12-28",
        "priceEur": 380000,
        "typeLocal": "Maison",
        "surfaceM2": 122,
        "isVefa": false
      }
    ]
  },
  "5b70ad00f795": {
    "id": "5b70ad00f795",
    "label": "161 RUE DES RENARDS, Isneauville",
    "lat": 49.494699,
    "lng": 1.14236,
    "transactions": [
      {
        "date": "2021-10-22",
        "priceEur": 373000,
        "typeLocal": "Maison",
        "surfaceM2": 117,
        "isVefa": false
      }
    ]
  },
  "6bd3969a817d": {
    "id": "6bd3969a817d",
    "label": "831 RUE DE LA RONCE, Isneauville",
    "lat": 49.494675,
    "lng": 1.138927,
    "transactions": [
      {
        "date": "2021-01-29",
        "priceEur": 285000,
        "typeLocal": "Maison",
        "surfaceM2": 98,
        "isVefa": false
      }
    ]
  },
  "5444756744cf": {
    "id": "5444756744cf",
    "label": "4335 RUE DE LA HAIE, Bois-Guillaume",
    "lat": 49.491436,
    "lng": 1.132792,
    "transactions": [
      {
        "date": "2021-03-04",
        "priceEur": 720000,
        "typeLocal": "Maison",
        "surfaceM2": 379,
        "isVefa": false
      }
    ]
  },
  "59168cfa30a4": {
    "id": "59168cfa30a4",
    "label": "145 SEN DES BELLES, Isneauville",
    "lat": 49.495972,
    "lng": 1.138877,
    "transactions": [
      {
        "date": "2021-03-12",
        "priceEur": 180000,
        "typeLocal": "Maison",
        "surfaceM2": 115,
        "isVefa": false
      }
    ]
  },
  "b303be5fc62f": {
    "id": "b303be5fc62f",
    "label": "670 RUE DE LA RONCE, Isneauville",
    "lat": 49.493257,
    "lng": 1.138545,
    "transactions": [
      {
        "date": "2021-04-07",
        "priceEur": 532000,
        "typeLocal": "Maison",
        "surfaceM2": 150,
        "isVefa": false
      }
    ]
  },
  "605cf4028e4d": {
    "id": "605cf4028e4d",
    "label": "4331 RUE DE LA HAIE, Bois-Guillaume",
    "lat": 49.491296,
    "lng": 1.133689,
    "transactions": [
      {
        "date": "2021-06-10",
        "priceEur": 735000,
        "typeLocal": "Maison",
        "surfaceM2": 406,
        "isVefa": false
      }
    ]
  },
  "453be8ea0f6b": {
    "id": "453be8ea0f6b",
    "label": "1054 RUE DE LA RONCE, Isneauville",
    "lat": 49.496323,
    "lng": 1.140595,
    "transactions": [
      {
        "date": "2021-08-17",
        "priceEur": 232300,
        "typeLocal": "Appartement",
        "surfaceM2": 103,
        "isVefa": false
      }
    ]
  },
  "21655c572855": {
    "id": "21655c572855",
    "label": "537 RUE ANDRE LE NOTRE, Isneauville",
    "lat": 49.49549,
    "lng": 1.14062,
    "transactions": [
      {
        "date": "2021-08-26",
        "priceEur": 440000,
        "typeLocal": "Maison",
        "surfaceM2": 148,
        "isVefa": false
      }
    ]
  },
  "aaa62c6e6f21": {
    "id": "aaa62c6e6f21",
    "label": "45 IMP DE LA RONCE, Isneauville",
    "lat": 49.496062,
    "lng": 1.140706,
    "transactions": [
      {
        "date": "2022-04-05",
        "priceEur": 184100,
        "typeLocal": "Maison",
        "surfaceM2": 74,
        "isVefa": false
      }
    ]
  },
  "2eaec4d828d3": {
    "id": "2eaec4d828d3",
    "label": "15 RUE MESANGERE, Isneauville",
    "lat": 49.495098,
    "lng": 1.139143,
    "transactions": [
      {
        "date": "2022-10-05",
        "priceEur": 311000,
        "typeLocal": "Maison",
        "surfaceM2": 97,
        "isVefa": false
      }
    ]
  },
  "68d25dba5832": {
    "id": "68d25dba5832",
    "label": "564B RUE DE LA HAIE, Isneauville",
    "lat": 49.4958,
    "lng": 1.13786,
    "transactions": [
      {
        "date": "2023-01-26",
        "priceEur": 373000,
        "typeLocal": "Maison",
        "surfaceM2": 103,
        "isVefa": false
      }
    ]
  },
  "cd383a352f52": {
    "id": "cd383a352f52",
    "label": "982 RUE DE LA RONCE, Isneauville",
    "lat": 49.495857,
    "lng": 1.140066,
    "transactions": [
      {
        "date": "2023-04-14",
        "priceEur": 306000,
        "typeLocal": "Maison",
        "surfaceM2": 102,
        "isVefa": false
      }
    ]
  },
  "a0c519265626": {
    "id": "a0c519265626",
    "label": "588 RUE DE LA HAIE, Isneauville",
    "lat": 49.49619,
    "lng": 1.138038,
    "transactions": [
      {
        "date": "2024-11-08",
        "priceEur": 110000,
        "typeLocal": "Maison",
        "surfaceM2": 88,
        "isVefa": false
      }
    ]
  },
  "2d2895f74a9c": {
    "id": "2d2895f74a9c",
    "label": "12 RUE DE L ECUREUIL, Isneauville",
    "lat": 49.494437,
    "lng": 1.139204,
    "transactions": [
      {
        "date": "2025-01-31",
        "priceEur": 368000,
        "typeLocal": "Maison",
        "surfaceM2": 113,
        "isVefa": false
      }
    ]
  },
  "48afc4322a0a": {
    "id": "48afc4322a0a",
    "label": "97 RUE DES RENARDS, Isneauville",
    "lat": 49.494945,
    "lng": 1.141479,
    "transactions": [
      {
        "date": "2025-04-04",
        "priceEur": 453000,
        "typeLocal": "Maison",
        "surfaceM2": 170,
        "isVefa": false
      }
    ]
  }
}