{
  "709eb41995d1": {
    "id": "709eb41995d1",
    "label": "3 RUE ANDRE BOURVIL, Les Authieux-sur-le-Port-Saint-Ouen",
    "lat": 49.33727,
    "lng": 1.133706,
    "transactions": [
      {
        "date": "2020-11-27",
        "priceEur": 261000,
        "typeLocal": "Maison",
        "surfaceM2": 122,
        "isVefa": false
      }
    ]
  },
  "5506c140d31b": {
    "id": "5506c140d31b",
    "label": "43 ALL DU COUVENT, Les Authieux-sur-le-Port-Saint-Ouen",
    "lat": 49.334181,
    "lng": 1.131885,
    "transactions": [
      {
        "date": "2021-01-28",
        "priceEur": 355100,
        "typeLocal": "Maison",
        "surfaceM2": 157,
        "isVefa": false
      }
    ]
  },
  "8018659714d5": {
    "id": "8018659714d5",
    "label": "207 RUE GEORGES BRASSENS, Les Authieux-sur-le-Port-Saint-Ouen",
    "lat": 49.338836,
    "lng": 1.131813,
    "transactions": [
      {
        "date": "2022-02-14",
        "priceEur": 459150,
        "typeLocal": "Maison",
        "surfaceM2": 172,
        "isVefa": false
      }
    ]
  },
  "2fadd2f02051": {
    "id": "2fadd2f02051",
    "label": "69 IMP DES CHARMILLES, Les Authieux-sur-le-Port-Saint-Ouen",
    "lat": 49.336879,
    "lng": 1.136421,
    "transactions": [
      {
        "date": "2022-03-09",
        "priceEur": 287000,
        "typeLocal": "Maison",
        "surfaceM2": 110,
        "isVefa": false
      }
    ]
  },
  "febb8acc593e": {
    "id": "febb8acc593e",
    "label": "5 RUE LA PRAIRIE, Les Authieux-sur-le-Port-Saint-Ouen",
    "lat": 49.338458,
    "lng": 1.132794,
    "transactions": [
      {
        "date": "2022-09-14",
        "priceEur": 300300,
        "typeLocal": "Maison",
        "surfaceM2": 107,
        "isVefa": false
      }
    ]
  },
  "d2b987a6f2e4": {
    "id": "d2b987a6f2e4",
    "label": "1 IMP DES POMMIERS, Les Authieux-sur-le-Port-Saint-Ouen",
    "lat": 49.335987,
    "lng": 1.134945,
    "transactions": [
      {
        "date": "2023-02-16",
        "priceEur": 308000,
        "typeLocal": "Maison",
        "surfaceM2": 125,
        "isVefa": false
      }
    ]
  },
  "096aa6aa6370": {
    "id": "096aa6aa6370",
    "label": "2 RUE LA PRAIRIE, Les Authieux-sur-le-Port-Saint-Ouen",
    "lat": 49.338663,
    "lng": 1.133937,
    "transactions": [
      {
        "date": "2023-03-20",
        "priceEur": 230000,
        "typeLocal": "Maison",
        "surfaceM2": 111,
        "isVefa": false
      }
    ]
  },
  "c87580146f5c": {
    "id": "c87580146f5c",
    "label": "112 RUE DES ROULIERS, Les Authieux-sur-le-Port-Saint-Ouen",
    "lat": 49.338572,
    "lng": 1.135526,
    "transactions": [
      {
        "date": "2023-07-10",
        "priceEur": 229700,
        "typeLocal": "Maison",
        "surfaceM2": 84,
        "isVefa": false
      }
    ]
  },
  "cc4c94af0205": {
    "id": "cc4c94af0205",
    "label": "71 RUE GEORGES BRASSENS, Les Authieux-sur-le-Port-Saint-Ouen",
    "lat": 49.339214,
    "lng": 1.133844,
    "transactions": [
      {
        "date": "2023-10-09",
        "priceEur": 237000,
        "typeLocal": "Maison",
        "surfaceM2": 91,
        "isVefa": false
      }
    ]
  },
  "f070b2fcc6a9": {
    "id": "f070b2fcc6a9",
    "label": "9 IMP DU GROS CHENE, Les Authieux-sur-le-Port-Saint-Ouen",
    "lat": 49.334823,
    "lng": 1.13298,
    "transactions": [
      {
        "date": "2024-04-02",
        "priceEur": 390000,
        "typeLocal": "Maison",
        "surfaceM2": 154,
        "isVefa": false
      }
    ]
  },
  "5a6bfeaf93af": {
    "id": "5a6bfeaf93af",
    "label": "8 RUE DU GROS CHENE, Les Authieux-sur-le-Port-Saint-Ouen",
    "lat": 49.336012,
    "lng": 1.133686,
    "transactions": [
      {
        "date": "2024-04-10",
        "priceEur": 264000,
        "typeLocal": "Maison",
        "surfaceM2": 100,
        "isVefa": false
      }
    ]
  },
  "851010c818f4": {
    "id": "851010c818f4",
    "label": "389 RUE DE L EGLISE, Les Authieux-sur-le-Port-Saint-Ouen",
    "lat": 49.337739,
    "lng": 1.135057,
    "transactions": [
      {
        "date": "2024-10-14",
        "priceEur": 232000,
        "typeLocal": "Maison",
        "surfaceM2": 98,
        "isVefa": false
      }
    ]
  }
}