{
  "4d47fb3fc476": {
    "id": "4d47fb3fc476",
    "label": "240 RUE RUE ALPHONSE DAUDET, Grabels",
    "lat": 43.656787,
    "lng": 3.785786,
    "transactions": [
      {
        "date": "2020-09-04",
        "priceEur": 390720,
        "typeLocal": "Maison",
        "surfaceM2": 200,
        "isVefa": false
      }
    ]
  },
  "42b8459e07f9": {
    "id": "42b8459e07f9",
    "label": "485 RTE DE BEL AIR, Grabels",
    "lat": 43.652295,
    "lng": 3.786695,
    "transactions": [
      {
        "date": "2020-12-18",
        "priceEur": 616973,
        "typeLocal": "Maison",
        "surfaceM2": 181,
        "isVefa": false
      },
      {
        "date": "2020-12-18",
        "priceEur": 616973,
        "typeLocal": "Maison",
        "surfaceM2": 181,
        "isVefa": false
      }
    ]
  },
  "8ba33bfbc9b6": {
    "id": "8ba33bfbc9b6",
    "label": "356 CHE DES PLANS, Grabels",
    "lat": 43.653799,
    "lng": 3.783333,
    "transactions": [
      {
        "date": "2021-02-25",
        "priceEur": 370340,
        "typeLocal": "Maison",
        "surfaceM2": 94,
        "isVefa": false
      }
    ]
  },
  "99f2d0baa4b8": {
    "id": "99f2d0baa4b8",
    "label": "100 CHE DES ROMARINS, Grabels",
    "lat": 43.652818,
    "lng": 3.783496,
    "transactions": [
      {
        "date": "2021-02-18",
        "priceEur": 515000,
        "typeLocal": "Maison",
        "surfaceM2": 87,
        "isVefa": false
      },
      {
        "date": "2021-02-18",
        "priceEur": 515000,
        "typeLocal": "Maison",
        "surfaceM2": 70,
        "isVefa": false
      }
    ]
  },
  "e4bc6f62a0ae": {
    "id": "e4bc6f62a0ae",
    "label": "324 CHE DES PLANS, Grabels",
    "lat": 43.653478,
    "lng": 3.783461,
    "transactions": [
      {
        "date": "2021-03-26",
        "priceEur": 585410,
        "typeLocal": "Maison",
        "surfaceM2": 188,
        "isVefa": false
      }
    ]
  },
  "892a02d3b2d6": {
    "id": "892a02d3b2d6",
    "label": "454 CHE DU MAS DE MA TOUR, Grabels",
    "lat": 43.655259,
    "lng": 3.783689,
    "transactions": [
      {
        "date": "2021-06-14",
        "priceEur": 650000,
        "typeLocal": "Maison",
        "surfaceM2": 110,
        "isVefa": false
      },
      {
        "date": "2021-06-14",
        "priceEur": 650000,
        "typeLocal": "Maison",
        "surfaceM2": 110,
        "isVefa": false
      }
    ]
  },
  "effa2468a696": {
    "id": "effa2468a696",
    "label": "400 RUE RUE ALPHONSE DAUDET, Grabels",
    "lat": 43.655932,
    "lng": 3.787556,
    "transactions": [
      {
        "date": "2021-07-20",
        "priceEur": 895000,
        "typeLocal": "Maison",
        "surfaceM2": 165,
        "isVefa": false
      },
      {
        "date": "2021-07-20",
        "priceEur": 895000,
        "typeLocal": "Maison",
        "surfaceM2": 165,
        "isVefa": false
      }
    ]
  },
  "9e3804ab1072": {
    "id": "9e3804ab1072",
    "label": "10 RUE JACQUES PREVERT, Grabels",
    "lat": 43.652604,
    "lng": 3.782957,
    "transactions": [
      {
        "date": "2021-07-22",
        "priceEur": 452900,
        "typeLocal": "Maison",
        "surfaceM2": 110,
        "isVefa": false
      }
    ]
  },
  "e1dec13a4b17": {
    "id": "e1dec13a4b17",
    "label": "6367 PLAN DE MAULE, Grabels",
    "lat": 43.65405,
    "lng": 3.78302,
    "transactions": [
      {
        "date": "2021-12-21",
        "priceEur": 532900,
        "typeLocal": "Maison",
        "surfaceM2": 171,
        "isVefa": false
      }
    ]
  },
  "d5677509db7a": {
    "id": "d5677509db7a",
    "label": "40 IMP PLAN DE MAULE, Grabels",
    "lat": 43.656101,
    "lng": 3.785337,
    "transactions": [
      {
        "date": "2022-01-07",
        "priceEur": 335000,
        "typeLocal": "Maison",
        "surfaceM2": 85,
        "isVefa": false
      }
    ]
  },
  "c1bbfc5f47d9": {
    "id": "c1bbfc5f47d9",
    "label": "123 IMP PAUL ELUARD, Grabels",
    "lat": 43.655646,
    "lng": 3.787538,
    "transactions": [
      {
        "date": "2022-03-03",
        "priceEur": 750000,
        "typeLocal": "Maison",
        "surfaceM2": 177,
        "isVefa": false
      }
    ]
  },
  "6675724d809c": {
    "id": "6675724d809c",
    "label": "134 CHE DES PLANS, Grabels",
    "lat": 43.653457,
    "lng": 3.785525,
    "transactions": [
      {
        "date": "2022-03-22",
        "priceEur": 1011960,
        "typeLocal": "Maison",
        "surfaceM2": 237,
        "isVefa": false
      },
      {
        "date": "2022-03-22",
        "priceEur": 1011960,
        "typeLocal": "Maison",
        "surfaceM2": 237,
        "isVefa": false
      }
    ]
  },
  "b9c6ded90563": {
    "id": "b9c6ded90563",
    "label": "5176 PLAN DE MAULE, Grabels",
    "lat": 43.652444,
    "lng": 3.786908,
    "transactions": [
      {
        "date": "2022-04-28",
        "priceEur": 473850,
        "typeLocal": "Maison",
        "surfaceM2": 125,
        "isVefa": false
      }
    ]
  },
  "5656891472bc": {
    "id": "5656891472bc",
    "label": "5 IMP JACQUES PREVERT, Grabels",
    "lat": 43.652074,
    "lng": 3.781555,
    "transactions": [
      {
        "date": "2022-05-19",
        "priceEur": 520100,
        "typeLocal": "Maison",
        "surfaceM2": 120,
        "isVefa": false
      }
    ]
  },
  "fc347b11b0a1": {
    "id": "fc347b11b0a1",
    "label": "354 CHE DES PLANS, Grabels",
    "lat": 43.653813,
    "lng": 3.783235,
    "transactions": [
      {
        "date": "2022-06-22",
        "priceEur": 342500,
        "typeLocal": "Maison",
        "surfaceM2": 89,
        "isVefa": false
      }
    ]
  },
  "3241080c287f": {
    "id": "3241080c287f",
    "label": "5487 PLAN DE MAULE, Grabels",
    "lat": 43.653888,
    "lng": 3.785693,
    "transactions": [
      {
        "date": "2023-02-27",
        "priceEur": 965850,
        "typeLocal": "Maison",
        "surfaceM2": 119,
        "isVefa": false
      },
      {
        "date": "2023-02-27",
        "priceEur": 965850,
        "typeLocal": "Maison",
        "surfaceM2": 119,
        "isVefa": false
      }
    ]
  },
  "21da271267e4": {
    "id": "21da271267e4",
    "label": "490 RTE DE BEL AIR, Grabels",
    "lat": 43.652302,
    "lng": 3.786222,
    "transactions": [
      {
        "date": "2023-06-29",
        "priceEur": 458200,
        "typeLocal": "Maison",
        "surfaceM2": 139,
        "isVefa": false
      }
    ]
  },
  "04e22eb84435": {
    "id": "04e22eb84435",
    "label": "15 CHEM DU RIVIERAL, Grabels",
    "lat": 43.654328,
    "lng": 3.787165,
    "transactions": [
      {
        "date": "2023-06-30",
        "priceEur": 738000,
        "typeLocal": "Maison",
        "surfaceM2": 145,
        "isVefa": false
      },
      {
        "date": "2023-06-30",
        "priceEur": 738000,
        "typeLocal": "Maison",
        "surfaceM2": 145,
        "isVefa": false
      }
    ]
  },
  "399847371db2": {
    "id": "399847371db2",
    "label": "100 CHE DU MAS DE MA TOUR, Grabels",
    "lat": 43.653173,
    "lng": 3.787338,
    "transactions": [
      {
        "date": "2023-09-20",
        "priceEur": 110000,
        "typeLocal": "Appartement",
        "surfaceM2": 170,
        "isVefa": false
      }
    ]
  },
  "82fb331a5ef3": {
    "id": "82fb331a5ef3",
    "label": "6 IMP JACQUES PREVERT, Grabels",
    "lat": 43.652481,
    "lng": 3.781595,
    "transactions": [
      {
        "date": "2023-12-01",
        "priceEur": 690000,
        "typeLocal": "Maison",
        "surfaceM2": 133,
        "isVefa": false
      },
      {
        "date": "2023-12-01",
        "priceEur": 690000,
        "typeLocal": "Maison",
        "surfaceM2": 133,
        "isVefa": false
      }
    ]
  },
  "0aa337bc9cec": {
    "id": "0aa337bc9cec",
    "label": "44 IMP PLAN DE MAULE, Grabels",
    "lat": 43.656247,
    "lng": 3.785162,
    "transactions": [
      {
        "date": "2024-07-05",
        "priceEur": 383650,
        "typeLocal": "Maison",
        "surfaceM2": 94,
        "isVefa": false
      }
    ]
  },
  "1503a4fbaf95": {
    "id": "1503a4fbaf95",
    "label": "365 RUE RUE ALPHONSE DAUDET, Grabels",
    "lat": 43.657022,
    "lng": 3.786413,
    "transactions": [
      {
        "date": "2024-08-05",
        "priceEur": 898500,
        "typeLocal": "Maison",
        "surfaceM2": 184,
        "isVefa": false
      },
      {
        "date": "2024-08-05",
        "priceEur": 898500,
        "typeLocal": "Maison",
        "surfaceM2": 184,
        "isVefa": false
      }
    ]
  },
  "b705e441e47a": {
    "id": "b705e441e47a",
    "label": "361 CHE DU MAS DE MATOUR, Grabels",
    "lat": 43.654181,
    "lng": 3.785114,
    "transactions": [
      {
        "date": "2024-12-13",
        "priceEur": 420300,
        "typeLocal": "Maison",
        "surfaceM2": 82,
        "isVefa": false
      },
      {
        "date": "2024-12-13",
        "priceEur": 420300,
        "typeLocal": "Maison",
        "surfaceM2": 82,
        "isVefa": false
      }
    ]
  }
}