{
  "8637482330dc": {
    "id": "8637482330dc",
    "label": "9 ALL DES MELIAS, Combaillaux",
    "lat": 43.669282,
    "lng": 3.775563,
    "transactions": [
      {
        "date": "2021-02-08",
        "priceEur": 450300,
        "typeLocal": "Maison",
        "surfaceM2": 120,
        "isVefa": false
      }
    ]
  },
  "c855849b7b0b": {
    "id": "c855849b7b0b",
    "label": "45 ALL DES SANTOLINES, Combaillaux",
    "lat": 43.668601,
    "lng": 3.768733,
    "transactions": [
      {
        "date": "2022-06-29",
        "priceEur": 498728,
        "typeLocal": "Maison",
        "surfaceM2": 117,
        "isVefa": false
      },
      {
        "date": "2021-02-11",
        "priceEur": 407560,
        "typeLocal": "Maison",
        "surfaceM2": 117,
        "isVefa": false
      }
    ]
  },
  "43fd0ea6e534": {
    "id": "43fd0ea6e534",
    "label": "480B CHE DES PEYRIDISSES, Combaillaux",
    "lat": 43.670527,
    "lng": 3.771227,
    "transactions": [
      {
        "date": "2021-04-28",
        "priceEur": 228000,
        "typeLocal": "Maison",
        "surfaceM2": 124,
        "isVefa": false
      }
    ]
  },
  "de796d9b126b": {
    "id": "de796d9b126b",
    "label": "50 LOT LES MICOCOULIERS, Combaillaux",
    "lat": 43.669421,
    "lng": 3.779032,
    "transactions": [
      {
        "date": "2021-07-19",
        "priceEur": 509280,
        "typeLocal": "Maison",
        "surfaceM2": 146,
        "isVefa": false
      },
      {
        "date": "2021-05-10",
        "priceEur": 322500,
        "typeLocal": "Maison",
        "surfaceM2": 146,
        "isVefa": false
      }
    ]
  },
  "93726f161cc9": {
    "id": "93726f161cc9",
    "label": "50B LOT LES MICOCOULIERS, Combaillaux",
    "lat": 43.669278,
    "lng": 3.778722,
    "transactions": [
      {
        "date": "2021-05-10",
        "priceEur": 322500,
        "typeLocal": "Maison",
        "surfaceM2": 100,
        "isVefa": false
      }
    ]
  },
  "64e8347cd090": {
    "id": "64e8347cd090",
    "label": "2 ALL DU PREVERT, Combaillaux",
    "lat": 43.67545,
    "lng": 3.776554,
    "transactions": [
      {
        "date": "2021-11-16",
        "priceEur": 305000,
        "typeLocal": "Maison",
        "surfaceM2": 110,
        "isVefa": false
      }
    ]
  },
  "6fefb60c9425": {
    "id": "6fefb60c9425",
    "label": "120 ALL DES SYRAHS, Combaillaux",
    "lat": 43.671251,
    "lng": 3.774724,
    "transactions": [
      {
        "date": "2022-01-19",
        "priceEur": 374000,
        "typeLocal": "Maison",
        "surfaceM2": 91,
        "isVefa": false
      }
    ]
  },
  "bad9f8349c88": {
    "id": "bad9f8349c88",
    "label": "65 ALL DES SANTOLINES, Combaillaux",
    "lat": 43.668806,
    "lng": 3.768963,
    "transactions": [
      {
        "date": "2022-04-28",
        "priceEur": 466000,
        "typeLocal": "Maison",
        "surfaceM2": 131,
        "isVefa": false
      }
    ]
  },
  "72c2fc9f1b86": {
    "id": "72c2fc9f1b86",
    "label": "100A PL AUX JEUNES, Combaillaux",
    "lat": 43.672759,
    "lng": 3.772518,
    "transactions": [
      {
        "date": "2022-12-01",
        "priceEur": 516721.78,
        "typeLocal": "Maison",
        "surfaceM2": 65,
        "isVefa": false
      },
      {
        "date": "2022-06-17",
        "priceEur": 710000,
        "typeLocal": "Maison",
        "surfaceM2": 65,
        "isVefa": false
      }
    ]
  },
  "18d3bb2d4831": {
    "id": "18d3bb2d4831",
    "label": "7 ALL DES MELIAS, Combaillaux",
    "lat": 43.669756,
    "lng": 3.775662,
    "transactions": [
      {
        "date": "2022-07-05",
        "priceEur": 539965,
        "typeLocal": "Maison",
        "surfaceM2": 135,
        "isVefa": false
      },
      {
        "date": "2022-07-05",
        "priceEur": 539965,
        "typeLocal": "Maison",
        "surfaceM2": 135,
        "isVefa": false
      }
    ]
  },
  "80a40874cadf": {
    "id": "80a40874cadf",
    "label": "9 ALL DES MAS, Combaillaux",
    "lat": 43.674061,
    "lng": 3.778015,
    "transactions": [
      {
        "date": "2022-07-29",
        "priceEur": 449830,
        "typeLocal": "Maison",
        "surfaceM2": 93,
        "isVefa": false
      },
      {
        "date": "2022-07-29",
        "priceEur": 449830,
        "typeLocal": "Maison",
        "surfaceM2": 93,
        "isVefa": false
      }
    ]
  },
  "cf12b067294e": {
    "id": "cf12b067294e",
    "label": "2 ALL DES CIGALES, Combaillaux",
    "lat": 43.671586,
    "lng": 3.769033,
    "transactions": [
      {
        "date": "2022-09-07",
        "priceEur": 564780,
        "typeLocal": "Maison",
        "surfaceM2": 93,
        "isVefa": false
      },
      {
        "date": "2022-09-07",
        "priceEur": 564780,
        "typeLocal": "Maison",
        "surfaceM2": 93,
        "isVefa": false
      }
    ]
  },
  "2276905d3aa5": {
    "id": "2276905d3aa5",
    "label": "70 ALL DES SYRAHS, Combaillaux",
    "lat": 43.671198,
    "lng": 3.775117,
    "transactions": [
      {
        "date": "2022-09-28",
        "priceEur": 453000,
        "typeLocal": "Maison",
        "surfaceM2": 83,
        "isVefa": false
      }
    ]
  },
  "e3f3714918fd": {
    "id": "e3f3714918fd",
    "label": "5 CHE DU TREMOU, Combaillaux",
    "lat": 43.672827,
    "lng": 3.768538,
    "transactions": [
      {
        "date": "2023-02-01",
        "priceEur": 314300,
        "typeLocal": "Maison",
        "surfaceM2": 73,
        "isVefa": false
      },
      {
        "date": "2022-10-06",
        "priceEur": 354300,
        "typeLocal": "Maison",
        "surfaceM2": 73,
        "isVefa": false
      }
    ]
  },
  "750263344b5f": {
    "id": "750263344b5f",
    "label": "165B CHE DU TREMOU, Combaillaux",
    "lat": 43.672047,
    "lng": 3.768949,
    "transactions": [
      {
        "date": "2023-03-20",
        "priceEur": 746190,
        "typeLocal": "Maison",
        "surfaceM2": 138,
        "isVefa": false
      },
      {
        "date": "2023-03-20",
        "priceEur": 746190,
        "typeLocal": "Maison",
        "surfaceM2": 138,
        "isVefa": false
      }
    ]
  },
  "bd9c41f90c1f": {
    "id": "bd9c41f90c1f",
    "label": "20 ALL DES SYRAHS, Combaillaux",
    "lat": 43.670989,
    "lng": 3.775323,
    "transactions": [
      {
        "date": "2023-08-29",
        "priceEur": 482000,
        "typeLocal": "Maison",
        "surfaceM2": 100,
        "isVefa": false
      }
    ]
  },
  "ceb135e9d434": {
    "id": "ceb135e9d434",
    "label": "3 ALL DES AMANDIERS, Combaillaux",
    "lat": 43.670656,
    "lng": 3.774099,
    "transactions": [
      {
        "date": "2024-04-17",
        "priceEur": 559250,
        "typeLocal": "Maison",
        "surfaceM2": 151,
        "isVefa": false
      },
      {
        "date": "2024-04-17",
        "priceEur": 559250,
        "typeLocal": "Maison",
        "surfaceM2": 151,
        "isVefa": false
      }
    ]
  },
  "3dc13b3e58fc": {
    "id": "3dc13b3e58fc",
    "label": "910A RTE DE GRABELS, Combaillaux",
    "lat": 43.670718,
    "lng": 3.77355,
    "transactions": [
      {
        "date": "2024-08-02",
        "priceEur": 580000,
        "typeLocal": "Maison",
        "surfaceM2": 141,
        "isVefa": false
      }
    ]
  },
  "d6010f69313f": {
    "id": "d6010f69313f",
    "label": "235 CHE DES DRAILLES, Combaillaux",
    "lat": 43.668627,
    "lng": 3.774337,
    "transactions": [
      {
        "date": "2024-10-31",
        "priceEur": 150000,
        "typeLocal": "Appartement",
        "surfaceM2": 50,
        "isVefa": false
      },
      {
        "date": "2024-10-31",
        "priceEur": 150000,
        "typeLocal": "Appartement",
        "surfaceM2": 98,
        "isVefa": false
      }
    ]
  },
  "ee5b20c4a02d": {
    "id": "ee5b20c4a02d",
    "label": "100 CHE DES PEYRIDISSES, Combaillaux",
    "lat": 43.673239,
    "lng": 3.768539,
    "transactions": [
      {
        "date": "2024-12-03",
        "priceEur": 508100,
        "typeLocal": "Maison",
        "surfaceM2": 130,
        "isVefa": false
      },
      {
        "date": "2024-12-03",
        "priceEur": 508100,
        "typeLocal": "Maison",
        "surfaceM2": 130,
        "isVefa": false
      }
    ]
  },
  "242eeb4e80f7": {
    "id": "242eeb4e80f7",
    "label": "8 ALL DES ROMARINS, Combaillaux",
    "lat": 43.668625,
    "lng": 3.778324,
    "transactions": [
      {
        "date": "2025-02-21",
        "priceEur": 400250,
        "typeLocal": "Maison",
        "surfaceM2": 80,
        "isVefa": false
      },
      {
        "date": "2025-02-21",
        "priceEur": 400250,
        "typeLocal": "Maison",
        "surfaceM2": 80,
        "isVefa": false
      }
    ]
  },
  "d7c6db5a69ab": {
    "id": "d7c6db5a69ab",
    "label": "50 ALL DU MONTADOU, Combaillaux",
    "lat": 43.672083,
    "lng": 3.776482,
    "transactions": [
      {
        "date": "2025-02-10",
        "priceEur": 513700,
        "typeLocal": "Maison",
        "surfaceM2": 135,
        "isVefa": false
      },
      {
        "date": "2025-02-10",
        "priceEur": 513700,
        "typeLocal": "Maison",
        "surfaceM2": 135,
        "isVefa": false
      }
    ]
  }
}