{
  "6b2c878945f6": {
    "id": "6b2c878945f6",
    "label": "2 IMP MAS DU CURE, Vic-la-Gardiole",
    "lat": 43.472589,
    "lng": 3.774902,
    "transactions": [
      {
        "date": "2021-10-01",
        "priceEur": 863000,
        "typeLocal": "Maison",
        "surfaceM2": 196,
        "isVefa": false
      },
      {
        "date": "2021-10-01",
        "priceEur": 863000,
        "typeLocal": "Maison",
        "surfaceM2": 196,
        "isVefa": false
      }
    ]
  },
  "1ca3b64ad3ae": {
    "id": "1ca3b64ad3ae",
    "label": "62 CHEM DES MARAICHERS, Vic-la-Gardiole",
    "lat": 43.476142,
    "lng": 3.775457,
    "transactions": [
      {
        "date": "2021-11-03",
        "priceEur": 528300,
        "typeLocal": "Maison",
        "surfaceM2": 120,
        "isVefa": false
      },
      {
        "date": "2021-11-03",
        "priceEur": 528300,
        "typeLocal": "Maison",
        "surfaceM2": 120,
        "isVefa": false
      }
    ]
  },
  "033e8dc71b2a": {
    "id": "033e8dc71b2a",
    "label": "48 MAS DE BERTHES, Vic-la-Gardiole",
    "lat": 43.474951,
    "lng": 3.775217,
    "transactions": [
      {
        "date": "2022-11-30",
        "priceEur": 166000,
        "typeLocal": "Maison",
        "surfaceM2": 38,
        "isVefa": false
      },
      {
        "date": "2022-11-30",
        "priceEur": 166000,
        "typeLocal": "Maison",
        "surfaceM2": 38,
        "isVefa": false
      }
    ]
  },
  "77751078821a": {
    "id": "77751078821a",
    "label": "13 CHEM DE LA POULE D EAU, Vic-la-Gardiole",
    "lat": 43.471836,
    "lng": 3.774582,
    "transactions": [
      {
        "date": "2023-06-30",
        "priceEur": 995000,
        "typeLocal": "Maison",
        "surfaceM2": 120,
        "isVefa": false
      },
      {
        "date": "2023-06-30",
        "priceEur": 995000,
        "typeLocal": "Maison",
        "surfaceM2": 192,
        "isVefa": false
      },
      {
        "date": "2023-06-30",
        "priceEur": 995000,
        "typeLocal": "Maison",
        "surfaceM2": 192,
        "isVefa": false
      }
    ]
  },
  "0f80cc20d256": {
    "id": "0f80cc20d256",
    "label": "44B CHEM DES MARAICHERS, Vic-la-Gardiole",
    "lat": 43.474943,
    "lng": 3.774772,
    "transactions": [
      {
        "date": "2023-10-30",
        "priceEur": 330800,
        "typeLocal": "Maison",
        "surfaceM2": 170,
        "isVefa": false
      }
    ]
  },
  "8d7bcdcc25f3": {
    "id": "8d7bcdcc25f3",
    "label": "13 IMP MAS DU CURE, Vic-la-Gardiole",
    "lat": 43.473626,
    "lng": 3.775475,
    "transactions": [
      {
        "date": "2024-04-10",
        "priceEur": 463500,
        "typeLocal": "Appartement",
        "surfaceM2": 144,
        "isVefa": false
      },
      {
        "date": "2024-04-10",
        "priceEur": 463500,
        "typeLocal": "Appartement",
        "surfaceM2": 144,
        "isVefa": false
      }
    ]
  },
  "eb60717511f9": {
    "id": "eb60717511f9",
    "label": "5236 PLAINE BASSE OU DE BALAJAN, Vic-la-Gardiole",
    "lat": 43.473423,
    "lng": 3.774728,
    "transactions": [
      {
        "date": "2025-04-24",
        "priceEur": 362000,
        "typeLocal": "Maison",
        "surfaceM2": 145,
        "isVefa": false
      },
      {
        "date": "2025-04-24",
        "priceEur": 362000,
        "typeLocal": "Maison",
        "surfaceM2": 145,
        "isVefa": false
      }
    ]
  }
}