{
  "eb1bfc0b55e7": {
    "id": "eb1bfc0b55e7",
    "label": "436 RUE DES CANDINIERES, Buzignargues",
    "lat": 43.770205,
    "lng": 4.000132,
    "transactions": [
      {
        "date": "2020-08-18",
        "priceEur": 452350,
        "typeLocal": "Maison",
        "surfaceM2": 136,
        "isVefa": false
      },
      {
        "date": "2020-08-18",
        "priceEur": 452350,
        "typeLocal": "Maison",
        "surfaceM2": 136,
        "isVefa": false
      }
    ]
  },
  "a4785f8f8b16": {
    "id": "a4785f8f8b16",
    "label": "16 LOT LE PETIT PIOU, Buzignargues",
    "lat": 43.770859,
    "lng": 4.001976,
    "transactions": [
      {
        "date": "2020-08-12",
        "priceEur": 249700,
        "typeLocal": "Maison",
        "surfaceM2": 85,
        "isVefa": false
      }
    ]
  },
  "3a19df440417": {
    "id": "3a19df440417",
    "label": "55 CHE DU MOULIN BAS, Buzignargues",
    "lat": 43.77095,
    "lng": 4.006889,
    "transactions": [
      {
        "date": "2021-01-08",
        "priceEur": 383000,
        "typeLocal": "Maison",
        "surfaceM2": 110,
        "isVefa": false
      }
    ]
  },
  "1c9e67b527d2": {
    "id": "1c9e67b527d2",
    "label": "5004 RUE DE LA BENOVIE, Buzignargues",
    "lat": 43.770785,
    "lng": 4.005553,
    "transactions": [
      {
        "date": "2021-02-25",
        "priceEur": 92000,
        "typeLocal": "Appartement",
        "surfaceM2": 80,
        "isVefa": false
      }
    ]
  },
  "ec90d3b5c159": {
    "id": "ec90d3b5c159",
    "label": "15 RUE DU PORCHE, Buzignargues",
    "lat": 43.770534,
    "lng": 4.004328,
    "transactions": [
      {
        "date": "2021-08-11",
        "priceEur": 112850,
        "typeLocal": "Maison",
        "surfaceM2": 77,
        "isVefa": false
      }
    ]
  },
  "fb4073ce386d": {
    "id": "fb4073ce386d",
    "label": "135 RUE DES CANDINIERES, Buzignargues",
    "lat": 43.769376,
    "lng": 4.00412,
    "transactions": [
      {
        "date": "2021-08-31",
        "priceEur": 358480,
        "typeLocal": "Maison",
        "surfaceM2": 118,
        "isVefa": false
      }
    ]
  },
  "6c69fa94ead6": {
    "id": "6c69fa94ead6",
    "label": "5455F RTE DE BUZIGNARGUES, Galargues",
    "lat": 43.770919,
    "lng": 4.009541,
    "transactions": [
      {
        "date": "2021-12-09",
        "priceEur": 794941,
        "typeLocal": "Maison",
        "surfaceM2": 178,
        "isVefa": false
      },
      {
        "date": "2021-12-09",
        "priceEur": 794941,
        "typeLocal": "Maison",
        "surfaceM2": 178,
        "isVefa": false
      },
      {
        "date": "2021-12-09",
        "priceEur": 794941,
        "typeLocal": "Maison",
        "surfaceM2": 178,
        "isVefa": false
      }
    ]
  },
  "ad7565547117": {
    "id": "ad7565547117",
    "label": "32 RUE DE LA BENOVIE, Buzignargues",
    "lat": 43.770379,
    "lng": 4.005762,
    "transactions": [
      {
        "date": "2022-05-25",
        "priceEur": 739950,
        "typeLocal": "Appartement",
        "surfaceM2": 50,
        "isVefa": false
      },
      {
        "date": "2022-05-25",
        "priceEur": 739950,
        "typeLocal": "Appartement",
        "surfaceM2": 132,
        "isVefa": false
      }
    ]
  },
  "1be9638cabfe": {
    "id": "1be9638cabfe",
    "label": "435 RUE DES CANDINIERES, Buzignargues",
    "lat": 43.770217,
    "lng": 4.000608,
    "transactions": [
      {
        "date": "2022-08-02",
        "priceEur": 575000,
        "typeLocal": "Maison",
        "surfaceM2": 159,
        "isVefa": false
      }
    ]
  },
  "8e71faee7cc5": {
    "id": "8e71faee7cc5",
    "label": "100 RUE DES CANDINIERES, Buzignargues",
    "lat": 43.770129,
    "lng": 4.00396,
    "transactions": [
      {
        "date": "2022-11-15",
        "priceEur": 220550,
        "typeLocal": "Appartement",
        "surfaceM2": 66,
        "isVefa": false
      }
    ]
  },
  "a8cfda505bc9": {
    "id": "a8cfda505bc9",
    "label": "11 CHE DU MOULIN HT, Buzignargues",
    "lat": 43.770725,
    "lng": 4.001311,
    "transactions": [
      {
        "date": "2025-03-07",
        "priceEur": 405356,
        "typeLocal": "Maison",
        "surfaceM2": 114,
        "isVefa": false
      },
      {
        "date": "2023-01-17",
        "priceEur": 425749,
        "typeLocal": "Maison",
        "surfaceM2": 114,
        "isVefa": false
      }
    ]
  },
  "1cae5429ee4c": {
    "id": "1cae5429ee4c",
    "label": "8 RUE DE LA MONTADE, Buzignargues",
    "lat": 43.769761,
    "lng": 3.999537,
    "transactions": [
      {
        "date": "2023-07-27",
        "priceEur": 35,
        "typeLocal": "Maison",
        "surfaceM2": 159,
        "isVefa": false
      }
    ]
  },
  "e7f8769c90fb": {
    "id": "e7f8769c90fb",
    "label": "58 RUE DE LA CANTONADE, Buzignargues",
    "lat": 43.770987,
    "lng": 4.004016,
    "transactions": [
      {
        "date": "2024-10-28",
        "priceEur": 263100,
        "typeLocal": "Maison",
        "surfaceM2": 60,
        "isVefa": false
      }
    ]
  },
  "77a2740b1be3": {
    "id": "77a2740b1be3",
    "label": "94 CHE L'HORT DE NORAT, Buzignargues",
    "lat": 43.769393,
    "lng": 4.001573,
    "transactions": [
      {
        "date": "2025-01-09",
        "priceEur": 96000,
        "typeLocal": "Maison",
        "surfaceM2": 88,
        "isVefa": false
      }
    ]
  },
  "03514f43fc60": {
    "id": "03514f43fc60",
    "label": "26 PL DE L EGLISE, Buzignargues",
    "lat": 43.770963,
    "lng": 4.005515,
    "transactions": [
      {
        "date": "2025-03-27",
        "priceEur": 242500,
        "typeLocal": "Maison",
        "surfaceM2": 150,
        "isVefa": false
      }
    ]
  }
}