{
  "fac3e1837ebd": {
    "id": "fac3e1837ebd",
    "label": "2A RLE BENY, Linselles",
    "lat": 50.744269,
    "lng": 3.061193,
    "transactions": [
      {
        "date": "2020-07-31",
        "priceEur": 479820,
        "typeLocal": "Maison",
        "surfaceM2": 148,
        "isVefa": false
      }
    ]
  },
  "4e5a51c1cb4b": {
    "id": "4e5a51c1cb4b",
    "label": "160A RUE DE WERVICQ, Linselles",
    "lat": 50.743799,
    "lng": 3.061164,
    "transactions": [
      {
        "date": "2020-08-19",
        "priceEur": 443950,
        "typeLocal": "Maison",
        "surfaceM2": 122,
        "isVefa": false
      }
    ]
  },
  "2c9178e738e8": {
    "id": "2c9178e738e8",
    "label": "160C RUE DE WERVICQ, Linselles",
    "lat": 50.743986,
    "lng": 3.061795,
    "transactions": [
      {
        "date": "2020-09-28",
        "priceEur": 548850,
        "typeLocal": "Maison",
        "surfaceM2": 200,
        "isVefa": false
      }
    ]
  },
  "c0bf23a5f670": {
    "id": "c0bf23a5f670",
    "label": "37 CRUMESSE, Bousbecque",
    "lat": 50.748958,
    "lng": 3.063672,
    "transactions": [
      {
        "date": "2020-12-23",
        "priceEur": 1142820,
        "typeLocal": "Maison",
        "surfaceM2": 330,
        "isVefa": false
      }
    ]
  },
  "5b508175c3ab": {
    "id": "5b508175c3ab",
    "label": "160E RUE DE WERVICQ, Linselles",
    "lat": 50.744125,
    "lng": 3.062497,
    "transactions": [
      {
        "date": "2021-04-01",
        "priceEur": 610000,
        "typeLocal": "Maison",
        "surfaceM2": 193,
        "isVefa": false
      }
    ]
  },
  "d6dd07673e52": {
    "id": "d6dd07673e52",
    "label": "14 RLE BENY, Linselles",
    "lat": 50.744717,
    "lng": 3.06217,
    "transactions": [
      {
        "date": "2022-05-17",
        "priceEur": 600000,
        "typeLocal": "Maison",
        "surfaceM2": 164,
        "isVefa": false
      }
    ]
  },
  "8a88593355ef": {
    "id": "8a88593355ef",
    "label": "163 RUE DE LINSELLES, Wervicq-Sud",
    "lat": 50.745615,
    "lng": 3.059278,
    "transactions": [
      {
        "date": "2024-07-04",
        "priceEur": 455000,
        "typeLocal": "Maison",
        "surfaceM2": 155,
        "isVefa": false
      }
    ]
  }
}