{
  "e1676b555ea2": {
    "id": "e1676b555ea2",
    "label": "41 GRAVIER DU ROBINET, Wervicq-Sud",
    "lat": 50.763489,
    "lng": 3.054308,
    "transactions": [
      {
        "date": "2020-11-13",
        "priceEur": 434900,
        "typeLocal": "Maison",
        "surfaceM2": 144,
        "isVefa": false
      }
    ]
  },
  "f7f63b6d850f": {
    "id": "f7f63b6d850f",
    "label": "25 ALL DES PRIMEVERES, Wervicq-Sud",
    "lat": 50.763121,
    "lng": 3.055884,
    "transactions": [
      {
        "date": "2021-09-20",
        "priceEur": 406440,
        "typeLocal": "Maison",
        "surfaceM2": 112,
        "isVefa": false
      }
    ]
  },
  "5bb947bbc283": {
    "id": "5bb947bbc283",
    "label": "59 CHE DE LA BASSE VILLE, Bousbecque",
    "lat": 50.760689,
    "lng": 3.059822,
    "transactions": [
      {
        "date": "2021-09-16",
        "priceEur": 465950,
        "typeLocal": "Maison",
        "surfaceM2": 168,
        "isVefa": false
      }
    ]
  },
  "f3497d327b27": {
    "id": "f3497d327b27",
    "label": "5000 CHE DES OBLARDS, Wervicq-Sud",
    "lat": 50.761661,
    "lng": 3.056636,
    "transactions": [
      {
        "date": "2021-11-19",
        "priceEur": 245000,
        "typeLocal": "Maison",
        "surfaceM2": 110,
        "isVefa": false
      }
    ]
  },
  "fc56dd5d3a25": {
    "id": "fc56dd5d3a25",
    "label": "54 CHE DE LA BASSE VILLE, Bousbecque",
    "lat": 50.764039,
    "lng": 3.063674,
    "transactions": [
      {
        "date": "2022-12-02",
        "priceEur": 744000,
        "typeLocal": "Maison",
        "surfaceM2": 192,
        "isVefa": false
      }
    ]
  },
  "0174890df4c4": {
    "id": "0174890df4c4",
    "label": "5B ALL DES PRIMEVERES, Wervicq-Sud",
    "lat": 50.764072,
    "lng": 3.057605,
    "transactions": [
      {
        "date": "2023-08-31",
        "priceEur": 353000,
        "typeLocal": "Maison",
        "surfaceM2": 126,
        "isVefa": false
      }
    ]
  }
}