{
  "8c09dc597155": {
    "id": "8c09dc597155",
    "label": "3 LOT LOTISSEMENT LOU CLAOUS, Nizas",
    "lat": 43.515285,
    "lng": 3.404843,
    "transactions": [
      {
        "date": "2020-09-04",
        "priceEur": 268661,
        "typeLocal": "Maison",
        "surfaceM2": 110,
        "isVefa": false
      }
    ]
  },
  "473565a96863": {
    "id": "473565a96863",
    "label": "11 CHE DES HORTS, Nizas",
    "lat": 43.512796,
    "lng": 3.404513,
    "transactions": [
      {
        "date": "2020-10-02",
        "priceEur": 141740,
        "typeLocal": "Maison",
        "surfaceM2": 68,
        "isVefa": false
      }
    ]
  },
  "e4ca9c5f42c0": {
    "id": "e4ca9c5f42c0",
    "label": "9 CHE DES HORTS, Nizas",
    "lat": 43.512674,
    "lng": 3.404983,
    "transactions": [
      {
        "date": "2021-09-28",
        "priceEur": 225050,
        "typeLocal": "Maison",
        "surfaceM2": 127,
        "isVefa": false
      },
      {
        "date": "2021-09-28",
        "priceEur": 225050,
        "typeLocal": "Maison",
        "surfaceM2": 127,
        "isVefa": false
      }
    ]
  },
  "6a66e1018a87": {
    "id": "6a66e1018a87",
    "label": "1 RUE DE L'ESCOUTE, Nizas",
    "lat": 43.514112,
    "lng": 3.405264,
    "transactions": [
      {
        "date": "2024-01-29",
        "priceEur": 264000,
        "typeLocal": "Maison",
        "surfaceM2": 102,
        "isVefa": false
      },
      {
        "date": "2022-04-05",
        "priceEur": 258450,
        "typeLocal": "Maison",
        "surfaceM2": 88,
        "isVefa": false
      }
    ]
  },
  "efd7f6ebce36": {
    "id": "efd7f6ebce36",
    "label": "2 IMP DES COSTETTES, Nizas",
    "lat": 43.511953,
    "lng": 3.401358,
    "transactions": [
      {
        "date": "2022-10-21",
        "priceEur": 386060,
        "typeLocal": "Maison",
        "surfaceM2": 155,
        "isVefa": false
      }
    ]
  },
  "e6b8e5565902": {
    "id": "e6b8e5565902",
    "label": "6 CHE DES HORTS, Nizas",
    "lat": 43.513278,
    "lng": 3.404978,
    "transactions": [
      {
        "date": "2023-01-19",
        "priceEur": 170000,
        "typeLocal": "Maison",
        "surfaceM2": 83,
        "isVefa": false
      }
    ]
  },
  "f6d2a9740010": {
    "id": "f6d2a9740010",
    "label": "16 CHE DES CHATAIGNIERS, Nizas",
    "lat": 43.511103,
    "lng": 3.404532,
    "transactions": [
      {
        "date": "2024-04-22",
        "priceEur": 228220,
        "typeLocal": "Maison",
        "surfaceM2": 80,
        "isVefa": false
      }
    ]
  },
  "9e73c0e74d9d": {
    "id": "9e73c0e74d9d",
    "label": "6 LE CAYRONET, Nizas",
    "lat": 43.514921,
    "lng": 3.405464,
    "transactions": [
      {
        "date": "2024-05-16",
        "priceEur": 215000,
        "typeLocal": "Maison",
        "surfaceM2": 92,
        "isVefa": false
      }
    ]
  },
  "625848e093b2": {
    "id": "625848e093b2",
    "label": "5 RUE DES CHENES, Nizas",
    "lat": 43.511511,
    "lng": 3.402791,
    "transactions": [
      {
        "date": "2025-04-28",
        "priceEur": 246870,
        "typeLocal": "Maison",
        "surfaceM2": 89,
        "isVefa": false
      },
      {
        "date": "2024-09-10",
        "priceEur": 212660,
        "typeLocal": "Maison",
        "surfaceM2": 89,
        "isVefa": false
      }
    ]
  },
  "e5721b10e8c1": {
    "id": "e5721b10e8c1",
    "label": "1 LOT LOTISSEMENT LOU CLAOUS, Nizas",
    "lat": 43.515548,
    "lng": 3.405306,
    "transactions": [
      {
        "date": "2024-10-04",
        "priceEur": 207600,
        "typeLocal": "Maison",
        "surfaceM2": 93,
        "isVefa": false
      }
    ]
  },
  "da2d67ed189c": {
    "id": "da2d67ed189c",
    "label": "3 RUE DE L'ESCOUTE, Nizas",
    "lat": 43.514271,
    "lng": 3.404928,
    "transactions": [
      {
        "date": "2024-10-16",
        "priceEur": 278000,
        "typeLocal": "Maison",
        "surfaceM2": 102,
        "isVefa": false
      }
    ]
  },
  "2014320e6eb3": {
    "id": "2014320e6eb3",
    "label": "17 AV DES GENETS, Nizas",
    "lat": 43.51156,
    "lng": 3.403159,
    "transactions": [
      {
        "date": "2024-10-24",
        "priceEur": 257500,
        "typeLocal": "Maison",
        "surfaceM2": 96,
        "isVefa": false
      }
    ]
  }
}