{
  "798f0e5d36e6": {
    "id": "798f0e5d36e6",
    "label": "1609 CHE DE SAINT SIMEON, Pézenas",
    "lat": 43.460651,
    "lng": 3.405543,
    "transactions": [
      {
        "date": "2020-09-09",
        "priceEur": 834500,
        "typeLocal": "Maison",
        "surfaceM2": 126,
        "isVefa": false
      }
    ]
  },
  "a19d3a914ecd": {
    "id": "a19d3a914ecd",
    "label": "685 AV JB SALVAING ET J SCHNEIDER, Pézenas",
    "lat": 43.460042,
    "lng": 3.402131,
    "transactions": [
      {
        "date": "2020-12-22",
        "priceEur": 370000,
        "typeLocal": "Maison",
        "surfaceM2": 121,
        "isVefa": false
      },
      {
        "date": "2020-12-22",
        "priceEur": 370000,
        "typeLocal": "Maison",
        "surfaceM2": 121,
        "isVefa": false
      }
    ]
  },
  "c227a00d37fe": {
    "id": "c227a00d37fe",
    "label": "2 IMP DU CARROUX, Pézenas",
    "lat": 43.460773,
    "lng": 3.402079,
    "transactions": [
      {
        "date": "2021-01-18",
        "priceEur": 414400,
        "typeLocal": "Maison",
        "surfaceM2": 105,
        "isVefa": false
      }
    ]
  },
  "ef3e987512ed": {
    "id": "ef3e987512ed",
    "label": "609 AV JB SALVAING ET J SCHNEIDER, Pézenas",
    "lat": 43.460258,
    "lng": 3.402209,
    "transactions": [
      {
        "date": "2021-03-12",
        "priceEur": 105000,
        "typeLocal": "Maison",
        "surfaceM2": 193,
        "isVefa": false
      }
    ]
  },
  "df33bfe160d2": {
    "id": "df33bfe160d2",
    "label": "567 AV JB SALVAING ET J SCHNEIDER, Pézenas",
    "lat": 43.459994,
    "lng": 3.403075,
    "transactions": [
      {
        "date": "2021-12-28",
        "priceEur": 262700,
        "typeLocal": "Maison",
        "surfaceM2": 128,
        "isVefa": false
      }
    ]
  },
  "1de03dabb919": {
    "id": "1de03dabb919",
    "label": "3 IMP DE LA SOURCE, Pézenas",
    "lat": 43.459407,
    "lng": 3.403975,
    "transactions": [
      {
        "date": "2022-05-31",
        "priceEur": 474000,
        "typeLocal": "Maison",
        "surfaceM2": 139,
        "isVefa": false
      }
    ]
  },
  "5badbb0bfd79": {
    "id": "5badbb0bfd79",
    "label": "1 RUE GEORGES FRAISSINET, Pézenas",
    "lat": 43.460641,
    "lng": 3.402826,
    "transactions": [
      {
        "date": "2023-01-13",
        "priceEur": 420000,
        "typeLocal": "Maison",
        "surfaceM2": 114,
        "isVefa": false
      }
    ]
  },
  "11e6f9d1f19f": {
    "id": "11e6f9d1f19f",
    "label": "2 RUE GEORGES FRAISSINET, Pézenas",
    "lat": 43.460535,
    "lng": 3.403192,
    "transactions": [
      {
        "date": "2023-06-30",
        "priceEur": 345750,
        "typeLocal": "Maison",
        "surfaceM2": 126,
        "isVefa": false
      }
    ]
  },
  "97c9beb3c59f": {
    "id": "97c9beb3c59f",
    "label": "521 AV JB SALVAING ET J SCHNEIDER, Pézenas",
    "lat": 43.459967,
    "lng": 3.403779,
    "transactions": [
      {
        "date": "2023-08-31",
        "priceEur": 281800,
        "typeLocal": "Maison",
        "surfaceM2": 100,
        "isVefa": false
      }
    ]
  },
  "0d013ff139c6": {
    "id": "0d013ff139c6",
    "label": "3 RUE NELLO RIGHETTI, Pézenas",
    "lat": 43.460834,
    "lng": 3.398562,
    "transactions": [
      {
        "date": "2023-12-22",
        "priceEur": 476000,
        "typeLocal": "Maison",
        "surfaceM2": 139,
        "isVefa": false
      }
    ]
  },
  "e4e798b337fb": {
    "id": "e4e798b337fb",
    "label": "697 AV JB SALVAING ET J SCHNEIDER, Pézenas",
    "lat": 43.460435,
    "lng": 3.401498,
    "transactions": [
      {
        "date": "2024-08-28",
        "priceEur": 418500,
        "typeLocal": "Maison",
        "surfaceM2": 130,
        "isVefa": false
      }
    ]
  }
}