{
  "988760cdaac9": {
    "id": "988760cdaac9",
    "label": "42 RUE DU ROUAGE, Hautot-sur-Seine",
    "lat": 49.365178,
    "lng": 0.978009,
    "transactions": [
      {
        "date": "2020-09-18",
        "priceEur": 82500,
        "typeLocal": "Maison",
        "surfaceM2": 48,
        "isVefa": false
      }
    ]
  },
  "de96c93f30d6": {
    "id": "de96c93f30d6",
    "label": "14 RUE DES FARCEAUX, Hautot-sur-Seine",
    "lat": 49.361628,
    "lng": 0.980253,
    "transactions": [
      {
        "date": "2021-07-06",
        "priceEur": 308000,
        "typeLocal": "Maison",
        "surfaceM2": 140,
        "isVefa": false
      }
    ]
  },
  "8a81a818471c": {
    "id": "8a81a818471c",
    "label": "38B RUE DU ROUAGE, Hautot-sur-Seine",
    "lat": 49.365178,
    "lng": 0.978009,
    "transactions": [
      {
        "date": "2021-08-30",
        "priceEur": 108000,
        "typeLocal": "Maison",
        "surfaceM2": 58,
        "isVefa": false
      }
    ]
  },
  "d96f47ac19fc": {
    "id": "d96f47ac19fc",
    "label": "11 RUE DU ROUAGE, Hautot-sur-Seine",
    "lat": 49.362505,
    "lng": 0.978827,
    "transactions": [
      {
        "date": "2021-08-27",
        "priceEur": 115000,
        "typeLocal": "Maison",
        "surfaceM2": 110,
        "isVefa": false
      }
    ]
  },
  "e3fa3b35a1d0": {
    "id": "e3fa3b35a1d0",
    "label": "5013 LE VILLAGE, Hautot-sur-Seine",
    "lat": 49.361593,
    "lng": 0.978303,
    "transactions": [
      {
        "date": "2022-05-25",
        "priceEur": 130000,
        "typeLocal": "Maison",
        "surfaceM2": 136,
        "isVefa": false
      }
    ]
  },
  "f52e3a02c9f9": {
    "id": "f52e3a02c9f9",
    "label": "23B RUE DU ROUAGE, Hautot-sur-Seine",
    "lat": 49.363876,
    "lng": 0.978996,
    "transactions": [
      {
        "date": "2023-06-13",
        "priceEur": 163424.56,
        "typeLocal": "Maison",
        "surfaceM2": 162,
        "isVefa": false
      }
    ]
  },
  "39b557a2eda6": {
    "id": "39b557a2eda6",
    "label": "38A RUE DU ROUAGE, Hautot-sur-Seine",
    "lat": 49.365178,
    "lng": 0.978009,
    "transactions": [
      {
        "date": "2023-08-04",
        "priceEur": 105000,
        "typeLocal": "Appartement",
        "surfaceM2": 58,
        "isVefa": false
      }
    ]
  }
}