{
  "c0aff2f32905": {
    "id": "c0aff2f32905",
    "label": "10 RUE DES GROSSES PIERRES, Déville-lès-Rouen",
    "lat": 49.469092,
    "lng": 1.037422,
    "transactions": [
      {
        "date": "2020-07-20",
        "priceEur": 180000,
        "typeLocal": "Maison",
        "surfaceM2": 81,
        "isVefa": false
      }
    ]
  },
  "e64a66a02e98": {
    "id": "e64a66a02e98",
    "label": "7 RUE DES GROSSES PIERRES, Maromme",
    "lat": 49.471587,
    "lng": 1.0368,
    "transactions": [
      {
        "date": "2020-07-27",
        "priceEur": 70500,
        "typeLocal": "Maison",
        "surfaceM2": 30,
        "isVefa": false
      }
    ]
  },
  "80e273dd594f": {
    "id": "80e273dd594f",
    "label": "5 RUE CHARLES CAPELLE, Maromme",
    "lat": 49.474376,
    "lng": 1.039021,
    "transactions": [
      {
        "date": "2020-07-28",
        "priceEur": 126000,
        "typeLocal": "Maison",
        "surfaceM2": 91,
        "isVefa": false
      }
    ]
  },
  "ee500e5584f0": {
    "id": "ee500e5584f0",
    "label": "33 RUE JOSEPH DELATTRE, Maromme",
    "lat": 49.475132,
    "lng": 1.033455,
    "transactions": [
      {
        "date": "2025-01-08",
        "priceEur": 16000,
        "typeLocal": "Appartement",
        "surfaceM2": 25,
        "isVefa": false
      },
      {
        "date": "2024-07-03",
        "priceEur": 54000,
        "typeLocal": "Appartement",
        "surfaceM2": 25,
        "isVefa": false
      },
      {
        "date": "2022-12-19",
        "priceEur": 50000,
        "typeLocal": "Appartement",
        "surfaceM2": 25,
        "isVefa": false
      },
      {
        "date": "2021-05-11",
        "priceEur": 49500,
        "typeLocal": "Appartement",
        "surfaceM2": 25,
        "isVefa": false
      },
      {
        "date": "2021-05-11",
        "priceEur": 66000,
        "typeLocal": "Appartement",
        "surfaceM2": 43,
        "isVefa": false
      },
      {
        "date": "2020-11-06",
        "priceEur": 100000,
        "typeLocal": "Appartement",
        "surfaceM2": 25,
        "isVefa": false
      }
    ]
  },
  "8d1df6a9f0d9": {
    "id": "8d1df6a9f0d9",
    "label": "9007 RTE DE DUCLAIR, Maromme",
    "lat": 49.471521,
    "lng": 1.033189,
    "transactions": [
      {
        "date": "2020-10-30",
        "priceEur": 229000,
        "typeLocal": "Maison",
        "surfaceM2": 109,
        "isVefa": false
      }
    ]
  },
  "33d585c36d7e": {
    "id": "33d585c36d7e",
    "label": "24 RUE DU VALLON, Maromme",
    "lat": 49.471598,
    "lng": 1.034976,
    "transactions": [
      {
        "date": "2020-11-18",
        "priceEur": 172800,
        "typeLocal": "Maison",
        "surfaceM2": 96,
        "isVefa": false
      }
    ]
  },
  "d0c98bfffe3b": {
    "id": "d0c98bfffe3b",
    "label": "8 IMP DE L INDUSTRIE, Déville-lès-Rouen",
    "lat": 49.468718,
    "lng": 1.041812,
    "transactions": [
      {
        "date": "2020-12-21",
        "priceEur": 144000,
        "typeLocal": "Maison",
        "surfaceM2": 82,
        "isVefa": false
      }
    ]
  },
  "01b493f44d79": {
    "id": "01b493f44d79",
    "label": "3 RTE DE DUCLAIR, Maromme",
    "lat": 49.470923,
    "lng": 1.034756,
    "transactions": [
      {
        "date": "2023-04-13",
        "priceEur": 179200,
        "typeLocal": "Maison",
        "surfaceM2": 78,
        "isVefa": false
      },
      {
        "date": "2021-10-29",
        "priceEur": 169200,
        "typeLocal": "Maison",
        "surfaceM2": 78,
        "isVefa": false
      }
    ]
  },
  "473380faaf78": {
    "id": "473380faaf78",
    "label": "4 RUE GUSTAVE FLAUBERT, Maromme",
    "lat": 49.474355,
    "lng": 1.040323,
    "transactions": [
      {
        "date": "2021-12-30",
        "priceEur": 132000,
        "typeLocal": "Maison",
        "surfaceM2": 73,
        "isVefa": false
      }
    ]
  },
  "b94d354d8ae1": {
    "id": "b94d354d8ae1",
    "label": "90 RUE DE LA REPUBLIQUE, Déville-lès-Rouen",
    "lat": 49.472934,
    "lng": 1.042797,
    "transactions": [
      {
        "date": "2024-10-11",
        "priceEur": 70000,
        "typeLocal": "Appartement",
        "surfaceM2": 69,
        "isVefa": false
      },
      {
        "date": "2023-05-23",
        "priceEur": 81000,
        "typeLocal": "Appartement",
        "surfaceM2": 69,
        "isVefa": false
      },
      {
        "date": "2022-12-22",
        "priceEur": 55000,
        "typeLocal": "Appartement",
        "surfaceM2": 57,
        "isVefa": false
      },
      {
        "date": "2021-04-13",
        "priceEur": 75700,
        "typeLocal": "Appartement",
        "surfaceM2": 57,
        "isVefa": false
      },
      {
        "date": "2021-03-05",
        "priceEur": 50000,
        "typeLocal": "Appartement",
        "surfaceM2": 57,
        "isVefa": false
      },
      {
        "date": "2021-02-02",
        "priceEur": 70000,
        "typeLocal": "Appartement",
        "surfaceM2": 69,
        "isVefa": false
      }
    ]
  },
  "168dcc6d17a9": {
    "id": "168dcc6d17a9",
    "label": "84 RUE DE LA REPUBLIQUE, Déville-lès-Rouen",
    "lat": 49.472934,
    "lng": 1.042797,
    "transactions": [
      {
        "date": "2025-03-07",
        "priceEur": 77700,
        "typeLocal": "Appartement",
        "surfaceM2": 69,
        "isVefa": false
      },
      {
        "date": "2021-02-09",
        "priceEur": 75250,
        "typeLocal": "Appartement",
        "surfaceM2": 80,
        "isVefa": false
      }
    ]
  },
  "fe44ac3f6699": {
    "id": "fe44ac3f6699",
    "label": "98 RUE DE LA REPUBLIQUE, Déville-lès-Rouen",
    "lat": 49.473695,
    "lng": 1.042095,
    "transactions": [
      {
        "date": "2021-06-14",
        "priceEur": 185000,
        "typeLocal": "Maison",
        "surfaceM2": 85,
        "isVefa": false
      }
    ]
  },
  "3b31512c2aa8": {
    "id": "3b31512c2aa8",
    "label": "5 PL ROGER SALENGRO, Déville-lès-Rouen",
    "lat": 49.468245,
    "lng": 1.043128,
    "transactions": [
      {
        "date": "2021-06-30",
        "priceEur": 6333001,
        "typeLocal": "Appartement",
        "surfaceM2": 74,
        "isVefa": false
      },
      {
        "date": "2021-06-30",
        "priceEur": 6333001,
        "typeLocal": "Appartement",
        "surfaceM2": 65,
        "isVefa": false
      },
      {
        "date": "2021-06-30",
        "priceEur": 6333001,
        "typeLocal": "Appartement",
        "surfaceM2": 29,
        "isVefa": false
      }
    ]
  },
  "a1819eaba431": {
    "id": "a1819eaba431",
    "label": "2 PL ROGER SALENGRO, Déville-lès-Rouen",
    "lat": 49.468434,
    "lng": 1.043543,
    "transactions": [
      {
        "date": "2021-06-30",
        "priceEur": 6333001,
        "typeLocal": "Appartement",
        "surfaceM2": 74,
        "isVefa": false
      },
      {
        "date": "2021-06-30",
        "priceEur": 6333001,
        "typeLocal": "Appartement",
        "surfaceM2": 65,
        "isVefa": false
      },
      {
        "date": "2021-06-30",
        "priceEur": 6333001,
        "typeLocal": "Appartement",
        "surfaceM2": 95,
        "isVefa": false
      },
      {
        "date": "2021-06-30",
        "priceEur": 6333001,
        "typeLocal": "Appartement",
        "surfaceM2": 103,
        "isVefa": false
      },
      {
        "date": "2021-06-30",
        "priceEur": 6333001,
        "typeLocal": "Appartement",
        "surfaceM2": 29,
        "isVefa": false
      }
    ]
  },
  "80f2a53b8d33": {
    "id": "80f2a53b8d33",
    "label": "96 RUE DE LA REPUBLIQUE, Déville-lès-Rouen",
    "lat": 49.472934,
    "lng": 1.042797,
    "transactions": [
      {
        "date": "2025-03-17",
        "priceEur": 78000,
        "typeLocal": "Appartement",
        "surfaceM2": 69,
        "isVefa": false
      },
      {
        "date": "2024-12-31",
        "priceEur": 92000,
        "typeLocal": "Appartement",
        "surfaceM2": 80,
        "isVefa": false
      },
      {
        "date": "2024-06-07",
        "priceEur": 60000,
        "typeLocal": "Appartement",
        "surfaceM2": 69,
        "isVefa": false
      },
      {
        "date": "2021-07-07",
        "priceEur": 81800,
        "typeLocal": "Appartement",
        "surfaceM2": 80,
        "isVefa": false
      }
    ]
  },
  "ea2b1e89f58e": {
    "id": "ea2b1e89f58e",
    "label": "92 RUE DE LA REPUBLIQUE, Déville-lès-Rouen",
    "lat": 49.472934,
    "lng": 1.042797,
    "transactions": [
      {
        "date": "2024-07-15",
        "priceEur": 60000,
        "typeLocal": "Appartement",
        "surfaceM2": 69,
        "isVefa": false
      },
      {
        "date": "2024-05-06",
        "priceEur": 77500,
        "typeLocal": "Appartement",
        "surfaceM2": 69,
        "isVefa": false
      },
      {
        "date": "2022-10-21",
        "priceEur": 83300,
        "typeLocal": "Appartement",
        "surfaceM2": 69,
        "isVefa": false
      },
      {
        "date": "2021-08-18",
        "priceEur": 75000,
        "typeLocal": "Appartement",
        "surfaceM2": 69,
        "isVefa": false
      }
    ]
  },
  "e5c340b5139c": {
    "id": "e5c340b5139c",
    "label": "88 RUE DE LA REPUBLIQUE, Déville-lès-Rouen",
    "lat": 49.472934,
    "lng": 1.042797,
    "transactions": [
      {
        "date": "2025-03-19",
        "priceEur": 63800,
        "typeLocal": "Appartement",
        "surfaceM2": 57,
        "isVefa": false
      },
      {
        "date": "2025-03-13",
        "priceEur": 76500,
        "typeLocal": "Appartement",
        "surfaceM2": 57,
        "isVefa": false
      },
      {
        "date": "2023-03-17",
        "priceEur": 62000,
        "typeLocal": "Appartement",
        "surfaceM2": 57,
        "isVefa": false
      },
      {
        "date": "2021-08-30",
        "priceEur": 94000,
        "typeLocal": "Appartement",
        "surfaceM2": 69,
        "isVefa": false
      }
    ]
  },
  "e797e6179ccf": {
    "id": "e797e6179ccf",
    "label": "94 RUE DE LA REPUBLIQUE, Déville-lès-Rouen",
    "lat": 49.472934,
    "lng": 1.042797,
    "transactions": [
      {
        "date": "2024-08-28",
        "priceEur": 75000,
        "typeLocal": "Appartement",
        "surfaceM2": 57,
        "isVefa": false
      },
      {
        "date": "2023-06-27",
        "priceEur": 46500,
        "typeLocal": "Appartement",
        "surfaceM2": 69,
        "isVefa": false
      },
      {
        "date": "2022-11-04",
        "priceEur": 82000,
        "typeLocal": "Appartement",
        "surfaceM2": 69,
        "isVefa": false
      },
      {
        "date": "2021-09-29",
        "priceEur": 77000,
        "typeLocal": "Appartement",
        "surfaceM2": 69,
        "isVefa": false
      }
    ]
  },
  "132505ebea0f": {
    "id": "132505ebea0f",
    "label": "22 RUE CHARLES CAPELLE, Maromme",
    "lat": 49.474589,
    "lng": 1.037087,
    "transactions": [
      {
        "date": "2022-01-12",
        "priceEur": 237500,
        "typeLocal": "Maison",
        "surfaceM2": 113,
        "isVefa": false
      }
    ]
  },
  "cedc9ceb2403": {
    "id": "cedc9ceb2403",
    "label": "30 RUE DU VALLON, Maromme",
    "lat": 49.47171,
    "lng": 1.034646,
    "transactions": [
      {
        "date": "2022-03-11",
        "priceEur": 163000,
        "typeLocal": "Maison",
        "surfaceM2": 96,
        "isVefa": false
      }
    ]
  },
  "717335ea7733": {
    "id": "717335ea7733",
    "label": "15B AV DU VAL AUX DAMES, Maromme",
    "lat": 49.473087,
    "lng": 1.034512,
    "transactions": [
      {
        "date": "2022-03-11",
        "priceEur": 270200,
        "typeLocal": "Maison",
        "surfaceM2": 114,
        "isVefa": false
      }
    ]
  },
  "9ea35051ccd7": {
    "id": "9ea35051ccd7",
    "label": "12 RUE DES FRERES PELISSIER, Maromme",
    "lat": 49.473492,
    "lng": 1.040112,
    "transactions": [
      {
        "date": "2022-05-31",
        "priceEur": 150000,
        "typeLocal": "Maison",
        "surfaceM2": 91,
        "isVefa": false
      }
    ]
  },
  "9f76ad2d7cae": {
    "id": "9f76ad2d7cae",
    "label": "2 RUE ALBERT LAMBERT, Maromme",
    "lat": 49.474316,
    "lng": 1.038218,
    "transactions": [
      {
        "date": "2022-06-29",
        "priceEur": 162000,
        "typeLocal": "Maison",
        "surfaceM2": 91,
        "isVefa": false
      }
    ]
  },
  "8361961c30a9": {
    "id": "8361961c30a9",
    "label": "39 AV FAUQUET, Déville-lès-Rouen",
    "lat": 49.470636,
    "lng": 1.043668,
    "transactions": [
      {
        "date": "2022-07-12",
        "priceEur": 157500,
        "typeLocal": "Maison",
        "surfaceM2": 90,
        "isVefa": false
      }
    ]
  },
  "0675ec369711": {
    "id": "0675ec369711",
    "label": "10 CHE DES GROSSES PIERRES, Maromme",
    "lat": 49.470837,
    "lng": 1.036744,
    "transactions": [
      {
        "date": "2022-09-16",
        "priceEur": 297400,
        "typeLocal": "Maison",
        "surfaceM2": 97,
        "isVefa": false
      }
    ]
  },
  "e050d32297de": {
    "id": "e050d32297de",
    "label": "2 RUE LOUIS BOUILHET, Maromme",
    "lat": 49.47341,
    "lng": 1.03793,
    "transactions": [
      {
        "date": "2022-08-31",
        "priceEur": 165000,
        "typeLocal": "Maison",
        "surfaceM2": 96,
        "isVefa": false
      }
    ]
  },
  "1bd7b9e4da4c": {
    "id": "1bd7b9e4da4c",
    "label": "19 COTE DU FOUR A CHAUX, Maromme",
    "lat": 49.471302,
    "lng": 1.034575,
    "transactions": [
      {
        "date": "2022-10-07",
        "priceEur": 240000,
        "typeLocal": "Maison",
        "surfaceM2": 137,
        "isVefa": false
      }
    ]
  },
  "b45b536a4e6f": {
    "id": "b45b536a4e6f",
    "label": "6 AV DU VAL AUX DAMES, Maromme",
    "lat": 49.473674,
    "lng": 1.034645,
    "transactions": [
      {
        "date": "2022-10-07",
        "priceEur": 249000,
        "typeLocal": "Maison",
        "surfaceM2": 82,
        "isVefa": false
      }
    ]
  },
  "fbb53bfe4aef": {
    "id": "fbb53bfe4aef",
    "label": "6 IMP PARQUET, Déville-lès-Rouen",
    "lat": 49.47002,
    "lng": 1.04164,
    "transactions": [
      {
        "date": "2022-10-12",
        "priceEur": 375000,
        "typeLocal": "Maison",
        "surfaceM2": 200,
        "isVefa": false
      }
    ]
  },
  "8f55066f8c3e": {
    "id": "8f55066f8c3e",
    "label": "31 RUE JOSEPH DELATTRE, Maromme",
    "lat": 49.474863,
    "lng": 1.033323,
    "transactions": [
      {
        "date": "2022-11-07",
        "priceEur": 303000,
        "typeLocal": "Maison",
        "surfaceM2": 131,
        "isVefa": false
      }
    ]
  },
  "9f8c96703a59": {
    "id": "9f8c96703a59",
    "label": "102 RUE DE LA REPUBLIQUE, Déville-lès-Rouen",
    "lat": 49.473765,
    "lng": 1.042272,
    "transactions": [
      {
        "date": "2024-12-18",
        "priceEur": 159000,
        "typeLocal": "Maison",
        "surfaceM2": 68,
        "isVefa": false
      },
      {
        "date": "2022-11-18",
        "priceEur": 187400,
        "typeLocal": "Maison",
        "surfaceM2": 68,
        "isVefa": false
      }
    ]
  },
  "9031977341d9": {
    "id": "9031977341d9",
    "label": "86 RUE DE LA REPUBLIQUE, Déville-lès-Rouen",
    "lat": 49.472934,
    "lng": 1.042797,
    "transactions": [
      {
        "date": "2023-11-17",
        "priceEur": 72000,
        "typeLocal": "Appartement",
        "surfaceM2": 57,
        "isVefa": false
      },
      {
        "date": "2022-11-25",
        "priceEur": 55000,
        "typeLocal": "Appartement",
        "surfaceM2": 57,
        "isVefa": false
      }
    ]
  },
  "6455bdebabba": {
    "id": "6455bdebabba",
    "label": "9 RUE DES GROSSES PIERRES, Maromme",
    "lat": 49.471552,
    "lng": 1.036778,
    "transactions": [
      {
        "date": "2022-12-01",
        "priceEur": 62000,
        "typeLocal": "Maison",
        "surfaceM2": 30,
        "isVefa": false
      }
    ]
  },
  "e830ab5e40be": {
    "id": "e830ab5e40be",
    "label": "50 RUE DU VALLON, Maromme",
    "lat": 49.472028,
    "lng": 1.032843,
    "transactions": [
      {
        "date": "2023-03-15",
        "priceEur": 200000,
        "typeLocal": "Maison",
        "surfaceM2": 96,
        "isVefa": false
      }
    ]
  },
  "77f8f994f9cc": {
    "id": "77f8f994f9cc",
    "label": "90 RUE JULES FERRY, Déville-lès-Rouen",
    "lat": 49.468539,
    "lng": 1.042678,
    "transactions": [
      {
        "date": "2023-05-22",
        "priceEur": 175000,
        "typeLocal": "Maison",
        "surfaceM2": 75,
        "isVefa": false
      }
    ]
  },
  "15832ab7bc10": {
    "id": "15832ab7bc10",
    "label": "11 RUE DE LA REPUBLIQUE, Déville-lès-Rouen",
    "lat": 49.470131,
    "lng": 1.043283,
    "transactions": [
      {
        "date": "2023-09-25",
        "priceEur": 112000,
        "typeLocal": "Maison",
        "surfaceM2": 54,
        "isVefa": false
      },
      {
        "date": "2023-09-25",
        "priceEur": 139063.66,
        "typeLocal": "Maison",
        "surfaceM2": 54,
        "isVefa": false
      }
    ]
  },
  "385ba1cb18ae": {
    "id": "385ba1cb18ae",
    "label": "72 RUE DE LA REPUBLIQUE, Déville-lès-Rouen",
    "lat": 49.472391,
    "lng": 1.042992,
    "transactions": [
      {
        "date": "2023-09-26",
        "priceEur": 121000,
        "typeLocal": "Maison",
        "surfaceM2": 65,
        "isVefa": false
      }
    ]
  },
  "9ae1fb2bdc22": {
    "id": "9ae1fb2bdc22",
    "label": "6 IMP LECUVIER, Déville-lès-Rouen",
    "lat": 49.468893,
    "lng": 1.042165,
    "transactions": [
      {
        "date": "2023-09-28",
        "priceEur": 183350,
        "typeLocal": "Maison",
        "surfaceM2": 60,
        "isVefa": false
      }
    ]
  },
  "026a12bca095": {
    "id": "026a12bca095",
    "label": "8 RUE RENE DUBOC, Déville-lès-Rouen",
    "lat": 49.469649,
    "lng": 1.043415,
    "transactions": [
      {
        "date": "2023-09-19",
        "priceEur": 174000,
        "typeLocal": "Maison",
        "surfaceM2": 90,
        "isVefa": false
      }
    ]
  },
  "ec26e8619e14": {
    "id": "ec26e8619e14",
    "label": "19 AV DU VAL AUX DAMES, Maromme",
    "lat": 49.473073,
    "lng": 1.03325,
    "transactions": [
      {
        "date": "2024-08-19",
        "priceEur": 175000,
        "typeLocal": "Maison",
        "surfaceM2": 92,
        "isVefa": false
      }
    ]
  },
  "1c6fb59c1386": {
    "id": "1c6fb59c1386",
    "label": "28 RUE DU VALLON, Maromme",
    "lat": 49.471642,
    "lng": 1.034753,
    "transactions": [
      {
        "date": "2024-09-30",
        "priceEur": 206150,
        "typeLocal": "Maison",
        "surfaceM2": 96,
        "isVefa": false
      }
    ]
  },
  "f9bfaa48c1f6": {
    "id": "f9bfaa48c1f6",
    "label": "22 RUE RENE DUBOC, Déville-lès-Rouen",
    "lat": 49.469394,
    "lng": 1.04282,
    "transactions": [
      {
        "date": "2024-12-11",
        "priceEur": 170000,
        "typeLocal": "Maison",
        "surfaceM2": 66,
        "isVefa": false
      }
    ]
  },
  "89438141ecbf": {
    "id": "89438141ecbf",
    "label": "17 RUE DE LA REPUBLIQUE, Déville-lès-Rouen",
    "lat": 49.47042,
    "lng": 1.043313,
    "transactions": [
      {
        "date": "2025-02-21",
        "priceEur": 147000,
        "typeLocal": "Maison",
        "surfaceM2": 56,
        "isVefa": false
      }
    ]
  },
  "6a7aa3225044": {
    "id": "6a7aa3225044",
    "label": "6 RUE GUSTAVE FLAUBERT, Maromme",
    "lat": 49.47424,
    "lng": 1.040167,
    "transactions": [
      {
        "date": "2025-02-28",
        "priceEur": 135000,
        "typeLocal": "Maison",
        "surfaceM2": 73,
        "isVefa": false
      }
    ]
  },
  "d22aee5772ac": {
    "id": "d22aee5772ac",
    "label": "1 RUE CHARLES CAPELLE, Maromme",
    "lat": 49.474427,
    "lng": 1.039514,
    "transactions": [
      {
        "date": "2025-03-03",
        "priceEur": 223000,
        "typeLocal": "Maison",
        "surfaceM2": 92,
        "isVefa": false
      }
    ]
  },
  "af00e14d8a7e": {
    "id": "af00e14d8a7e",
    "label": "4 IMP DE L INDUSTRIE, Déville-lès-Rouen",
    "lat": 49.468628,
    "lng": 1.041863,
    "transactions": [
      {
        "date": "2025-02-25",
        "priceEur": 145000,
        "typeLocal": "Maison",
        "surfaceM2": 50,
        "isVefa": false
      }
    ]
  },
  "7042163d190f": {
    "id": "7042163d190f",
    "label": "1 RUE DE BINCHE, Maromme",
    "lat": 49.474032,
    "lng": 1.041201,
    "transactions": [
      {
        "date": "2025-04-28",
        "priceEur": 165900,
        "typeLocal": "Maison",
        "surfaceM2": 121,
        "isVefa": false
      }
    ]
  },
  "8b3115ecf85b": {
    "id": "8b3115ecf85b",
    "label": "18B RUE CHARLES CAPELLE, Maromme",
    "lat": 49.474649,
    "lng": 1.037595,
    "transactions": [
      {
        "date": "2025-04-30",
        "priceEur": 150000,
        "typeLocal": "Maison",
        "surfaceM2": 80,
        "isVefa": false
      }
    ]
  }
}