{
  "313396eb1edf": {
    "id": "313396eb1edf",
    "label": "3 AV VICTOR HUGO, Maureilhan",
    "lat": 43.357967,
    "lng": 3.119481,
    "transactions": [
      {
        "date": "2024-06-14",
        "priceEur": 210655,
        "typeLocal": "Maison",
        "surfaceM2": 120,
        "isVefa": false
      },
      {
        "date": "2020-08-28",
        "priceEur": 187400,
        "typeLocal": "Maison",
        "surfaceM2": 120,
        "isVefa": false
      }
    ]
  },
  "2a1f1f6304b3": {
    "id": "2a1f1f6304b3",
    "label": "5715 RUE DE L ALOUETTE, Maureilhan",
    "lat": 43.358263,
    "lng": 3.118673,
    "transactions": [
      {
        "date": "2020-09-16",
        "priceEur": 85500,
        "typeLocal": "Maison",
        "surfaceM2": 80,
        "isVefa": false
      }
    ]
  },
  "03b4915f0450": {
    "id": "03b4915f0450",
    "label": "6 AV GAMBETTA, Maureilhan",
    "lat": 43.357194,
    "lng": 3.119905,
    "transactions": [
      {
        "date": "2020-09-30",
        "priceEur": 693538,
        "typeLocal": "Maison",
        "surfaceM2": 230,
        "isVefa": false
      }
    ]
  },
  "5c638d8aeaa2": {
    "id": "5c638d8aeaa2",
    "label": "3 RUE JEAN DE LA FONTAINE, Maureilhan",
    "lat": 43.358441,
    "lng": 3.119069,
    "transactions": [
      {
        "date": "2020-12-04",
        "priceEur": 98000,
        "typeLocal": "Maison",
        "surfaceM2": 75,
        "isVefa": false
      }
    ]
  },
  "d10e320e6939": {
    "id": "d10e320e6939",
    "label": "35B RUE DU CHATEAU, Maureilhan",
    "lat": 43.358791,
    "lng": 3.119483,
    "transactions": [
      {
        "date": "2020-12-11",
        "priceEur": 139500,
        "typeLocal": "Maison",
        "surfaceM2": 106,
        "isVefa": false
      }
    ]
  },
  "9a30622d5d7e": {
    "id": "9a30622d5d7e",
    "label": "59 AV DE LA REPUBLIQUE, Maureilhan",
    "lat": 43.357899,
    "lng": 3.118828,
    "transactions": [
      {
        "date": "2021-01-21",
        "priceEur": 70000,
        "typeLocal": "Maison",
        "surfaceM2": 88,
        "isVefa": false
      }
    ]
  },
  "6f6ccb642a35": {
    "id": "6f6ccb642a35",
    "label": "2 SQ MIREPOIX, Maureilhan",
    "lat": 43.357619,
    "lng": 3.117783,
    "transactions": [
      {
        "date": "2021-05-27",
        "priceEur": 248950,
        "typeLocal": "Maison",
        "surfaceM2": 94,
        "isVefa": false
      }
    ]
  },
  "c161f33346a7": {
    "id": "c161f33346a7",
    "label": "2 AV VICTOR HUGO, Maureilhan",
    "lat": 43.357927,
    "lng": 3.119774,
    "transactions": [
      {
        "date": "2021-07-08",
        "priceEur": 70000,
        "typeLocal": "Maison",
        "surfaceM2": 106,
        "isVefa": false
      }
    ]
  },
  "8746ce5b8bd2": {
    "id": "8746ce5b8bd2",
    "label": "11 AV VICTOR HUGO, Maureilhan",
    "lat": 43.358352,
    "lng": 3.119249,
    "transactions": [
      {
        "date": "2021-08-26",
        "priceEur": 133750,
        "typeLocal": "Maison",
        "surfaceM2": 70,
        "isVefa": false
      }
    ]
  },
  "b6bee866b803": {
    "id": "b6bee866b803",
    "label": "20 AV DU CAROUX, Maureilhan",
    "lat": 43.361581,
    "lng": 3.119215,
    "transactions": [
      {
        "date": "2021-09-28",
        "priceEur": 200000,
        "typeLocal": "Maison",
        "surfaceM2": 88,
        "isVefa": false
      }
    ]
  },
  "aca813d2741c": {
    "id": "aca813d2741c",
    "label": "4 RUE JEAN DE LA FONTAINE, Maureilhan",
    "lat": 43.358606,
    "lng": 3.119033,
    "transactions": [
      {
        "date": "2021-10-21",
        "priceEur": 105000,
        "typeLocal": "Maison",
        "surfaceM2": 60,
        "isVefa": false
      }
    ]
  },
  "0595042a9791": {
    "id": "0595042a9791",
    "label": "45 AV DE LA REPUBLIQUE, Maureilhan",
    "lat": 43.357588,
    "lng": 3.119709,
    "transactions": [
      {
        "date": "2021-11-19",
        "priceEur": 132500,
        "typeLocal": "Appartement",
        "surfaceM2": 100,
        "isVefa": false
      }
    ]
  },
  "044bd348626a": {
    "id": "044bd348626a",
    "label": "22 RUE JEAN DE LA FONTAINE, Maureilhan",
    "lat": 43.358457,
    "lng": 3.118144,
    "transactions": [
      {
        "date": "2021-12-27",
        "priceEur": 135000,
        "typeLocal": "Maison",
        "surfaceM2": 84,
        "isVefa": false
      }
    ]
  },
  "c95b1dbfccd3": {
    "id": "c95b1dbfccd3",
    "label": "10 AV VICTOR HUGO, Maureilhan",
    "lat": 43.358954,
    "lng": 3.119265,
    "transactions": [
      {
        "date": "2024-11-29",
        "priceEur": 120000,
        "typeLocal": "Maison",
        "surfaceM2": 60,
        "isVefa": false
      },
      {
        "date": "2022-03-02",
        "priceEur": 92000,
        "typeLocal": "Maison",
        "surfaceM2": 60,
        "isVefa": false
      }
    ]
  },
  "2bffb50c1691": {
    "id": "2bffb50c1691",
    "label": "13 AV VICTOR HUGO, Maureilhan",
    "lat": 43.358434,
    "lng": 3.119259,
    "transactions": [
      {
        "date": "2022-04-23",
        "priceEur": 88000,
        "typeLocal": "Maison",
        "surfaceM2": 78,
        "isVefa": false
      }
    ]
  },
  "aa8dc6606166": {
    "id": "aa8dc6606166",
    "label": "1 RUE DU PUIT, Maureilhan",
    "lat": 43.3582,
    "lng": 3.119024,
    "transactions": [
      {
        "date": "2022-07-18",
        "priceEur": 210450,
        "typeLocal": "Maison",
        "surfaceM2": 84,
        "isVefa": false
      }
    ]
  },
  "3629d943ca23": {
    "id": "3629d943ca23",
    "label": "31 RUE PIERRE FLOURENS, Maureilhan",
    "lat": 43.358497,
    "lng": 3.119429,
    "transactions": [
      {
        "date": "2022-08-25",
        "priceEur": 144000,
        "typeLocal": "Maison",
        "surfaceM2": 72,
        "isVefa": false
      }
    ]
  },
  "a5cbad248e8f": {
    "id": "a5cbad248e8f",
    "label": "21 RUE PIERRE FLOURENS, Maureilhan",
    "lat": 43.358356,
    "lng": 3.119826,
    "transactions": [
      {
        "date": "2022-09-19",
        "priceEur": 225000,
        "typeLocal": "Maison",
        "surfaceM2": 129,
        "isVefa": false
      }
    ]
  },
  "138bad73844c": {
    "id": "138bad73844c",
    "label": "4 SQ GIRONIS, Maureilhan",
    "lat": 43.360998,
    "lng": 3.119705,
    "transactions": [
      {
        "date": "2022-10-28",
        "priceEur": 122000,
        "typeLocal": "Maison",
        "surfaceM2": 80,
        "isVefa": false
      }
    ]
  },
  "d3ee6ec1d94f": {
    "id": "d3ee6ec1d94f",
    "label": "11 RUE PAUL RIQUET, Maureilhan",
    "lat": 43.357915,
    "lng": 3.119866,
    "transactions": [
      {
        "date": "2022-12-09",
        "priceEur": 255000,
        "typeLocal": "Maison",
        "surfaceM2": 62,
        "isVefa": false
      }
    ]
  },
  "c18b21ebc214": {
    "id": "c18b21ebc214",
    "label": "13 AV JEAN MOULIN, Maureilhan",
    "lat": 43.358647,
    "lng": 3.117909,
    "transactions": [
      {
        "date": "2023-01-23",
        "priceEur": 285200,
        "typeLocal": "Maison",
        "surfaceM2": 104,
        "isVefa": false
      }
    ]
  },
  "32eddcd41489": {
    "id": "32eddcd41489",
    "label": "14B RUE PAUL RIQUET, Maureilhan",
    "lat": 43.358172,
    "lng": 3.119698,
    "transactions": [
      {
        "date": "2023-03-06",
        "priceEur": 77000,
        "typeLocal": "Maison",
        "surfaceM2": 50,
        "isVefa": false
      }
    ]
  },
  "b27f80f702ed": {
    "id": "b27f80f702ed",
    "label": "28 RUE PIERRE FLOURENS, Maureilhan",
    "lat": 43.358729,
    "lng": 3.11945,
    "transactions": [
      {
        "date": "2023-03-06",
        "priceEur": 155000,
        "typeLocal": "Maison",
        "surfaceM2": 90,
        "isVefa": false
      }
    ]
  },
  "cb5b6156a6ee": {
    "id": "cb5b6156a6ee",
    "label": "53 AV DE LA REPUBLIQUE, Maureilhan",
    "lat": 43.357738,
    "lng": 3.119183,
    "transactions": [
      {
        "date": "2025-03-31",
        "priceEur": 225000,
        "typeLocal": "Maison",
        "surfaceM2": 89,
        "isVefa": false
      },
      {
        "date": "2024-03-27",
        "priceEur": 80000,
        "typeLocal": "Maison",
        "surfaceM2": 89,
        "isVefa": false
      }
    ]
  },
  "331a3ac0a85f": {
    "id": "331a3ac0a85f",
    "label": "52 AV DE LA REPUBLIQUE, Maureilhan",
    "lat": 43.358198,
    "lng": 3.118672,
    "transactions": [
      {
        "date": "2024-06-26",
        "priceEur": 114100,
        "typeLocal": "Maison",
        "surfaceM2": 80,
        "isVefa": false
      }
    ]
  },
  "64f0916fc0ed": {
    "id": "64f0916fc0ed",
    "label": "61 RUE DE LA REPUBLIQUE, Maureilhan",
    "lat": 43.357897,
    "lng": 3.118604,
    "transactions": [
      {
        "date": "2025-02-20",
        "priceEur": 225000,
        "typeLocal": "Maison",
        "surfaceM2": 108,
        "isVefa": false
      }
    ]
  }
}