{
  "19460fc68d6c": {
    "id": "19460fc68d6c",
    "label": "6215 LA CREMADE, Cessenon-sur-Orb",
    "lat": 43.452364,
    "lng": 3.05867,
    "transactions": [
      {
        "date": "2020-07-29",
        "priceEur": 90000,
        "typeLocal": "Maison",
        "surfaceM2": 89,
        "isVefa": false
      },
      {
        "date": "2020-07-29",
        "priceEur": 90000,
        "typeLocal": "Maison",
        "surfaceM2": 89,
        "isVefa": false
      }
    ]
  },
  "ca16af9a89d6": {
    "id": "ca16af9a89d6",
    "label": "24 RUE DU VIOGNIER, Cessenon-sur-Orb",
    "lat": 43.451263,
    "lng": 3.063326,
    "transactions": [
      {
        "date": "2020-09-02",
        "priceEur": 200000,
        "typeLocal": "Maison",
        "surfaceM2": 104,
        "isVefa": false
      }
    ]
  },
  "2d4d5229d469": {
    "id": "2d4d5229d469",
    "label": "37 LA TUILERIE, Cessenon-sur-Orb",
    "lat": 43.450506,
    "lng": 3.055114,
    "transactions": [
      {
        "date": "2020-09-17",
        "priceEur": 195000,
        "typeLocal": "Maison",
        "surfaceM2": 102,
        "isVefa": false
      }
    ]
  },
  "87bd97cbe51a": {
    "id": "87bd97cbe51a",
    "label": "4 RUE DE LA CREMADE, Cessenon-sur-Orb",
    "lat": 43.451501,
    "lng": 3.059981,
    "transactions": [
      {
        "date": "2020-09-25",
        "priceEur": 187000,
        "typeLocal": "Maison",
        "surfaceM2": 100,
        "isVefa": false
      }
    ]
  },
  "a5728f223913": {
    "id": "a5728f223913",
    "label": "915 CHE DU MOULIN, Cessenon-sur-Orb",
    "lat": 43.450479,
    "lng": 3.060866,
    "transactions": [
      {
        "date": "2020-10-09",
        "priceEur": 226000,
        "typeLocal": "Maison",
        "surfaceM2": 90,
        "isVefa": false
      }
    ]
  },
  "47a5fb21f144": {
    "id": "47a5fb21f144",
    "label": "16 RUE DU VIOGNIER, Cessenon-sur-Orb",
    "lat": 43.45076,
    "lng": 3.062745,
    "transactions": [
      {
        "date": "2021-01-07",
        "priceEur": 248309.17,
        "typeLocal": "Maison",
        "surfaceM2": 126,
        "isVefa": false
      }
    ]
  },
  "350f70bce0b4": {
    "id": "350f70bce0b4",
    "label": "34 RUE DU VIOGNIER, Cessenon-sur-Orb",
    "lat": 43.451506,
    "lng": 3.061758,
    "transactions": [
      {
        "date": "2021-01-29",
        "priceEur": 214700,
        "typeLocal": "Maison",
        "surfaceM2": 85,
        "isVefa": false
      }
    ]
  },
  "3d0e97e4a582": {
    "id": "3d0e97e4a582",
    "label": "23 LA CREMADE, Cessenon-sur-Orb",
    "lat": 43.451341,
    "lng": 3.062051,
    "transactions": [
      {
        "date": "2021-01-28",
        "priceEur": 237000,
        "typeLocal": "Maison",
        "surfaceM2": 126,
        "isVefa": false
      }
    ]
  },
  "0beb5567b010": {
    "id": "0beb5567b010",
    "label": "900E LE MOULIN NEUF, Cessenon-sur-Orb",
    "lat": 43.450632,
    "lng": 3.061262,
    "transactions": [
      {
        "date": "2023-05-22",
        "priceEur": 218600,
        "typeLocal": "Maison",
        "surfaceM2": 95,
        "isVefa": false
      },
      {
        "date": "2021-03-24",
        "priceEur": 188100,
        "typeLocal": "Maison",
        "surfaceM2": 95,
        "isVefa": false
      }
    ]
  },
  "59a1c27f8137": {
    "id": "59a1c27f8137",
    "label": "5380 LES PLANTADES, Cessenon-sur-Orb",
    "lat": 43.448703,
    "lng": 3.058499,
    "transactions": [
      {
        "date": "2021-06-04",
        "priceEur": 130000,
        "typeLocal": "Maison",
        "surfaceM2": 94,
        "isVefa": false
      }
    ]
  },
  "92de65b5a24b": {
    "id": "92de65b5a24b",
    "label": "5001F LES PLANTADES, Cessenon-sur-Orb",
    "lat": 43.450285,
    "lng": 3.061831,
    "transactions": [
      {
        "date": "2021-07-16",
        "priceEur": 232842,
        "typeLocal": "Maison",
        "surfaceM2": 108,
        "isVefa": false
      }
    ]
  },
  "e413058e9848": {
    "id": "e413058e9848",
    "label": "6158 LES FANGASSES, Cessenon-sur-Orb",
    "lat": 43.448206,
    "lng": 3.059907,
    "transactions": [
      {
        "date": "2021-09-15",
        "priceEur": 392250,
        "typeLocal": "Maison",
        "surfaceM2": 184,
        "isVefa": false
      }
    ]
  },
  "b358635bffc6": {
    "id": "b358635bffc6",
    "label": "10 RUE DU VIOGNIER, Cessenon-sur-Orb",
    "lat": 43.45031,
    "lng": 3.062322,
    "transactions": [
      {
        "date": "2021-11-19",
        "priceEur": 272000,
        "typeLocal": "Maison",
        "surfaceM2": 124,
        "isVefa": false
      }
    ]
  },
  "af1da937fd7e": {
    "id": "af1da937fd7e",
    "label": "472 LE MOULIN NEUF, Cessenon-sur-Orb",
    "lat": 43.451917,
    "lng": 3.056031,
    "transactions": [
      {
        "date": "2022-01-05",
        "priceEur": 91262,
        "typeLocal": "Maison",
        "surfaceM2": 94,
        "isVefa": false
      }
    ]
  },
  "dbbdbb67aad8": {
    "id": "dbbdbb67aad8",
    "label": "7 RUE DE REALS, Cessenon-sur-Orb",
    "lat": 43.448966,
    "lng": 3.058956,
    "transactions": [
      {
        "date": "2022-01-27",
        "priceEur": 233000,
        "typeLocal": "Maison",
        "surfaceM2": 76,
        "isVefa": false
      }
    ]
  },
  "49415dcd0e2f": {
    "id": "49415dcd0e2f",
    "label": "14 LOT LA TUILERIE, Cessenon-sur-Orb",
    "lat": 43.449823,
    "lng": 3.055657,
    "transactions": [
      {
        "date": "2022-04-06",
        "priceEur": 365000,
        "typeLocal": "Maison",
        "surfaceM2": 189,
        "isVefa": false
      },
      {
        "date": "2022-04-06",
        "priceEur": 365000,
        "typeLocal": "Maison",
        "surfaceM2": 189,
        "isVefa": false
      }
    ]
  },
  "d11ce9ab870c": {
    "id": "d11ce9ab870c",
    "label": "6293F AV DU STADE, Cessenon-sur-Orb",
    "lat": 43.448242,
    "lng": 3.056989,
    "transactions": [
      {
        "date": "2022-05-11",
        "priceEur": 29840,
        "typeLocal": "Maison",
        "surfaceM2": 154,
        "isVefa": false
      }
    ]
  },
  "53e5d79203bc": {
    "id": "53e5d79203bc",
    "label": "6334F CHE DU MOULIN, Cessenon-sur-Orb",
    "lat": 43.452482,
    "lng": 3.056332,
    "transactions": [
      {
        "date": "2022-05-31",
        "priceEur": 518400,
        "typeLocal": "Maison",
        "surfaceM2": 151,
        "isVefa": false
      },
      {
        "date": "2022-05-31",
        "priceEur": 518400,
        "typeLocal": "Maison",
        "surfaceM2": 151,
        "isVefa": false
      }
    ]
  },
  "0b8b582dc628": {
    "id": "0b8b582dc628",
    "label": "6306F CHE DU MOULIN, Cessenon-sur-Orb",
    "lat": 43.451656,
    "lng": 3.055783,
    "transactions": [
      {
        "date": "2022-07-08",
        "priceEur": 374000,
        "typeLocal": "Maison",
        "surfaceM2": 140,
        "isVefa": false
      },
      {
        "date": "2022-07-08",
        "priceEur": 374000,
        "typeLocal": "Maison",
        "surfaceM2": 140,
        "isVefa": false
      }
    ]
  },
  "8ea6cb325d37": {
    "id": "8ea6cb325d37",
    "label": "5147 LES PLANTADES, Cessenon-sur-Orb",
    "lat": 43.449586,
    "lng": 3.05855,
    "transactions": [
      {
        "date": "2023-01-12",
        "priceEur": 600000,
        "typeLocal": "Maison",
        "surfaceM2": 92,
        "isVefa": false
      }
    ]
  },
  "bc3625535d8d": {
    "id": "bc3625535d8d",
    "label": "680 CHE DU MOULIN, Cessenon-sur-Orb",
    "lat": 43.451072,
    "lng": 3.058037,
    "transactions": [
      {
        "date": "2023-03-13",
        "priceEur": 256000,
        "typeLocal": "Appartement",
        "surfaceM2": 68,
        "isVefa": false
      },
      {
        "date": "2023-03-13",
        "priceEur": 256000,
        "typeLocal": "Appartement",
        "surfaceM2": 68,
        "isVefa": false
      },
      {
        "date": "2023-03-13",
        "priceEur": 256000,
        "typeLocal": "Maison",
        "surfaceM2": 128,
        "isVefa": false
      },
      {
        "date": "2023-03-13",
        "priceEur": 256000,
        "typeLocal": "Maison",
        "surfaceM2": 128,
        "isVefa": false
      }
    ]
  },
  "dfd51422ae33": {
    "id": "dfd51422ae33",
    "label": "5 LOT LE CLOS DU CHARDONNAY, Cessenon-sur-Orb",
    "lat": 43.451721,
    "lng": 3.055304,
    "transactions": [
      {
        "date": "2023-06-19",
        "priceEur": 156400,
        "typeLocal": "Maison",
        "surfaceM2": 75,
        "isVefa": false
      }
    ]
  },
  "21be2e34653c": {
    "id": "21be2e34653c",
    "label": "22 LOT LA TUILERIE, Cessenon-sur-Orb",
    "lat": 43.450747,
    "lng": 3.055295,
    "transactions": [
      {
        "date": "2023-06-21",
        "priceEur": 283000,
        "typeLocal": "Maison",
        "surfaceM2": 83,
        "isVefa": false
      }
    ]
  },
  "77210ff3a924": {
    "id": "77210ff3a924",
    "label": "2 RUE DE REALS, Cessenon-sur-Orb",
    "lat": 43.449033,
    "lng": 3.057867,
    "transactions": [
      {
        "date": "2023-07-26",
        "priceEur": 190000,
        "typeLocal": "Maison",
        "surfaceM2": 78,
        "isVefa": false
      }
    ]
  },
  "7314fa62a71b": {
    "id": "7314fa62a71b",
    "label": "26F LES PLANTADES, Cessenon-sur-Orb",
    "lat": 43.451389,
    "lng": 3.063144,
    "transactions": [
      {
        "date": "2023-08-08",
        "priceEur": 229700,
        "typeLocal": "Maison",
        "surfaceM2": 96,
        "isVefa": false
      }
    ]
  },
  "4f5c916a3edd": {
    "id": "4f5c916a3edd",
    "label": "5806F LES FANGASSES, Cessenon-sur-Orb",
    "lat": 43.447695,
    "lng": 3.060338,
    "transactions": [
      {
        "date": "2024-01-18",
        "priceEur": 285000,
        "typeLocal": "Maison",
        "surfaceM2": 94,
        "isVefa": false
      }
    ]
  },
  "59e5895bfc69": {
    "id": "59e5895bfc69",
    "label": "2 PAS DES ARBOUSIERS, Cessenon-sur-Orb",
    "lat": 43.449957,
    "lng": 3.057189,
    "transactions": [
      {
        "date": "2024-02-05",
        "priceEur": 340000,
        "typeLocal": "Maison",
        "surfaceM2": 152,
        "isVefa": false
      },
      {
        "date": "2024-02-05",
        "priceEur": 340000,
        "typeLocal": "Maison",
        "surfaceM2": 152,
        "isVefa": false
      }
    ]
  },
  "0e775e021f38": {
    "id": "0e775e021f38",
    "label": "3 LOT LES CIGALES, Cessenon-sur-Orb",
    "lat": 43.452355,
    "lng": 3.059956,
    "transactions": [
      {
        "date": "2024-03-29",
        "priceEur": 125000,
        "typeLocal": "Maison",
        "surfaceM2": 125,
        "isVefa": false
      }
    ]
  },
  "5f8db2e04b7f": {
    "id": "5f8db2e04b7f",
    "label": "44 LOT LA TUILERIE, Cessenon-sur-Orb",
    "lat": 43.450004,
    "lng": 3.055251,
    "transactions": [
      {
        "date": "2024-05-14",
        "priceEur": 341000,
        "typeLocal": "Maison",
        "surfaceM2": 130,
        "isVefa": false
      }
    ]
  },
  "d4000d8db001": {
    "id": "d4000d8db001",
    "label": "950C CHE DU MOULIN, Cessenon-sur-Orb",
    "lat": 43.449579,
    "lng": 3.060128,
    "transactions": [
      {
        "date": "2024-08-07",
        "priceEur": 140000,
        "typeLocal": "Maison",
        "surfaceM2": 143,
        "isVefa": false
      }
    ]
  },
  "a6f709a0a94b": {
    "id": "a6f709a0a94b",
    "label": "6 RUE DU VIOGNIER, Cessenon-sur-Orb",
    "lat": 43.45007,
    "lng": 3.062048,
    "transactions": [
      {
        "date": "2024-08-27",
        "priceEur": 335000,
        "typeLocal": "Maison",
        "surfaceM2": 120,
        "isVefa": false
      }
    ]
  },
  "cf4c0722228e": {
    "id": "cf4c0722228e",
    "label": "1 FONTANILLES, Cessenon-sur-Orb",
    "lat": 43.448451,
    "lng": 3.061045,
    "transactions": [
      {
        "date": "2024-12-23",
        "priceEur": 293242.28,
        "typeLocal": "Maison",
        "surfaceM2": 110,
        "isVefa": false
      }
    ]
  },
  "5f7b2c441c18": {
    "id": "5f7b2c441c18",
    "label": "700 BD DE L ORB, Cessenon-sur-Orb",
    "lat": 43.449613,
    "lng": 3.055361,
    "transactions": [
      {
        "date": "2025-02-21",
        "priceEur": 245000,
        "typeLocal": "Maison",
        "surfaceM2": 75,
        "isVefa": false
      }
    ]
  },
  "0692e953ce1c": {
    "id": "0692e953ce1c",
    "label": "46 LOT LA TUILERIE, Cessenon-sur-Orb",
    "lat": 43.450208,
    "lng": 3.055492,
    "transactions": [
      {
        "date": "2025-03-25",
        "priceEur": 235000,
        "typeLocal": "Maison",
        "surfaceM2": 107,
        "isVefa": false
      }
    ]
  },
  "f8a7de5f18b7": {
    "id": "f8a7de5f18b7",
    "label": "7 RUE DE LA CREMADE, Cessenon-sur-Orb",
    "lat": 43.451831,
    "lng": 3.060403,
    "transactions": [
      {
        "date": "2025-06-19",
        "priceEur": 204200,
        "typeLocal": "Maison",
        "surfaceM2": 127,
        "isVefa": false
      }
    ]
  }
}