{
  "b9cef55f3189": {
    "id": "b9cef55f3189",
    "label": "12 RTE DU BELAITRE, Quevillon",
    "lat": 49.421057,
    "lng": 0.953722,
    "transactions": [
      {
        "date": "2021-04-08",
        "priceEur": 265000,
        "typeLocal": "Maison",
        "surfaceM2": 164,
        "isVefa": false
      }
    ]
  },
  "fd98c3741d80": {
    "id": "fd98c3741d80",
    "label": "5075A BELAITRE, Quevillon",
    "lat": 49.42349,
    "lng": 0.95403,
    "transactions": [
      {
        "date": "2021-05-05",
        "priceEur": 150000,
        "typeLocal": "Maison",
        "surfaceM2": 82,
        "isVefa": false
      }
    ]
  },
  "8935b920be16": {
    "id": "8935b920be16",
    "label": "12 RUE DU VAL PHENIX, Quevillon",
    "lat": 49.418951,
    "lng": 0.955283,
    "transactions": [
      {
        "date": "2021-07-06",
        "priceEur": 317000,
        "typeLocal": "Maison",
        "surfaceM2": 153,
        "isVefa": false
      }
    ]
  },
  "551e2daaf6c5": {
    "id": "551e2daaf6c5",
    "label": "29 BELAITRE, Quevillon",
    "lat": 49.424098,
    "lng": 0.954237,
    "transactions": [
      {
        "date": "2021-08-27",
        "priceEur": 191000,
        "typeLocal": "Maison",
        "surfaceM2": 120,
        "isVefa": false
      }
    ]
  },
  "12dd99650a77": {
    "id": "12dd99650a77",
    "label": "5075B BELAITRE, Quevillon",
    "lat": 49.423623,
    "lng": 0.95344,
    "transactions": [
      {
        "date": "2022-01-28",
        "priceEur": 256800,
        "typeLocal": "Maison",
        "surfaceM2": 103,
        "isVefa": false
      }
    ]
  },
  "502e632d19ce": {
    "id": "502e632d19ce",
    "label": "5079 BELAITRE, Quevillon",
    "lat": 49.423901,
    "lng": 0.954117,
    "transactions": [
      {
        "date": "2022-02-23",
        "priceEur": 367000,
        "typeLocal": "Maison",
        "surfaceM2": 130,
        "isVefa": false
      }
    ]
  },
  "90bcea964212": {
    "id": "90bcea964212",
    "label": "2 RTE DU BELAITRE, Quevillon",
    "lat": 49.41977,
    "lng": 0.953727,
    "transactions": [
      {
        "date": "2022-05-18",
        "priceEur": 175000,
        "typeLocal": "Maison",
        "surfaceM2": 80,
        "isVefa": false
      }
    ]
  },
  "85c6054dcdae": {
    "id": "85c6054dcdae",
    "label": "7 RTE DU BELAITRE, Quevillon",
    "lat": 49.421042,
    "lng": 0.952711,
    "transactions": [
      {
        "date": "2022-12-09",
        "priceEur": 170000,
        "typeLocal": "Maison",
        "surfaceM2": 57,
        "isVefa": false
      }
    ]
  },
  "15abad08fa8d": {
    "id": "15abad08fa8d",
    "label": "4B RTE DE LA RIVIERE BOURDET, Quevillon",
    "lat": 49.41834,
    "lng": 0.950185,
    "transactions": [
      {
        "date": "2024-07-01",
        "priceEur": 385000,
        "typeLocal": "Maison",
        "surfaceM2": 168,
        "isVefa": false
      }
    ]
  }
}