{
  "11b12d5156c4": {
    "id": "11b12d5156c4",
    "label": "9 RUE DE LA FRATERNITE, Rogerville",
    "lat": 49.508519,
    "lng": 0.279929,
    "transactions": [
      {
        "date": "2021-04-02",
        "priceEur": 252000,
        "typeLocal": "Maison",
        "surfaceM2": 104,
        "isVefa": false
      }
    ]
  },
  "c0a726d274a7": {
    "id": "c0a726d274a7",
    "label": "42 RUE DES SOEURS FRANCISCAINES, Rogerville",
    "lat": 49.508496,
    "lng": 0.280977,
    "transactions": [
      {
        "date": "2021-06-01",
        "priceEur": 248500,
        "typeLocal": "Maison",
        "surfaceM2": 95,
        "isVefa": false
      }
    ]
  },
  "efc68c4401ed": {
    "id": "efc68c4401ed",
    "label": "8Q RUE DU PERE ARSON, Rogerville",
    "lat": 49.508414,
    "lng": 0.278483,
    "transactions": [
      {
        "date": "2023-03-02",
        "priceEur": 357400,
        "typeLocal": "Maison",
        "surfaceM2": 142,
        "isVefa": false
      },
      {
        "date": "2021-07-01",
        "priceEur": 352200,
        "typeLocal": "Maison",
        "surfaceM2": 142,
        "isVefa": false
      }
    ]
  },
  "8cd3bc39a448": {
    "id": "8cd3bc39a448",
    "label": "34 RUE DES SOEURS FRANCISCAINES, Rogerville",
    "lat": 49.508026,
    "lng": 0.280348,
    "transactions": [
      {
        "date": "2021-06-17",
        "priceEur": 264000,
        "typeLocal": "Maison",
        "surfaceM2": 110,
        "isVefa": false
      }
    ]
  },
  "d101734c45b7": {
    "id": "d101734c45b7",
    "label": "5B RUE RAOUL DUFY, Rogerville",
    "lat": 49.510488,
    "lng": 0.280378,
    "transactions": [
      {
        "date": "2021-11-04",
        "priceEur": 191000,
        "typeLocal": "Maison",
        "surfaceM2": 75,
        "isVefa": false
      }
    ]
  },
  "2c4ad8bf4fb4": {
    "id": "2c4ad8bf4fb4",
    "label": "17 RUE DES SOEURS FRANCISCAINES, Rogerville",
    "lat": 49.508333,
    "lng": 0.28018,
    "transactions": [
      {
        "date": "2022-01-27",
        "priceEur": 305000,
        "typeLocal": "Maison",
        "surfaceM2": 135,
        "isVefa": false
      }
    ]
  },
  "c4f9650c3909": {
    "id": "c4f9650c3909",
    "label": "8B RUE DU PERE ARSON, Rogerville",
    "lat": 49.508992,
    "lng": 0.277901,
    "transactions": [
      {
        "date": "2022-03-14",
        "priceEur": 92000,
        "typeLocal": "Maison",
        "surfaceM2": 104,
        "isVefa": false
      }
    ]
  },
  "6824150d1779": {
    "id": "6824150d1779",
    "label": "10 RUE DES SOEURS FRANCISCAINES, Rogerville",
    "lat": 49.508075,
    "lng": 0.278244,
    "transactions": [
      {
        "date": "2022-05-12",
        "priceEur": 355000,
        "typeLocal": "Maison",
        "surfaceM2": 148,
        "isVefa": false
      }
    ]
  },
  "b8b0e937e329": {
    "id": "b8b0e937e329",
    "label": "19T RUE DU PERE ARSON, Rogerville",
    "lat": 49.509682,
    "lng": 0.280123,
    "transactions": [
      {
        "date": "2022-06-24",
        "priceEur": 424990,
        "typeLocal": "Maison",
        "surfaceM2": 184,
        "isVefa": false
      }
    ]
  },
  "705d81cec9e9": {
    "id": "705d81cec9e9",
    "label": "7 RUE DU PERE ARSON, Rogerville",
    "lat": 49.508962,
    "lng": 0.276237,
    "transactions": [
      {
        "date": "2022-10-07",
        "priceEur": 73000,
        "typeLocal": "Maison",
        "surfaceM2": 42,
        "isVefa": false
      }
    ]
  },
  "10b7333ade9e": {
    "id": "10b7333ade9e",
    "label": "3 RUE DE LA FRATERNITE, Rogerville",
    "lat": 49.509217,
    "lng": 0.280872,
    "transactions": [
      {
        "date": "2023-11-03",
        "priceEur": 350000,
        "typeLocal": "Maison",
        "surfaceM2": 119,
        "isVefa": false
      }
    ]
  },
  "dcfd0fd82b1e": {
    "id": "dcfd0fd82b1e",
    "label": "33 RUE DU PERE ARSON, Rogerville",
    "lat": 49.510921,
    "lng": 0.284422,
    "transactions": [
      {
        "date": "2023-12-20",
        "priceEur": 135000,
        "typeLocal": "Maison",
        "surfaceM2": 110,
        "isVefa": false
      }
    ]
  },
  "721fe68f3080": {
    "id": "721fe68f3080",
    "label": "15 RUE DU PERE ARSON, Rogerville",
    "lat": 49.509323,
    "lng": 0.27709,
    "transactions": [
      {
        "date": "2024-06-10",
        "priceEur": 79000,
        "typeLocal": "Maison",
        "surfaceM2": 44,
        "isVefa": false
      }
    ]
  }
}