{
  "2bf63f142bc8": {
    "id": "2bf63f142bc8",
    "label": "6 RUE BRUYERE SUR LE ROC, Toussaint",
    "lat": 49.737904,
    "lng": 0.420069,
    "transactions": [
      {
        "date": "2020-12-15",
        "priceEur": 155000,
        "typeLocal": "Maison",
        "surfaceM2": 89,
        "isVefa": false
      }
    ]
  },
  "d307f1ab44f1": {
    "id": "d307f1ab44f1",
    "label": "10 RUE DE L EGLISE, Toussaint",
    "lat": 49.737668,
    "lng": 0.421976,
    "transactions": [
      {
        "date": "2021-04-02",
        "priceEur": 172000,
        "typeLocal": "Maison",
        "surfaceM2": 87,
        "isVefa": false
      }
    ]
  },
  "b2391578f8c3": {
    "id": "b2391578f8c3",
    "label": "59 RUE DE ROUEN, Toussaint",
    "lat": 49.736421,
    "lng": 0.427262,
    "transactions": [
      {
        "date": "2021-04-09",
        "priceEur": 80000,
        "typeLocal": "Maison",
        "surfaceM2": 110,
        "isVefa": false
      }
    ]
  },
  "271135a26eb2": {
    "id": "271135a26eb2",
    "label": "1 RUE DE LA VOIE LACTEE, Toussaint",
    "lat": 49.734882,
    "lng": 0.422107,
    "transactions": [
      {
        "date": "2021-05-04",
        "priceEur": 215000,
        "typeLocal": "Maison",
        "surfaceM2": 146,
        "isVefa": false
      }
    ]
  },
  "23dcdae53c0f": {
    "id": "23dcdae53c0f",
    "label": "7 RUE DU CHATEAU D EAU, Toussaint",
    "lat": 49.736663,
    "lng": 0.423534,
    "transactions": [
      {
        "date": "2021-01-11",
        "priceEur": 185000,
        "typeLocal": "Maison",
        "surfaceM2": 132,
        "isVefa": false
      }
    ]
  },
  "781de12c07bf": {
    "id": "781de12c07bf",
    "label": "7 PL DES ETOILES, Toussaint",
    "lat": 49.735223,
    "lng": 0.423544,
    "transactions": [
      {
        "date": "2022-01-17",
        "priceEur": 396600,
        "typeLocal": "Maison",
        "surfaceM2": 133,
        "isVefa": false
      }
    ]
  },
  "c14be297133f": {
    "id": "c14be297133f",
    "label": "3B RUE DU STADE, Toussaint",
    "lat": 49.738458,
    "lng": 0.421282,
    "transactions": [
      {
        "date": "2022-01-15",
        "priceEur": 260000,
        "typeLocal": "Maison",
        "surfaceM2": 157,
        "isVefa": false
      }
    ]
  },
  "73f00aa27260": {
    "id": "73f00aa27260",
    "label": "11 RTE DU MONT ROBERT, Ganzeville",
    "lat": 49.732104,
    "lng": 0.418973,
    "transactions": [
      {
        "date": "2022-05-16",
        "priceEur": 54800,
        "typeLocal": "Maison",
        "surfaceM2": 50,
        "isVefa": false
      }
    ]
  },
  "ee19ef445e17": {
    "id": "ee19ef445e17",
    "label": "1 RUE DE LA VALLEE, Toussaint",
    "lat": 49.73657,
    "lng": 0.422669,
    "transactions": [
      {
        "date": "2022-07-01",
        "priceEur": 190000,
        "typeLocal": "Maison",
        "surfaceM2": 90,
        "isVefa": false
      }
    ]
  },
  "de85bcab9661": {
    "id": "de85bcab9661",
    "label": "10 VAL ROBERT, Toussaint",
    "lat": 49.736638,
    "lng": 0.419967,
    "transactions": [
      {
        "date": "2022-07-08",
        "priceEur": 129000,
        "typeLocal": "Maison",
        "surfaceM2": 90,
        "isVefa": false
      }
    ]
  },
  "a03a7d5bed47": {
    "id": "a03a7d5bed47",
    "label": "14 RUE DE ROUEN, Toussaint",
    "lat": 49.737541,
    "lng": 0.425011,
    "transactions": [
      {
        "date": "2022-07-29",
        "priceEur": 404000,
        "typeLocal": "Maison",
        "surfaceM2": 136,
        "isVefa": false
      }
    ]
  },
  "4d9f2360011a": {
    "id": "4d9f2360011a",
    "label": "7 PL DE LA GALAXIE, Toussaint",
    "lat": 49.734392,
    "lng": 0.421842,
    "transactions": [
      {
        "date": "2022-08-31",
        "priceEur": 290000,
        "typeLocal": "Maison",
        "surfaceM2": 150,
        "isVefa": false
      }
    ]
  },
  "48ffd3764863": {
    "id": "48ffd3764863",
    "label": "3 RUE DE L OBSERVATOIRE, Toussaint",
    "lat": 49.735831,
    "lng": 0.4223,
    "transactions": [
      {
        "date": "2022-10-05",
        "priceEur": 280000,
        "typeLocal": "Maison",
        "surfaceM2": 148,
        "isVefa": false
      }
    ]
  },
  "d5ec3d2c8a1e": {
    "id": "d5ec3d2c8a1e",
    "label": "6 RUE DE L EGLISE, Toussaint",
    "lat": 49.73787,
    "lng": 0.423351,
    "transactions": [
      {
        "date": "2022-12-15",
        "priceEur": 166000,
        "typeLocal": "Maison",
        "surfaceM2": 86,
        "isVefa": false
      }
    ]
  },
  "c2391ece837c": {
    "id": "c2391ece837c",
    "label": "2 RUE DE LA VALLEE, Toussaint",
    "lat": 49.734777,
    "lng": 0.42396,
    "transactions": [
      {
        "date": "2023-02-15",
        "priceEur": 245000,
        "typeLocal": "Maison",
        "surfaceM2": 65,
        "isVefa": false
      }
    ]
  },
  "bc26a2787265": {
    "id": "bc26a2787265",
    "label": "3B RUE DU CHATEAU D EAU, Toussaint",
    "lat": 49.736939,
    "lng": 0.422773,
    "transactions": [
      {
        "date": "2023-04-17",
        "priceEur": 199600,
        "typeLocal": "Maison",
        "surfaceM2": 160,
        "isVefa": false
      }
    ]
  },
  "a425c1bbfee1": {
    "id": "a425c1bbfee1",
    "label": "17 RUE DE ROUEN, Toussaint",
    "lat": 49.738657,
    "lng": 0.424788,
    "transactions": [
      {
        "date": "2023-04-13",
        "priceEur": 137000,
        "typeLocal": "Maison",
        "surfaceM2": 91,
        "isVefa": false
      }
    ]
  },
  "e4361e657ae8": {
    "id": "e4361e657ae8",
    "label": "9 RUE BRUYERE SUR LE ROC, Toussaint",
    "lat": 49.738426,
    "lng": 0.418669,
    "transactions": [
      {
        "date": "2023-06-02",
        "priceEur": 209227,
        "typeLocal": "Maison",
        "surfaceM2": 94,
        "isVefa": false
      }
    ]
  },
  "17b2811ca617": {
    "id": "17b2811ca617",
    "label": "3 RTE DU MONT ROBERT, Ganzeville",
    "lat": 49.731632,
    "lng": 0.418139,
    "transactions": [
      {
        "date": "2023-06-17",
        "priceEur": 173000,
        "typeLocal": "Maison",
        "surfaceM2": 118,
        "isVefa": false
      }
    ]
  },
  "0d0e294bfb51": {
    "id": "0d0e294bfb51",
    "label": "61 RUE DE ROUEN, Toussaint",
    "lat": 49.736045,
    "lng": 0.428254,
    "transactions": [
      {
        "date": "2023-09-15",
        "priceEur": 215000,
        "typeLocal": "Maison",
        "surfaceM2": 90,
        "isVefa": false
      }
    ]
  },
  "8914ae84733a": {
    "id": "8914ae84733a",
    "label": "17 RUE DE L EGLISE, Toussaint",
    "lat": 49.737103,
    "lng": 0.421873,
    "transactions": [
      {
        "date": "2023-10-31",
        "priceEur": 130000,
        "typeLocal": "Maison",
        "surfaceM2": 80,
        "isVefa": false
      }
    ]
  },
  "fd4da2fdb355": {
    "id": "fd4da2fdb355",
    "label": "9 RTE DU MONT ROBERT, Ganzeville",
    "lat": 49.731959,
    "lng": 0.418816,
    "transactions": [
      {
        "date": "2024-07-23",
        "priceEur": 111000,
        "typeLocal": "Maison",
        "surfaceM2": 48,
        "isVefa": false
      }
    ]
  },
  "611dba18a75e": {
    "id": "611dba18a75e",
    "label": "1 RUE DES FOUGERES, Toussaint",
    "lat": 49.737919,
    "lng": 0.418191,
    "transactions": [
      {
        "date": "2025-01-02",
        "priceEur": 190500,
        "typeLocal": "Maison",
        "surfaceM2": 115,
        "isVefa": false
      }
    ]
  },
  "2e0415a56de6": {
    "id": "2e0415a56de6",
    "label": "2 RUE DE L OBSERVATOIRE, Toussaint",
    "lat": 49.734948,
    "lng": 0.420691,
    "transactions": [
      {
        "date": "2025-03-11",
        "priceEur": 220000,
        "typeLocal": "Maison",
        "surfaceM2": 143,
        "isVefa": false
      }
    ]
  },
  "31886f7b5fce": {
    "id": "31886f7b5fce",
    "label": "39 RUE DE ROUEN, Toussaint",
    "lat": 49.73786,
    "lng": 0.425825,
    "transactions": [
      {
        "date": "2025-04-15",
        "priceEur": 120000,
        "typeLocal": "Maison",
        "surfaceM2": 122,
        "isVefa": false
      }
    ]
  }
}