{
  "2ccf9faf74dd": {
    "id": "2ccf9faf74dd",
    "label": "2 VOIE SAINT MARTIN, Écalles-Alix",
    "lat": 49.615435,
    "lng": 0.823909,
    "transactions": [
      {
        "date": "2020-08-21",
        "priceEur": 157000,
        "typeLocal": "Maison",
        "surfaceM2": 86,
        "isVefa": false
      }
    ]
  },
  "b053da796101": {
    "id": "b053da796101",
    "label": "16 RTE DE L ECOLE, Écalles-Alix",
    "lat": 49.617611,
    "lng": 0.823682,
    "transactions": [
      {
        "date": "2021-11-02",
        "priceEur": 160000,
        "typeLocal": "Maison",
        "surfaceM2": 106,
        "isVefa": false
      }
    ]
  },
  "f9868232e05c": {
    "id": "f9868232e05c",
    "label": "32 RTE DE L ECOLE, Écalles-Alix",
    "lat": 49.61773,
    "lng": 0.823451,
    "transactions": [
      {
        "date": "2021-04-30",
        "priceEur": 100000,
        "typeLocal": "Maison",
        "surfaceM2": 71,
        "isVefa": false
      }
    ]
  },
  "3b5d9bdfa5c5": {
    "id": "3b5d9bdfa5c5",
    "label": "55 RUE DE LA GRANGE, Écalles-Alix",
    "lat": 49.616672,
    "lng": 0.821499,
    "transactions": [
      {
        "date": "2021-07-05",
        "priceEur": 49000,
        "typeLocal": "Maison",
        "surfaceM2": 80,
        "isVefa": false
      }
    ]
  },
  "da09d638106b": {
    "id": "da09d638106b",
    "label": "103 RTE DE L ECOLE, Écalles-Alix",
    "lat": 49.617186,
    "lng": 0.82228,
    "transactions": [
      {
        "date": "2022-02-12",
        "priceEur": 234000,
        "typeLocal": "Maison",
        "surfaceM2": 99,
        "isVefa": false
      }
    ]
  },
  "e652cd212cf9": {
    "id": "e652cd212cf9",
    "label": "64 SEN DES MATOUS, Écalles-Alix",
    "lat": 49.615652,
    "lng": 0.81989,
    "transactions": [
      {
        "date": "2022-04-27",
        "priceEur": 328000,
        "typeLocal": "Maison",
        "surfaceM2": 174,
        "isVefa": false
      }
    ]
  },
  "e2832c1fc9e7": {
    "id": "e2832c1fc9e7",
    "label": "111 SEN DES MATOUS, Écalles-Alix",
    "lat": 49.615157,
    "lng": 0.819535,
    "transactions": [
      {
        "date": "2023-01-20",
        "priceEur": 240000,
        "typeLocal": "Maison",
        "surfaceM2": 138,
        "isVefa": false
      }
    ]
  },
  "a1e8adc3f44f": {
    "id": "a1e8adc3f44f",
    "label": "265 RTE DE L ECOLE, Écalles-Alix",
    "lat": 49.617249,
    "lng": 0.820856,
    "transactions": [
      {
        "date": "2023-03-10",
        "priceEur": 273500,
        "typeLocal": "Maison",
        "surfaceM2": 130,
        "isVefa": false
      }
    ]
  },
  "1659857d44dd": {
    "id": "1659857d44dd",
    "label": "541 RUE DU CALVAIRE, Écalles-Alix",
    "lat": 49.612529,
    "lng": 0.816868,
    "transactions": [
      {
        "date": "2023-04-14",
        "priceEur": 254000,
        "typeLocal": "Maison",
        "surfaceM2": 120,
        "isVefa": false
      }
    ]
  },
  "413d7cc657df": {
    "id": "413d7cc657df",
    "label": "640 RUE DU CALVAIRE, Écalles-Alix",
    "lat": 49.612032,
    "lng": 0.815406,
    "transactions": [
      {
        "date": "2023-10-17",
        "priceEur": 229400,
        "typeLocal": "Maison",
        "surfaceM2": 98,
        "isVefa": false
      }
    ]
  },
  "1c6ffd7a615b": {
    "id": "1c6ffd7a615b",
    "label": "46 CHE DES FERMES, Écalles-Alix",
    "lat": 49.616844,
    "lng": 0.813321,
    "transactions": [
      {
        "date": "2025-01-24",
        "priceEur": 205891,
        "typeLocal": "Maison",
        "surfaceM2": 126,
        "isVefa": false
      },
      {
        "date": "2024-04-30",
        "priceEur": 170000,
        "typeLocal": "Maison",
        "surfaceM2": 126,
        "isVefa": false
      }
    ]
  },
  "7d8213ec77b1": {
    "id": "7d8213ec77b1",
    "label": "16 RUE DU BOURG, Écalles-Alix",
    "lat": 49.615638,
    "lng": 0.822726,
    "transactions": [
      {
        "date": "2024-11-18",
        "priceEur": 242900,
        "typeLocal": "Maison",
        "surfaceM2": 123,
        "isVefa": false
      }
    ]
  },
  "0e1a7bc685f9": {
    "id": "0e1a7bc685f9",
    "label": "298 RUE DU CALVAIRE, Écalles-Alix",
    "lat": 49.61453,
    "lng": 0.818554,
    "transactions": [
      {
        "date": "2025-04-22",
        "priceEur": 217000,
        "typeLocal": "Maison",
        "surfaceM2": 110,
        "isVefa": false
      }
    ]
  }
}