{
  "9d572a8eb52e": {
    "id": "9d572a8eb52e",
    "label": "110 D 6015, Saint-Romain-de-Colbosc",
    "lat": 49.534251,
    "lng": 0.36175,
    "transactions": [
      {
        "date": "2020-10-02",
        "priceEur": 307500,
        "typeLocal": "Maison",
        "surfaceM2": 158,
        "isVefa": false
      }
    ]
  },
  "b42658f48a25": {
    "id": "b42658f48a25",
    "label": "6 RUE DE LA CROIX LETERQUE, Saint-Romain-de-Colbosc",
    "lat": 49.533261,
    "lng": 0.361132,
    "transactions": [
      {
        "date": "2022-02-14",
        "priceEur": 207000,
        "typeLocal": "Maison",
        "surfaceM2": 108,
        "isVefa": false
      },
      {
        "date": "2020-11-30",
        "priceEur": 205000,
        "typeLocal": "Maison",
        "surfaceM2": 108,
        "isVefa": false
      }
    ]
  },
  "eb9b2f83aa14": {
    "id": "eb9b2f83aa14",
    "label": "7 ALL CLAUDE LEVI-STRAUSS, Saint-Romain-de-Colbosc",
    "lat": 49.534194,
    "lng": 0.360803,
    "transactions": [
      {
        "date": "2020-12-14",
        "priceEur": 200000,
        "typeLocal": "Maison",
        "surfaceM2": 93,
        "isVefa": false
      }
    ]
  },
  "bd1c274e7cda": {
    "id": "bd1c274e7cda",
    "label": "9 RUE DE LA CROIX LETERQUE, Saint-Romain-de-Colbosc",
    "lat": 49.533222,
    "lng": 0.361916,
    "transactions": [
      {
        "date": "2024-06-05",
        "priceEur": 142500,
        "typeLocal": "Appartement",
        "surfaceM2": 52,
        "isVefa": false
      },
      {
        "date": "2024-03-11",
        "priceEur": 181000,
        "typeLocal": "Appartement",
        "surfaceM2": 67,
        "isVefa": false
      },
      {
        "date": "2023-11-22",
        "priceEur": 155000,
        "typeLocal": "Appartement",
        "surfaceM2": 50,
        "isVefa": false
      },
      {
        "date": "2022-06-24",
        "priceEur": 205000,
        "typeLocal": "Appartement",
        "surfaceM2": 63,
        "isVefa": false
      },
      {
        "date": "2021-09-29",
        "priceEur": 122250,
        "typeLocal": "Appartement",
        "surfaceM2": 44,
        "isVefa": false
      },
      {
        "date": "2020-12-18",
        "priceEur": 164500,
        "typeLocal": "Appartement",
        "surfaceM2": 67,
        "isVefa": false
      }
    ]
  },
  "a36dd8430f52": {
    "id": "a36dd8430f52",
    "label": "62A AV MAL DE LATTRE DE TASSIGNY, Saint-Romain-de-Colbosc",
    "lat": 49.532768,
    "lng": 0.355112,
    "transactions": [
      {
        "date": "2021-04-26",
        "priceEur": 215000,
        "typeLocal": "Maison",
        "surfaceM2": 79,
        "isVefa": false
      }
    ]
  },
  "72c387729d67": {
    "id": "72c387729d67",
    "label": "5767 D 6015, Saint-Romain-de-Colbosc",
    "lat": 49.53355,
    "lng": 0.356022,
    "transactions": [
      {
        "date": "2021-05-21",
        "priceEur": 197000,
        "typeLocal": "Maison",
        "surfaceM2": 130,
        "isVefa": false
      }
    ]
  },
  "b4d110deb64c": {
    "id": "b4d110deb64c",
    "label": "2 RTE D EPRETOT, Saint-Romain-de-Colbosc",
    "lat": 49.533493,
    "lng": 0.353331,
    "transactions": [
      {
        "date": "2021-07-09",
        "priceEur": 145000,
        "typeLocal": "Maison",
        "surfaceM2": 97,
        "isVefa": false
      }
    ]
  },
  "d30768563078": {
    "id": "d30768563078",
    "label": "10D ALL DU BEL AIR, Saint-Romain-de-Colbosc",
    "lat": 49.533061,
    "lng": 0.35816,
    "transactions": [
      {
        "date": "2021-07-30",
        "priceEur": 137000,
        "typeLocal": "Appartement",
        "surfaceM2": 75,
        "isVefa": false
      }
    ]
  },
  "fe95411ceaab": {
    "id": "fe95411ceaab",
    "label": "13B RTE DE LA GARE, Saint-Romain-de-Colbosc",
    "lat": 49.533956,
    "lng": 0.352571,
    "transactions": [
      {
        "date": "2022-01-13",
        "priceEur": 160000,
        "typeLocal": "Maison",
        "surfaceM2": 85,
        "isVefa": false
      }
    ]
  },
  "dc6864e113f0": {
    "id": "dc6864e113f0",
    "label": "45 D 6015, Saint-Romain-de-Colbosc",
    "lat": 49.532944,
    "lng": 0.353447,
    "transactions": [
      {
        "date": "2024-10-31",
        "priceEur": 770000,
        "typeLocal": "Maison",
        "surfaceM2": 66,
        "isVefa": false
      },
      {
        "date": "2022-01-21",
        "priceEur": 405000,
        "typeLocal": "Maison",
        "surfaceM2": 66,
        "isVefa": false
      }
    ]
  },
  "2533f868ba47": {
    "id": "2533f868ba47",
    "label": "74 AV MAL DE LATTRE DE TASSIGNY, Saint-Romain-de-Colbosc",
    "lat": 49.533068,
    "lng": 0.356844,
    "transactions": [
      {
        "date": "2022-03-14",
        "priceEur": 350000,
        "typeLocal": "Maison",
        "surfaceM2": 100,
        "isVefa": false
      }
    ]
  },
  "4a7e4f1afedf": {
    "id": "4a7e4f1afedf",
    "label": "10 RTE DE LA GARE, Saint-Romain-de-Colbosc",
    "lat": 49.534783,
    "lng": 0.352488,
    "transactions": [
      {
        "date": "2022-04-12",
        "priceEur": 215000,
        "typeLocal": "Maison",
        "surfaceM2": 87,
        "isVefa": false
      }
    ]
  },
  "41411f8f84cc": {
    "id": "41411f8f84cc",
    "label": "84 D 6015, Saint-Romain-de-Colbosc",
    "lat": 49.533167,
    "lng": 0.357648,
    "transactions": [
      {
        "date": "2022-06-23",
        "priceEur": 228000,
        "typeLocal": "Maison",
        "surfaceM2": 93,
        "isVefa": false
      }
    ]
  },
  "58ff73a7898e": {
    "id": "58ff73a7898e",
    "label": "86 D 6015, Saint-Romain-de-Colbosc",
    "lat": 49.533342,
    "lng": 0.357888,
    "transactions": [
      {
        "date": "2022-09-19",
        "priceEur": 101000,
        "typeLocal": "Maison",
        "surfaceM2": 51,
        "isVefa": false
      }
    ]
  },
  "97db799fe5ec": {
    "id": "97db799fe5ec",
    "label": "5598 LE BOURG, Saint-Romain-de-Colbosc",
    "lat": 49.53304,
    "lng": 0.358106,
    "transactions": [
      {
        "date": "2022-11-28",
        "priceEur": 166500,
        "typeLocal": "Appartement",
        "surfaceM2": 69,
        "isVefa": false
      }
    ]
  },
  "a5ae1703dce4": {
    "id": "a5ae1703dce4",
    "label": "71 D 6015, Saint-Romain-de-Colbosc",
    "lat": 49.534395,
    "lng": 0.359644,
    "transactions": [
      {
        "date": "2022-11-17",
        "priceEur": 152000,
        "typeLocal": "Maison",
        "surfaceM2": 120,
        "isVefa": false
      }
    ]
  },
  "86ab3de9c0f1": {
    "id": "86ab3de9c0f1",
    "label": "27 RUE DU BASSIN, Saint-Romain-de-Colbosc",
    "lat": 49.532645,
    "lng": 0.359323,
    "transactions": [
      {
        "date": "2022-12-28",
        "priceEur": 194000,
        "typeLocal": "Maison",
        "surfaceM2": 56,
        "isVefa": false
      }
    ]
  },
  "5d2b35e3a98c": {
    "id": "5d2b35e3a98c",
    "label": "6674 LA CROIX LETERQUE, Saint-Romain-de-Colbosc",
    "lat": 49.534904,
    "lng": 0.360052,
    "transactions": [
      {
        "date": "2023-05-05",
        "priceEur": 195000,
        "typeLocal": "Maison",
        "surfaceM2": 102,
        "isVefa": false
      }
    ]
  },
  "c970499d3889": {
    "id": "c970499d3889",
    "label": "78 D 6015, Saint-Romain-de-Colbosc",
    "lat": 49.533081,
    "lng": 0.357182,
    "transactions": [
      {
        "date": "2023-05-31",
        "priceEur": 206000,
        "typeLocal": "Maison",
        "surfaceM2": 100,
        "isVefa": false
      }
    ]
  },
  "1c91a105063a": {
    "id": "1c91a105063a",
    "label": "6138 RTE DE GODERVILLE, Saint-Romain-de-Colbosc",
    "lat": 49.536516,
    "lng": 0.355634,
    "transactions": [
      {
        "date": "2023-07-07",
        "priceEur": 200000,
        "typeLocal": "Maison",
        "surfaceM2": 103,
        "isVefa": false
      }
    ]
  },
  "c2c58085ac26": {
    "id": "c2c58085ac26",
    "label": "41 D 6015, Saint-Romain-de-Colbosc",
    "lat": 49.532833,
    "lng": 0.352931,
    "transactions": [
      {
        "date": "2023-07-13",
        "priceEur": 327000,
        "typeLocal": "Maison",
        "surfaceM2": 90,
        "isVefa": false
      }
    ]
  },
  "cb8d430d79fa": {
    "id": "cb8d430d79fa",
    "label": "67 AV MAL DE LATTRE DE TASSIGNY, Saint-Romain-de-Colbosc",
    "lat": 49.534337,
    "lng": 0.359366,
    "transactions": [
      {
        "date": "2023-06-30",
        "priceEur": 150000,
        "typeLocal": "Maison",
        "surfaceM2": 80,
        "isVefa": false
      }
    ]
  },
  "ef7b7a1c6f74": {
    "id": "ef7b7a1c6f74",
    "label": "699 RTE DE GODERVILLE, Saint-Romain-de-Colbosc",
    "lat": 49.539275,
    "lng": 0.3544,
    "transactions": [
      {
        "date": "2023-09-25",
        "priceEur": 280000,
        "typeLocal": "Maison",
        "surfaceM2": 75,
        "isVefa": false
      }
    ]
  },
  "5b499ff07c29": {
    "id": "5b499ff07c29",
    "label": "88 AV MAL DE LATTRE DE TASSIGNY, Saint-Romain-de-Colbosc",
    "lat": 49.533447,
    "lng": 0.357941,
    "transactions": [
      {
        "date": "2024-04-23",
        "priceEur": 200000,
        "typeLocal": "Maison",
        "surfaceM2": 118,
        "isVefa": false
      }
    ]
  },
  "221da6134c37": {
    "id": "221da6134c37",
    "label": "10 RTE D EPRETOT, Saint-Romain-de-Colbosc",
    "lat": 49.534046,
    "lng": 0.352172,
    "transactions": [
      {
        "date": "2024-08-19",
        "priceEur": 110000,
        "typeLocal": "Maison",
        "surfaceM2": 63,
        "isVefa": false
      }
    ]
  },
  "cab9cfa5e6df": {
    "id": "cab9cfa5e6df",
    "label": "3 RTE D EPRETOT, Saint-Romain-de-Colbosc",
    "lat": 49.533204,
    "lng": 0.353291,
    "transactions": [
      {
        "date": "2024-10-29",
        "priceEur": 139000,
        "typeLocal": "Maison",
        "surfaceM2": 66,
        "isVefa": false
      }
    ]
  },
  "b56e40ad14ec": {
    "id": "b56e40ad14ec",
    "label": "106B RUE DE LA REPUBLIQUE, Saint-Romain-de-Colbosc",
    "lat": 49.532587,
    "lng": 0.354694,
    "transactions": [
      {
        "date": "2024-12-06",
        "priceEur": 676000,
        "typeLocal": "Appartement",
        "surfaceM2": 78,
        "isVefa": false
      },
      {
        "date": "2024-12-06",
        "priceEur": 676000,
        "typeLocal": "Appartement",
        "surfaceM2": 62,
        "isVefa": false
      },
      {
        "date": "2024-12-06",
        "priceEur": 676000,
        "typeLocal": "Appartement",
        "surfaceM2": 66,
        "isVefa": false
      }
    ]
  },
  "9be854af0039": {
    "id": "9be854af0039",
    "label": "108 RUE DE LA REPUBLIQUE, Saint-Romain-de-Colbosc",
    "lat": 49.532684,
    "lng": 0.354695,
    "transactions": [
      {
        "date": "2024-12-06",
        "priceEur": 676000,
        "typeLocal": "Appartement",
        "surfaceM2": 51,
        "isVefa": false
      },
      {
        "date": "2024-12-06",
        "priceEur": 676000,
        "typeLocal": "Appartement",
        "surfaceM2": 52,
        "isVefa": false
      }
    ]
  },
  "0d7ddc0a317a": {
    "id": "0d7ddc0a317a",
    "label": "10E ALL DU BEL AIR, Saint-Romain-de-Colbosc",
    "lat": 49.533081,
    "lng": 0.358235,
    "transactions": [
      {
        "date": "2025-03-14",
        "priceEur": 166500,
        "typeLocal": "Appartement",
        "surfaceM2": 77,
        "isVefa": false
      }
    ]
  },
  "084f7a8cad33": {
    "id": "084f7a8cad33",
    "label": "17 ALL CLAUDE LEVI-STRAUSS, Saint-Romain-de-Colbosc",
    "lat": 49.533995,
    "lng": 0.361553,
    "transactions": [
      {
        "date": "2025-03-27",
        "priceEur": 238000,
        "typeLocal": "Maison",
        "surfaceM2": 98,
        "isVefa": false
      }
    ]
  },
  "67198b9afa2c": {
    "id": "67198b9afa2c",
    "label": "17B RTE DE LA GARE, Saint-Romain-de-Colbosc",
    "lat": 49.534072,
    "lng": 0.35252,
    "transactions": [
      {
        "date": "2025-04-15",
        "priceEur": 355000,
        "typeLocal": "Maison",
        "surfaceM2": 70,
        "isVefa": false
      },
      {
        "date": "2025-04-15",
        "priceEur": 355000,
        "typeLocal": "Maison",
        "surfaceM2": 51,
        "isVefa": false
      },
      {
        "date": "2025-04-15",
        "priceEur": 355000,
        "typeLocal": "Maison",
        "surfaceM2": 71,
        "isVefa": false
      }
    ]
  },
  "39bef8ecc3f7": {
    "id": "39bef8ecc3f7",
    "label": "17 RTE DE LA GARE, Saint-Romain-de-Colbosc",
    "lat": 49.534037,
    "lng": 0.352772,
    "transactions": [
      {
        "date": "2025-04-15",
        "priceEur": 355000,
        "typeLocal": "Maison",
        "surfaceM2": 62,
        "isVefa": false
      }
    ]
  },
  "3f3c92715f23": {
    "id": "3f3c92715f23",
    "label": "1 ALL DU BEL AIR, Saint-Romain-de-Colbosc",
    "lat": 49.532524,
    "lng": 0.358126,
    "transactions": [
      {
        "date": "2025-05-12",
        "priceEur": 282500,
        "typeLocal": "Maison",
        "surfaceM2": 120,
        "isVefa": false
      }
    ]
  },
  "71a95a12615c": {
    "id": "71a95a12615c",
    "label": "2B RTE DE GODERVILLE, Saint-Romain-de-Colbosc",
    "lat": 49.534095,
    "lng": 0.35605,
    "transactions": [
      {
        "date": "2025-05-12",
        "priceEur": 267000,
        "typeLocal": "Maison",
        "surfaceM2": 89,
        "isVefa": false
      }
    ]
  }
}