{
  "b2ca79452791": {
    "id": "b2ca79452791",
    "label": "5240 RTE DE ROUEN BUCHY, Buchy",
    "lat": 49.58457,
    "lng": 1.356288,
    "transactions": [
      {
        "date": "2020-10-29",
        "priceEur": 210000,
        "typeLocal": "Maison",
        "surfaceM2": 196,
        "isVefa": false
      }
    ]
  },
  "9cdf0b3d2236": {
    "id": "9cdf0b3d2236",
    "label": "403 RTE DE ROCQUEMONT, Buchy",
    "lat": 49.584776,
    "lng": 1.353283,
    "transactions": [
      {
        "date": "2021-09-24",
        "priceEur": 130000,
        "typeLocal": "Appartement",
        "surfaceM2": 62,
        "isVefa": false
      },
      {
        "date": "2020-12-17",
        "priceEur": 550000,
        "typeLocal": "Appartement",
        "surfaceM2": 62,
        "isVefa": false
      }
    ]
  },
  "eaa9333c9c2a": {
    "id": "eaa9333c9c2a",
    "label": "625 RTE DE LA FRENAYE, Buchy",
    "lat": 49.588063,
    "lng": 1.359363,
    "transactions": [
      {
        "date": "2021-10-18",
        "priceEur": 58000,
        "typeLocal": "Maison",
        "surfaceM2": 75,
        "isVefa": false
      }
    ]
  },
  "396d178c9b30": {
    "id": "396d178c9b30",
    "label": "560 CLOS DE LA FERME, Buchy",
    "lat": 49.587324,
    "lng": 1.360053,
    "transactions": [
      {
        "date": "2021-11-05",
        "priceEur": 53000,
        "typeLocal": "Maison",
        "surfaceM2": 97,
        "isVefa": false
      }
    ]
  },
  "bb7c7cc67efb": {
    "id": "bb7c7cc67efb",
    "label": "5137 LE MOULIN BUCHY, Buchy",
    "lat": 49.583193,
    "lng": 1.359257,
    "transactions": [
      {
        "date": "2021-01-27",
        "priceEur": 110000,
        "typeLocal": "Maison",
        "surfaceM2": 55,
        "isVefa": false
      }
    ]
  },
  "43a1b0631d3d": {
    "id": "43a1b0631d3d",
    "label": "185 RTE DE DIEPPE, Buchy",
    "lat": 49.585526,
    "lng": 1.357109,
    "transactions": [
      {
        "date": "2021-04-08",
        "priceEur": 137000,
        "typeLocal": "Maison",
        "surfaceM2": 85,
        "isVefa": false
      }
    ]
  },
  "2e6ac929bc59": {
    "id": "2e6ac929bc59",
    "label": "392 RUE ERNEST NOURY, Buchy",
    "lat": 49.582706,
    "lng": 1.360929,
    "transactions": [
      {
        "date": "2021-04-16",
        "priceEur": 155000,
        "typeLocal": "Maison",
        "surfaceM2": 104,
        "isVefa": false
      }
    ]
  },
  "8940d94d4f73": {
    "id": "8940d94d4f73",
    "label": "70 RUE LEON SANNIER, Buchy",
    "lat": 49.585641,
    "lng": 1.358331,
    "transactions": [
      {
        "date": "2021-06-21",
        "priceEur": 105000,
        "typeLocal": "Maison",
        "surfaceM2": 27,
        "isVefa": false
      }
    ]
  },
  "05e911c20e1f": {
    "id": "05e911c20e1f",
    "label": "329 RUE AUX JUIFS, Buchy",
    "lat": 49.58373,
    "lng": 1.355184,
    "transactions": [
      {
        "date": "2021-06-25",
        "priceEur": 189000,
        "typeLocal": "Maison",
        "surfaceM2": 104,
        "isVefa": false
      }
    ]
  },
  "058f94c51384": {
    "id": "058f94c51384",
    "label": "140 RUE LEON SANNIER, Buchy",
    "lat": 49.586196,
    "lng": 1.358085,
    "transactions": [
      {
        "date": "2021-07-23",
        "priceEur": 166800,
        "typeLocal": "Maison",
        "surfaceM2": 60,
        "isVefa": false
      },
      {
        "date": "2021-07-23",
        "priceEur": 166800,
        "typeLocal": "Maison",
        "surfaceM2": 41,
        "isVefa": false
      }
    ]
  },
  "0136a9422e74": {
    "id": "0136a9422e74",
    "label": "160 GR GRANDE RUE, Buchy",
    "lat": 49.584619,
    "lng": 1.356545,
    "transactions": [
      {
        "date": "2021-08-12",
        "priceEur": 214000,
        "typeLocal": "Maison",
        "surfaceM2": 91,
        "isVefa": false
      }
    ]
  },
  "534b168da0f5": {
    "id": "534b168da0f5",
    "label": "218 RTE DE SOMMERY, Buchy",
    "lat": 49.586379,
    "lng": 1.360135,
    "transactions": [
      {
        "date": "2021-09-02",
        "priceEur": 120000,
        "typeLocal": "Maison",
        "surfaceM2": 70,
        "isVefa": false
      }
    ]
  },
  "02ea8c12ab36": {
    "id": "02ea8c12ab36",
    "label": "332 RUE AUX JUIFS, Buchy",
    "lat": 49.583892,
    "lng": 1.355075,
    "transactions": [
      {
        "date": "2021-09-17",
        "priceEur": 138000,
        "typeLocal": "Maison",
        "surfaceM2": 40,
        "isVefa": false
      }
    ]
  },
  "4f10528be722": {
    "id": "4f10528be722",
    "label": "366 HAM DU NID DE GEAI, Buchy",
    "lat": 49.582912,
    "lng": 1.361602,
    "transactions": [
      {
        "date": "2022-01-21",
        "priceEur": 94500,
        "typeLocal": "Maison",
        "surfaceM2": 80,
        "isVefa": false
      }
    ]
  },
  "6ce4bcd84a6e": {
    "id": "6ce4bcd84a6e",
    "label": "450 RUE FERNAND PIOLE, Buchy",
    "lat": 49.583344,
    "lng": 1.357852,
    "transactions": [
      {
        "date": "2022-02-14",
        "priceEur": 155000,
        "typeLocal": "Maison",
        "surfaceM2": 58,
        "isVefa": false
      }
    ]
  },
  "c1b7df7fedc8": {
    "id": "c1b7df7fedc8",
    "label": "566 CHE DU BESLE, Buchy",
    "lat": 49.582627,
    "lng": 1.351668,
    "transactions": [
      {
        "date": "2022-03-02",
        "priceEur": 190300,
        "typeLocal": "Maison",
        "surfaceM2": 63,
        "isVefa": false
      }
    ]
  },
  "ea82c5a830b6": {
    "id": "ea82c5a830b6",
    "label": "564 PARC DU BEL AIR, Buchy",
    "lat": 49.586524,
    "lng": 1.360591,
    "transactions": [
      {
        "date": "2022-03-01",
        "priceEur": 240000,
        "typeLocal": "Maison",
        "surfaceM2": 83,
        "isVefa": false
      }
    ]
  },
  "3d3c550ead51": {
    "id": "3d3c550ead51",
    "label": "788 RUE FERNAND PIOLE, Buchy",
    "lat": 49.582677,
    "lng": 1.359142,
    "transactions": [
      {
        "date": "2022-04-14",
        "priceEur": 193000,
        "typeLocal": "Maison",
        "surfaceM2": 90,
        "isVefa": false
      }
    ]
  },
  "dc689062235a": {
    "id": "dc689062235a",
    "label": "552 RUE GASTON NOEL, Buchy",
    "lat": 49.583038,
    "lng": 1.351649,
    "transactions": [
      {
        "date": "2022-05-04",
        "priceEur": 150000,
        "typeLocal": "Maison",
        "surfaceM2": 63,
        "isVefa": false
      }
    ]
  },
  "0004c6458da6": {
    "id": "0004c6458da6",
    "label": "80 RTE DE FORGES BUCHY, Buchy",
    "lat": 49.584828,
    "lng": 1.359455,
    "transactions": [
      {
        "date": "2022-04-30",
        "priceEur": 320000,
        "typeLocal": "Appartement",
        "surfaceM2": 95,
        "isVefa": false
      }
    ]
  },
  "af0ea04d3dfd": {
    "id": "af0ea04d3dfd",
    "label": "502 RUE GASTON NOEL, Buchy",
    "lat": 49.583089,
    "lng": 1.352404,
    "transactions": [
      {
        "date": "2022-05-23",
        "priceEur": 178000,
        "typeLocal": "Maison",
        "surfaceM2": 63,
        "isVefa": false
      }
    ]
  },
  "08dcd4c1fdb7": {
    "id": "08dcd4c1fdb7",
    "label": "430B AV DES CANADIENS, Buchy",
    "lat": 49.582859,
    "lng": 1.354136,
    "transactions": [
      {
        "date": "2022-05-27",
        "priceEur": 160900,
        "typeLocal": "Maison",
        "surfaceM2": 56,
        "isVefa": false
      }
    ]
  },
  "6335c84ec65d": {
    "id": "6335c84ec65d",
    "label": "70 RTE DE SOMMERY, Buchy",
    "lat": 49.585404,
    "lng": 1.358738,
    "transactions": [
      {
        "date": "2022-06-09",
        "priceEur": 175000,
        "typeLocal": "Maison",
        "surfaceM2": 50,
        "isVefa": false
      },
      {
        "date": "2022-06-09",
        "priceEur": 175000,
        "typeLocal": "Maison",
        "surfaceM2": 70,
        "isVefa": false
      }
    ]
  },
  "de3f20742a6e": {
    "id": "de3f20742a6e",
    "label": "60 PL DU GENERAL DE GAULLE, Buchy",
    "lat": 49.585196,
    "lng": 1.359164,
    "transactions": [
      {
        "date": "2022-06-24",
        "priceEur": 242000,
        "typeLocal": "Appartement",
        "surfaceM2": 39,
        "isVefa": false
      },
      {
        "date": "2022-06-24",
        "priceEur": 242000,
        "typeLocal": "Appartement",
        "surfaceM2": 38,
        "isVefa": false
      },
      {
        "date": "2022-06-24",
        "priceEur": 242000,
        "typeLocal": "Appartement",
        "surfaceM2": 59,
        "isVefa": false
      }
    ]
  },
  "1f181b12fea1": {
    "id": "1f181b12fea1",
    "label": "120 RTE DE SOMMERY, Buchy",
    "lat": 49.585685,
    "lng": 1.359453,
    "transactions": [
      {
        "date": "2022-07-08",
        "priceEur": 171000,
        "typeLocal": "Appartement",
        "surfaceM2": 82,
        "isVefa": false
      }
    ]
  },
  "d045be8aefa1": {
    "id": "d045be8aefa1",
    "label": "469 RUE HENRI DUNANT, Buchy",
    "lat": 49.584296,
    "lng": 1.360993,
    "transactions": [
      {
        "date": "2022-07-27",
        "priceEur": 148000,
        "typeLocal": "Maison",
        "surfaceM2": 70,
        "isVefa": false
      }
    ]
  },
  "2c5aecc7d4c8": {
    "id": "2c5aecc7d4c8",
    "label": "40 RUE DES HALLES, Buchy",
    "lat": 49.585471,
    "lng": 1.358279,
    "transactions": [
      {
        "date": "2022-08-31",
        "priceEur": 75000,
        "typeLocal": "Maison",
        "surfaceM2": 145,
        "isVefa": false
      }
    ]
  },
  "de01d1263af5": {
    "id": "de01d1263af5",
    "label": "77 RTE DE SOMMERY, Buchy",
    "lat": 49.585671,
    "lng": 1.358591,
    "transactions": [
      {
        "date": "2022-10-27",
        "priceEur": 85000,
        "typeLocal": "Maison",
        "surfaceM2": 74,
        "isVefa": false
      }
    ]
  },
  "8ca1d9b65a8a": {
    "id": "8ca1d9b65a8a",
    "label": "435 RUE DE L EGALITE, Buchy",
    "lat": 49.586385,
    "lng": 1.3559,
    "transactions": [
      {
        "date": "2022-11-18",
        "priceEur": 80000,
        "typeLocal": "Maison",
        "surfaceM2": 33,
        "isVefa": false
      }
    ]
  },
  "ed1452946797": {
    "id": "ed1452946797",
    "label": "384B AV DES CANADIENS, Buchy",
    "lat": 49.583021,
    "lng": 1.353815,
    "transactions": [
      {
        "date": "2023-01-24",
        "priceEur": 200000,
        "typeLocal": "Maison",
        "surfaceM2": 74,
        "isVefa": false
      }
    ]
  },
  "2275c67c8314": {
    "id": "2275c67c8314",
    "label": "71 RTE DE SOMMERY, Buchy",
    "lat": 49.585689,
    "lng": 1.358521,
    "transactions": [
      {
        "date": "2023-03-22",
        "priceEur": 155750,
        "typeLocal": "Maison",
        "surfaceM2": 72,
        "isVefa": false
      }
    ]
  },
  "940c5810deb7": {
    "id": "940c5810deb7",
    "label": "131 GR GRANDE RUE, Buchy",
    "lat": 49.584274,
    "lng": 1.35763,
    "transactions": [
      {
        "date": "2023-03-15",
        "priceEur": 480000,
        "typeLocal": "Maison",
        "surfaceM2": 140,
        "isVefa": false
      }
    ]
  },
  "ca2c848e5b2f": {
    "id": "ca2c848e5b2f",
    "label": "370 RUE HENRI DUNANT, Buchy",
    "lat": 49.584136,
    "lng": 1.361281,
    "transactions": [
      {
        "date": "2023-03-24",
        "priceEur": 130000,
        "typeLocal": "Maison",
        "surfaceM2": 70,
        "isVefa": false
      }
    ]
  },
  "9bd0cf05f846": {
    "id": "9bd0cf05f846",
    "label": "387 AV DES CANADIENS, Buchy",
    "lat": 49.583364,
    "lng": 1.354779,
    "transactions": [
      {
        "date": "2023-03-20",
        "priceEur": 180000,
        "typeLocal": "Maison",
        "surfaceM2": 84,
        "isVefa": false
      }
    ]
  },
  "c29767f44b33": {
    "id": "c29767f44b33",
    "label": "245 RUE LEON SANNIER, Buchy",
    "lat": 49.586786,
    "lng": 1.356955,
    "transactions": [
      {
        "date": "2023-04-07",
        "priceEur": 168000,
        "typeLocal": "Maison",
        "surfaceM2": 100,
        "isVefa": false
      }
    ]
  },
  "e5a9615450af": {
    "id": "e5a9615450af",
    "label": "799 RUE FERNAND PIOLE, Buchy",
    "lat": 49.582915,
    "lng": 1.359388,
    "transactions": [
      {
        "date": "2023-05-10",
        "priceEur": 140000,
        "typeLocal": "Maison",
        "surfaceM2": 62,
        "isVefa": false
      }
    ]
  },
  "659610716457": {
    "id": "659610716457",
    "label": "117A RTE DE FORGES BUCHY, Buchy",
    "lat": 49.585856,
    "lng": 1.36023,
    "transactions": [
      {
        "date": "2023-05-22",
        "priceEur": 338800,
        "typeLocal": "Maison",
        "surfaceM2": 150,
        "isVefa": false
      },
      {
        "date": "2023-05-22",
        "priceEur": 338800,
        "typeLocal": "Maison",
        "surfaceM2": 47,
        "isVefa": false
      }
    ]
  },
  "ffdfaa2aca2f": {
    "id": "ffdfaa2aca2f",
    "label": "425 CLOS DES FRESNES, Buchy",
    "lat": 49.588055,
    "lng": 1.361946,
    "transactions": [
      {
        "date": "2023-05-22",
        "priceEur": 284000,
        "typeLocal": "Maison",
        "surfaceM2": 126,
        "isVefa": false
      }
    ]
  },
  "830590fb7ad7": {
    "id": "830590fb7ad7",
    "label": "460 RES LE CLOS DE L'EGLISE, Buchy",
    "lat": 49.582404,
    "lng": 1.357292,
    "transactions": [
      {
        "date": "2023-06-30",
        "priceEur": 230000,
        "typeLocal": "Maison",
        "surfaceM2": 86,
        "isVefa": false
      }
    ]
  },
  "0ae89d732960": {
    "id": "0ae89d732960",
    "label": "381 RTE DE ROUEN BUCHY, Buchy",
    "lat": 49.583647,
    "lng": 1.353742,
    "transactions": [
      {
        "date": "2023-07-11",
        "priceEur": 161170,
        "typeLocal": "Maison",
        "surfaceM2": 164,
        "isVefa": false
      }
    ]
  },
  "91741dcfd41d": {
    "id": "91741dcfd41d",
    "label": "661 RUE DU GENERAL JOURNOIS, Buchy",
    "lat": 49.583347,
    "lng": 1.357165,
    "transactions": [
      {
        "date": "2023-08-10",
        "priceEur": 370000,
        "typeLocal": "Appartement",
        "surfaceM2": 50,
        "isVefa": false
      },
      {
        "date": "2023-08-10",
        "priceEur": 370000,
        "typeLocal": "Appartement",
        "surfaceM2": 60,
        "isVefa": false
      },
      {
        "date": "2023-08-10",
        "priceEur": 370000,
        "typeLocal": "Appartement",
        "surfaceM2": 70,
        "isVefa": false
      }
    ]
  },
  "965c35804d8d": {
    "id": "965c35804d8d",
    "label": "649 RUE DU GENERAL JOURNOIS, Buchy",
    "lat": 49.583255,
    "lng": 1.357329,
    "transactions": [
      {
        "date": "2023-08-29",
        "priceEur": 100000,
        "typeLocal": "Maison",
        "surfaceM2": 66,
        "isVefa": false
      }
    ]
  },
  "0896cc9a2ee3": {
    "id": "0896cc9a2ee3",
    "label": "335 RES LE CLOS DE L'EGLISE, Buchy",
    "lat": 49.582437,
    "lng": 1.356211,
    "transactions": [
      {
        "date": "2023-09-15",
        "priceEur": 240000,
        "typeLocal": "Maison",
        "surfaceM2": 85,
        "isVefa": false
      }
    ]
  },
  "83d647e63fe8": {
    "id": "83d647e63fe8",
    "label": "387 RES DU MOULIN, Buchy",
    "lat": 49.583847,
    "lng": 1.362007,
    "transactions": [
      {
        "date": "2024-12-19",
        "priceEur": 300000,
        "typeLocal": "Maison",
        "surfaceM2": 93,
        "isVefa": false
      },
      {
        "date": "2023-12-19",
        "priceEur": 280000,
        "typeLocal": "Maison",
        "surfaceM2": 93,
        "isVefa": false
      }
    ]
  },
  "f5a9a30a6935": {
    "id": "f5a9a30a6935",
    "label": "504 AV DES CANADIENS, Buchy",
    "lat": 49.582523,
    "lng": 1.353726,
    "transactions": [
      {
        "date": "2023-12-22",
        "priceEur": 254000,
        "typeLocal": "Maison",
        "surfaceM2": 87,
        "isVefa": false
      }
    ]
  },
  "50c92de57c03": {
    "id": "50c92de57c03",
    "label": "690 PARC DU BEL AIR, Buchy",
    "lat": 49.586204,
    "lng": 1.361168,
    "transactions": [
      {
        "date": "2024-01-13",
        "priceEur": 215000,
        "typeLocal": "Maison",
        "surfaceM2": 139,
        "isVefa": false
      }
    ]
  },
  "d80ffee6ef46": {
    "id": "d80ffee6ef46",
    "label": "202 RTE DE SOMMERY, Buchy",
    "lat": 49.586334,
    "lng": 1.3601,
    "transactions": [
      {
        "date": "2024-01-17",
        "priceEur": 110000,
        "typeLocal": "Maison",
        "surfaceM2": 54,
        "isVefa": false
      }
    ]
  },
  "ae53ef09c87f": {
    "id": "ae53ef09c87f",
    "label": "249 RTE DE ROUEN BUCHY, Buchy",
    "lat": 49.583998,
    "lng": 1.355526,
    "transactions": [
      {
        "date": "2024-02-16",
        "priceEur": 100000,
        "typeLocal": "Maison",
        "surfaceM2": 70,
        "isVefa": false
      }
    ]
  },
  "45b46710f436": {
    "id": "45b46710f436",
    "label": "357 CHE DE SAINT MARTIN, Buchy",
    "lat": 49.583568,
    "lng": 1.354082,
    "transactions": [
      {
        "date": "2024-03-20",
        "priceEur": 125000,
        "typeLocal": "Maison",
        "surfaceM2": 52,
        "isVefa": false
      }
    ]
  },
  "33bb0ef36658": {
    "id": "33bb0ef36658",
    "label": "490 RUE DU GENERAL JOURNOIS, Buchy",
    "lat": 49.583871,
    "lng": 1.358594,
    "transactions": [
      {
        "date": "2024-04-18",
        "priceEur": 128000,
        "typeLocal": "Maison",
        "surfaceM2": 62,
        "isVefa": false
      }
    ]
  },
  "103168462b77": {
    "id": "103168462b77",
    "label": "243 RTE DE ROUEN BUCHY, Buchy",
    "lat": 49.584062,
    "lng": 1.35554,
    "transactions": [
      {
        "date": "2024-04-26",
        "priceEur": 145000,
        "typeLocal": "Maison",
        "surfaceM2": 81,
        "isVefa": false
      }
    ]
  },
  "c6b89bd571d6": {
    "id": "c6b89bd571d6",
    "label": "600 CLOS DE LA FERME, Buchy",
    "lat": 49.587581,
    "lng": 1.359597,
    "transactions": [
      {
        "date": "2024-06-25",
        "priceEur": 250000,
        "typeLocal": "Maison",
        "surfaceM2": 95,
        "isVefa": false
      }
    ]
  },
  "48bf817fe805": {
    "id": "48bf817fe805",
    "label": "724 PARC DU BEL AIR, Buchy",
    "lat": 49.586302,
    "lng": 1.361722,
    "transactions": [
      {
        "date": "2024-07-22",
        "priceEur": 240000,
        "typeLocal": "Maison",
        "surfaceM2": 140,
        "isVefa": false
      }
    ]
  },
  "a239ed7f4b3c": {
    "id": "a239ed7f4b3c",
    "label": "187 RUE DES ECOLES, Buchy",
    "lat": 49.5841,
    "lng": 1.35704,
    "transactions": [
      {
        "date": "2024-07-15",
        "priceEur": 220000,
        "typeLocal": "Appartement",
        "surfaceM2": 34,
        "isVefa": false
      }
    ]
  },
  "f0c425bce1c3": {
    "id": "f0c425bce1c3",
    "label": "761 RUE FERNAND PIOLE, Buchy",
    "lat": 49.583082,
    "lng": 1.358537,
    "transactions": [
      {
        "date": "2024-08-12",
        "priceEur": 170000,
        "typeLocal": "Maison",
        "surfaceM2": 88,
        "isVefa": false
      }
    ]
  },
  "2dfade65bb22": {
    "id": "2dfade65bb22",
    "label": "286 RUE HENRI DUNANT, Buchy",
    "lat": 49.58358,
    "lng": 1.36091,
    "transactions": [
      {
        "date": "2024-09-09",
        "priceEur": 125000,
        "typeLocal": "Maison",
        "surfaceM2": 70,
        "isVefa": false
      }
    ]
  },
  "976759ef6e44": {
    "id": "976759ef6e44",
    "label": "239 RTE DE ROUEN BUCHY, Buchy",
    "lat": 49.584014,
    "lng": 1.355677,
    "transactions": [
      {
        "date": "2025-03-28",
        "priceEur": 55000,
        "typeLocal": "Maison",
        "surfaceM2": 42,
        "isVefa": false
      }
    ]
  },
  "4ddb7276d350": {
    "id": "4ddb7276d350",
    "label": "212 RTE DE ROUEN BUCHY, Buchy",
    "lat": 49.584408,
    "lng": 1.355897,
    "transactions": [
      {
        "date": "2025-04-04",
        "priceEur": 208000,
        "typeLocal": "Maison",
        "surfaceM2": 90,
        "isVefa": false
      }
    ]
  },
  "5a7a496aaed3": {
    "id": "5a7a496aaed3",
    "label": "165 RTE DE DIEPPE, Buchy",
    "lat": 49.585354,
    "lng": 1.357223,
    "transactions": [
      {
        "date": "2025-03-31",
        "priceEur": 345000,
        "typeLocal": "Appartement",
        "surfaceM2": 35,
        "isVefa": false
      },
      {
        "date": "2025-03-31",
        "priceEur": 345000,
        "typeLocal": "Maison",
        "surfaceM2": 40,
        "isVefa": false
      },
      {
        "date": "2025-03-31",
        "priceEur": 345000,
        "typeLocal": "Appartement",
        "surfaceM2": 27,
        "isVefa": false
      }
    ]
  },
  "4aba510a17d5": {
    "id": "4aba510a17d5",
    "label": "662 RUE DU GENERAL JOURNOIS, Buchy",
    "lat": 49.583719,
    "lng": 1.357125,
    "transactions": [
      {
        "date": "2025-04-30",
        "priceEur": 124500,
        "typeLocal": "Maison",
        "surfaceM2": 67,
        "isVefa": false
      }
    ]
  }
}