{
  "f95b4b983cb4": {
    "id": "f95b4b983cb4",
    "label": "89 RUE DU HUIT MAI 1945, Caëstre",
    "lat": 50.756431,
    "lng": 2.602859,
    "transactions": [
      {
        "date": "2020-12-03",
        "priceEur": 105000,
        "typeLocal": "Maison",
        "surfaceM2": 87,
        "isVefa": false
      }
    ]
  },
  "622ed98a6263": {
    "id": "622ed98a6263",
    "label": "238 RUE DU CHEVALIER AVEUGLE, Caëstre",
    "lat": 50.755205,
    "lng": 2.601039,
    "transactions": [
      {
        "date": "2024-08-27",
        "priceEur": 250000,
        "typeLocal": "Maison",
        "surfaceM2": 101,
        "isVefa": false
      },
      {
        "date": "2020-07-23",
        "priceEur": 203000,
        "typeLocal": "Maison",
        "surfaceM2": 101,
        "isVefa": false
      }
    ]
  },
  "d023d49ec26b": {
    "id": "d023d49ec26b",
    "label": "418 RUE DES OISEAUX, Caëstre",
    "lat": 50.753366,
    "lng": 2.601998,
    "transactions": [
      {
        "date": "2020-09-24",
        "priceEur": 331500,
        "typeLocal": "Maison",
        "surfaceM2": 155,
        "isVefa": false
      }
    ]
  },
  "548dae392e3e": {
    "id": "548dae392e3e",
    "label": "139 RUE DU HUIT MAI 1945, Caëstre",
    "lat": 50.75665,
    "lng": 2.603547,
    "transactions": [
      {
        "date": "2021-03-31",
        "priceEur": 90400,
        "typeLocal": "Maison",
        "surfaceM2": 80,
        "isVefa": false
      }
    ]
  },
  "88443489f8c7": {
    "id": "88443489f8c7",
    "label": "77 RUE DU HUIT MAI 1945, Caëstre",
    "lat": 50.756422,
    "lng": 2.602712,
    "transactions": [
      {
        "date": "2021-06-09",
        "priceEur": 100400,
        "typeLocal": "Maison",
        "surfaceM2": 89,
        "isVefa": false
      }
    ]
  },
  "eb07f459bce6": {
    "id": "eb07f459bce6",
    "label": "18 RUE YVES BARON, Caëstre",
    "lat": 50.757093,
    "lng": 2.598724,
    "transactions": [
      {
        "date": "2021-07-16",
        "priceEur": 324500,
        "typeLocal": "Maison",
        "surfaceM2": 137,
        "isVefa": false
      }
    ]
  },
  "53e40a9c3062": {
    "id": "53e40a9c3062",
    "label": "121 RUE DU PETIT CHEMIN DE BORRE, Caëstre",
    "lat": 50.757172,
    "lng": 2.602509,
    "transactions": [
      {
        "date": "2021-09-15",
        "priceEur": 224800,
        "typeLocal": "Maison",
        "surfaceM2": 103,
        "isVefa": false
      }
    ]
  },
  "4b50598358bb": {
    "id": "4b50598358bb",
    "label": "331 RUE DES OISEAUX, Caëstre",
    "lat": 50.753078,
    "lng": 2.603672,
    "transactions": [
      {
        "date": "2021-09-27",
        "priceEur": 417000,
        "typeLocal": "Maison",
        "surfaceM2": 129,
        "isVefa": false
      }
    ]
  },
  "238eacc04a3d": {
    "id": "238eacc04a3d",
    "label": "34 RUE DU CHEVALIER AVEUGLE, Caëstre",
    "lat": 50.756847,
    "lng": 2.599947,
    "transactions": [
      {
        "date": "2021-09-24",
        "priceEur": 175000,
        "typeLocal": "Maison",
        "surfaceM2": 80,
        "isVefa": false
      }
    ]
  },
  "646c7966dc05": {
    "id": "646c7966dc05",
    "label": "590 RUE D'HAZEBROUCK, Caëstre",
    "lat": 50.756342,
    "lng": 2.595607,
    "transactions": [
      {
        "date": "2021-09-24",
        "priceEur": 40000,
        "typeLocal": "Maison",
        "surfaceM2": 60,
        "isVefa": false
      }
    ]
  },
  "3a5ad1c8ac07": {
    "id": "3a5ad1c8ac07",
    "label": "69 ALL DES TILLEULS, Caëstre",
    "lat": 50.755662,
    "lng": 2.603285,
    "transactions": [
      {
        "date": "2021-10-21",
        "priceEur": 253100,
        "typeLocal": "Maison",
        "surfaceM2": 104,
        "isVefa": false
      }
    ]
  },
  "d22095cb3849": {
    "id": "d22095cb3849",
    "label": "358 RUE DU CHEVALIER AVEUGLE, Caëstre",
    "lat": 50.75425,
    "lng": 2.601771,
    "transactions": [
      {
        "date": "2022-08-19",
        "priceEur": 337000,
        "typeLocal": "Maison",
        "surfaceM2": 120,
        "isVefa": false
      },
      {
        "date": "2021-10-26",
        "priceEur": 284000,
        "typeLocal": "Maison",
        "surfaceM2": 120,
        "isVefa": false
      }
    ]
  },
  "60f9f67852c3": {
    "id": "60f9f67852c3",
    "label": "91 RUE DU CHEVALIER AVEUGLE, Caëstre",
    "lat": 50.756679,
    "lng": 2.600834,
    "transactions": [
      {
        "date": "2021-11-29",
        "priceEur": 289000,
        "typeLocal": "Maison",
        "surfaceM2": 135,
        "isVefa": false
      }
    ]
  },
  "7f578de6bbe1": {
    "id": "7f578de6bbe1",
    "label": "239 RUE DU CHEVALIER AVEUGLE, Caëstre",
    "lat": 50.755359,
    "lng": 2.6016,
    "transactions": [
      {
        "date": "2022-10-28",
        "priceEur": 278000,
        "typeLocal": "Maison",
        "surfaceM2": 144,
        "isVefa": false
      }
    ]
  },
  "e526eff79cf1": {
    "id": "e526eff79cf1",
    "label": "413 RUE VERTE, Caëstre",
    "lat": 50.753577,
    "lng": 2.602137,
    "transactions": [
      {
        "date": "2023-05-17",
        "priceEur": 393200,
        "typeLocal": "Maison",
        "surfaceM2": 192,
        "isVefa": false
      }
    ]
  },
  "7447a51e64ae": {
    "id": "7447a51e64ae",
    "label": "38 RUE YVES BARON, Caëstre",
    "lat": 50.757249,
    "lng": 2.59854,
    "transactions": [
      {
        "date": "2023-06-22",
        "priceEur": 388000,
        "typeLocal": "Maison",
        "surfaceM2": 142,
        "isVefa": false
      }
    ]
  },
  "26c31f2f8ae1": {
    "id": "26c31f2f8ae1",
    "label": "42 RUE SABINA, Caëstre",
    "lat": 50.754563,
    "lng": 2.602521,
    "transactions": [
      {
        "date": "2024-11-13",
        "priceEur": 330000,
        "typeLocal": "Maison",
        "surfaceM2": 93,
        "isVefa": false
      }
    ]
  },
  "616f523ef348": {
    "id": "616f523ef348",
    "label": "132 RUE SAINT SEBASTIEN, Caëstre",
    "lat": 50.75666,
    "lng": 2.598795,
    "transactions": [
      {
        "date": "2025-04-28",
        "priceEur": 245000,
        "typeLocal": "Maison",
        "surfaceM2": 99,
        "isVefa": false
      }
    ]
  }
}