{
  "62526c57e612": {
    "id": "62526c57e612",
    "label": "9 RUE DES LIGUEURS, Petit-Caux",
    "lat": 49.956468,
    "lng": 1.224291,
    "transactions": [
      {
        "date": "2020-10-23",
        "priceEur": 170000,
        "typeLocal": "Maison",
        "surfaceM2": 102,
        "isVefa": false
      }
    ]
  },
  "315f1c2bc14c": {
    "id": "315f1c2bc14c",
    "label": "13 RUE DE L ANCIENNE FOIRE, Petit-Caux",
    "lat": 49.957247,
    "lng": 1.224601,
    "transactions": [
      {
        "date": "2021-11-10",
        "priceEur": 154000,
        "typeLocal": "Maison",
        "surfaceM2": 81,
        "isVefa": false
      }
    ]
  },
  "1fb6b5e6e7ca": {
    "id": "1fb6b5e6e7ca",
    "label": "29 RUE DU CHATEAU D EAU, Petit-Caux",
    "lat": 49.953764,
    "lng": 1.220675,
    "transactions": [
      {
        "date": "2021-02-12",
        "priceEur": 130000,
        "typeLocal": "Maison",
        "surfaceM2": 68,
        "isVefa": false
      }
    ]
  },
  "8d9969693046": {
    "id": "8d9969693046",
    "label": "24 RUE DES ORMES, Petit-Caux",
    "lat": 49.954967,
    "lng": 1.221445,
    "transactions": [
      {
        "date": "2021-06-21",
        "priceEur": 170000,
        "typeLocal": "Maison",
        "surfaceM2": 138,
        "isVefa": false
      }
    ]
  },
  "4980d9102c1e": {
    "id": "4980d9102c1e",
    "label": "5030 RUE DU CHATEAU D EAU, Petit-Caux",
    "lat": 49.955766,
    "lng": 1.221988,
    "transactions": [
      {
        "date": "2021-08-30",
        "priceEur": 201000,
        "typeLocal": "Maison",
        "surfaceM2": 155,
        "isVefa": false
      }
    ]
  },
  "3393eb639edb": {
    "id": "3393eb639edb",
    "label": "5342 LE VILLAGE - ST MARTIN, Petit-Caux",
    "lat": 49.954706,
    "lng": 1.222038,
    "transactions": [
      {
        "date": "2022-06-23",
        "priceEur": 175000,
        "typeLocal": "Maison",
        "surfaceM2": 83,
        "isVefa": false
      }
    ]
  },
  "f09fc30dd87e": {
    "id": "f09fc30dd87e",
    "label": "5022 LE VILLAGE - ST MARTIN, Petit-Caux",
    "lat": 49.953299,
    "lng": 1.223262,
    "transactions": [
      {
        "date": "2022-11-04",
        "priceEur": 180000,
        "typeLocal": "Maison",
        "surfaceM2": 46,
        "isVefa": false
      }
    ]
  },
  "dc3c3c9dad84": {
    "id": "dc3c3c9dad84",
    "label": "5031 LE VILLAGE - ST MARTIN, Petit-Caux",
    "lat": 49.955689,
    "lng": 1.221857,
    "transactions": [
      {
        "date": "2022-12-02",
        "priceEur": 130151,
        "typeLocal": "Maison",
        "surfaceM2": 60,
        "isVefa": false
      }
    ]
  },
  "4629f9a02b7d": {
    "id": "4629f9a02b7d",
    "label": "5333 LE VILLAGE - ST MARTIN, Petit-Caux",
    "lat": 49.958067,
    "lng": 1.219602,
    "transactions": [
      {
        "date": "2024-08-08",
        "priceEur": 71000,
        "typeLocal": "Maison",
        "surfaceM2": 28,
        "isVefa": false
      }
    ]
  },
  "340ee89ff191": {
    "id": "340ee89ff191",
    "label": "15A RUE DE L ANCIENNE FOIRE, Petit-Caux",
    "lat": 49.957653,
    "lng": 1.225025,
    "transactions": [
      {
        "date": "2024-12-28",
        "priceEur": 416690,
        "typeLocal": "Maison",
        "surfaceM2": 120,
        "isVefa": false
      }
    ]
  },
  "2743b847eeda": {
    "id": "2743b847eeda",
    "label": "5474 LE VILLAGE - ST MARTIN, Petit-Caux",
    "lat": 49.956503,
    "lng": 1.224007,
    "transactions": [
      {
        "date": "2025-01-07",
        "priceEur": 104000,
        "typeLocal": "Maison",
        "surfaceM2": 58,
        "isVefa": false
      }
    ]
  }
}