{
  "d12eb4d06de8": {
    "id": "d12eb4d06de8",
    "label": "5735 HAMEAU DE LA CORBIERE, Val-de-Scie",
    "lat": 49.720635,
    "lng": 1.129326,
    "transactions": [
      {
        "date": "2021-12-20",
        "priceEur": 224000,
        "typeLocal": "Maison",
        "surfaceM2": 108,
        "isVefa": false
      }
    ]
  },
  "fc8ee09989e1": {
    "id": "fc8ee09989e1",
    "label": "2945 RTE DE LA CORBIERE, Val-de-Scie",
    "lat": 49.724248,
    "lng": 1.12158,
    "transactions": [
      {
        "date": "2022-12-20",
        "priceEur": 230300,
        "typeLocal": "Maison",
        "surfaceM2": 85,
        "isVefa": false
      }
    ]
  },
  "244ccb7c1551": {
    "id": "244ccb7c1551",
    "label": "2345 RTE DE LA CORBIERE, Val-de-Scie",
    "lat": 49.721152,
    "lng": 1.129287,
    "transactions": [
      {
        "date": "2023-08-08",
        "priceEur": 290000,
        "typeLocal": "Maison",
        "surfaceM2": 95,
        "isVefa": false
      }
    ]
  },
  "1199c70539b8": {
    "id": "1199c70539b8",
    "label": "2360 RTE DE LA CORBIERE, Val-de-Scie",
    "lat": 49.721321,
    "lng": 1.128838,
    "transactions": [
      {
        "date": "2023-08-02",
        "priceEur": 204000,
        "typeLocal": "Maison",
        "surfaceM2": 83,
        "isVefa": false
      }
    ]
  },
  "534fa33fb605": {
    "id": "534fa33fb605",
    "label": "2350 RTE DE LA CORBIERE, Val-de-Scie",
    "lat": 49.721119,
    "lng": 1.129039,
    "transactions": [
      {
        "date": "2023-09-26",
        "priceEur": 234700,
        "typeLocal": "Maison",
        "surfaceM2": 107,
        "isVefa": false
      }
    ]
  },
  "50af9f720017": {
    "id": "50af9f720017",
    "label": "1923B RTE DE LA CORBIERE, Heugleville-sur-Scie",
    "lat": 49.723839,
    "lng": 1.125123,
    "transactions": [
      {
        "date": "2023-10-09",
        "priceEur": 143000,
        "typeLocal": "Maison",
        "surfaceM2": 90,
        "isVefa": false
      }
    ]
  },
  "d96d012e3e36": {
    "id": "d96d012e3e36",
    "label": "2110 RUE DE CHAMACOURT, Val-de-Scie",
    "lat": 49.720524,
    "lng": 1.12906,
    "transactions": [
      {
        "date": "2024-02-02",
        "priceEur": 243000,
        "typeLocal": "Maison",
        "surfaceM2": 118,
        "isVefa": false
      }
    ]
  },
  "a73db74b4568": {
    "id": "a73db74b4568",
    "label": "1923A RTE DE LA CORBIERE, Heugleville-sur-Scie",
    "lat": 49.723922,
    "lng": 1.125126,
    "transactions": [
      {
        "date": "2024-07-22",
        "priceEur": 164600,
        "typeLocal": "Maison",
        "surfaceM2": 230,
        "isVefa": false
      }
    ]
  }
}