{
  "b675a142e0e1": {
    "id": "b675a142e0e1",
    "label": "214 RTE DE PARIS, Amfreville-la-Mi-Voie",
    "lat": 49.414365,
    "lng": 1.121124,
    "transactions": [
      {
        "date": "2021-08-16",
        "priceEur": 168000,
        "typeLocal": "Maison",
        "surfaceM2": 96,
        "isVefa": false
      },
      {
        "date": "2020-09-25",
        "priceEur": 160000,
        "typeLocal": "Maison",
        "surfaceM2": 96,
        "isVefa": false
      }
    ]
  },
  "6de83bb4482c": {
    "id": "6de83bb4482c",
    "label": "8 RUE MOLIERE, Le Mesnil-Esnard",
    "lat": 49.413409,
    "lng": 1.131042,
    "transactions": [
      {
        "date": "2020-11-13",
        "priceEur": 307500,
        "typeLocal": "Maison",
        "surfaceM2": 96,
        "isVefa": false
      }
    ]
  },
  "9649eba3eaad": {
    "id": "9649eba3eaad",
    "label": "208 RTE DE PARIS, Amfreville-la-Mi-Voie",
    "lat": 49.413283,
    "lng": 1.121675,
    "transactions": [
      {
        "date": "2022-05-02",
        "priceEur": 170000,
        "typeLocal": "Maison",
        "surfaceM2": 95,
        "isVefa": false
      },
      {
        "date": "2020-11-26",
        "priceEur": 155000,
        "typeLocal": "Maison",
        "surfaceM2": 95,
        "isVefa": false
      }
    ]
  },
  "b2fcef1ee7c7": {
    "id": "b2fcef1ee7c7",
    "label": "2 RUE DU PRESIDENT WILSON, Bonsecours",
    "lat": 49.417551,
    "lng": 1.131016,
    "transactions": [
      {
        "date": "2021-05-12",
        "priceEur": 185000,
        "typeLocal": "Maison",
        "surfaceM2": 75,
        "isVefa": false
      }
    ]
  },
  "58429d529412": {
    "id": "58429d529412",
    "label": "1 RTE DE PARIS, Bonsecours",
    "lat": 49.417401,
    "lng": 1.131576,
    "transactions": [
      {
        "date": "2021-10-28",
        "priceEur": 540000,
        "typeLocal": "Maison",
        "surfaceM2": 218,
        "isVefa": false
      },
      {
        "date": "2021-08-06",
        "priceEur": 398000,
        "typeLocal": "Maison",
        "surfaceM2": 108,
        "isVefa": false
      }
    ]
  },
  "95a423c13698": {
    "id": "95a423c13698",
    "label": "7 RUE DU PRESIDENT WILSON, Bonsecours",
    "lat": 49.417144,
    "lng": 1.130737,
    "transactions": [
      {
        "date": "2021-10-14",
        "priceEur": 295000,
        "typeLocal": "Maison",
        "surfaceM2": 105,
        "isVefa": false
      }
    ]
  },
  "7a5ec3752ac8": {
    "id": "7a5ec3752ac8",
    "label": "51 RUE DE CORVAL, Le Mesnil-Esnard",
    "lat": 49.416152,
    "lng": 1.13143,
    "transactions": [
      {
        "date": "2021-10-27",
        "priceEur": 489710,
        "typeLocal": "Maison",
        "surfaceM2": 250,
        "isVefa": false
      }
    ]
  },
  "b2184845974f": {
    "id": "b2184845974f",
    "label": "5 RUE LEON LEBOURGEOIS, Bonsecours",
    "lat": 49.417013,
    "lng": 1.130478,
    "transactions": [
      {
        "date": "2021-11-18",
        "priceEur": 270000,
        "typeLocal": "Maison",
        "surfaceM2": 104,
        "isVefa": false
      }
    ]
  },
  "60926dea5970": {
    "id": "60926dea5970",
    "label": "18 RTE NEUVE, Bonsecours",
    "lat": 49.416851,
    "lng": 1.12903,
    "transactions": [
      {
        "date": "2021-12-15",
        "priceEur": 172000,
        "typeLocal": "Maison",
        "surfaceM2": 94,
        "isVefa": false
      }
    ]
  },
  "c641eb19a2fe": {
    "id": "c641eb19a2fe",
    "label": "6 RUE MOLIERE, Le Mesnil-Esnard",
    "lat": 49.41361,
    "lng": 1.130938,
    "transactions": [
      {
        "date": "2022-01-28",
        "priceEur": 393000,
        "typeLocal": "Maison",
        "surfaceM2": 133,
        "isVefa": false
      }
    ]
  },
  "362c7f24286c": {
    "id": "362c7f24286c",
    "label": "12 SQ PAUL VERLAINE, Le Mesnil-Esnard",
    "lat": 49.415187,
    "lng": 1.131314,
    "transactions": [
      {
        "date": "2022-05-25",
        "priceEur": 350000,
        "typeLocal": "Maison",
        "surfaceM2": 133,
        "isVefa": false
      }
    ]
  },
  "6b2c0a628303": {
    "id": "6b2c0a628303",
    "label": "16B RTE NEUVE, Bonsecours",
    "lat": 49.416717,
    "lng": 1.129277,
    "transactions": [
      {
        "date": "2022-11-18",
        "priceEur": 197000,
        "typeLocal": "Maison",
        "surfaceM2": 89,
        "isVefa": false
      }
    ]
  },
  "f903c0f76891": {
    "id": "f903c0f76891",
    "label": "1F RTE DE PARIS, Bonsecours",
    "lat": 49.417857,
    "lng": 1.131018,
    "transactions": [
      {
        "date": "2023-01-19",
        "priceEur": 470000,
        "typeLocal": "Appartement",
        "surfaceM2": 106,
        "isVefa": false
      }
    ]
  },
  "bd1a7477162a": {
    "id": "bd1a7477162a",
    "label": "3 CHE DE LA COTE, Le Mesnil-Esnard",
    "lat": 49.415476,
    "lng": 1.1305,
    "transactions": [
      {
        "date": "2023-02-27",
        "priceEur": 407000,
        "typeLocal": "Maison",
        "surfaceM2": 82,
        "isVefa": false
      }
    ]
  },
  "b516ab34029e": {
    "id": "b516ab34029e",
    "label": "26 RUE GERARD PHILIPPE, Amfreville-la-Mi-Voie",
    "lat": 49.41121,
    "lng": 1.122389,
    "transactions": [
      {
        "date": "2023-03-31",
        "priceEur": 141000,
        "typeLocal": "Maison",
        "surfaceM2": 61,
        "isVefa": false
      }
    ]
  },
  "4588f7507bb9": {
    "id": "4588f7507bb9",
    "label": "6 RUE LEON LEBOURGEOIS, Bonsecours",
    "lat": 49.417713,
    "lng": 1.130032,
    "transactions": [
      {
        "date": "2023-07-07",
        "priceEur": 440000,
        "typeLocal": "Maison",
        "surfaceM2": 125,
        "isVefa": false
      }
    ]
  },
  "919cdb12adff": {
    "id": "919cdb12adff",
    "label": "11 CHE DE LA COTE, Le Mesnil-Esnard",
    "lat": 49.415543,
    "lng": 1.128847,
    "transactions": [
      {
        "date": "2023-07-28",
        "priceEur": 368500,
        "typeLocal": "Maison",
        "surfaceM2": 132,
        "isVefa": false
      }
    ]
  },
  "c9661b12b677": {
    "id": "c9661b12b677",
    "label": "220L RTE DE PARIS, Amfreville-la-Mi-Voie",
    "lat": 49.414819,
    "lng": 1.121078,
    "transactions": [
      {
        "date": "2023-09-22",
        "priceEur": 55000,
        "typeLocal": "Maison",
        "surfaceM2": 52,
        "isVefa": false
      }
    ]
  },
  "2ae9c20d475b": {
    "id": "2ae9c20d475b",
    "label": "204 RTE DE PARIS, Amfreville-la-Mi-Voie",
    "lat": 49.412614,
    "lng": 1.122695,
    "transactions": [
      {
        "date": "2024-05-30",
        "priceEur": 100000,
        "typeLocal": "Maison",
        "surfaceM2": 70,
        "isVefa": false
      },
      {
        "date": "2024-05-30",
        "priceEur": 100000,
        "typeLocal": "Maison",
        "surfaceM2": 60,
        "isVefa": false
      }
    ]
  },
  "027446a186be": {
    "id": "027446a186be",
    "label": "220J RTE DE PARIS, Amfreville-la-Mi-Voie",
    "lat": 49.414819,
    "lng": 1.121078,
    "transactions": [
      {
        "date": "2024-10-11",
        "priceEur": 127000,
        "typeLocal": "Maison",
        "surfaceM2": 60,
        "isVefa": false
      }
    ]
  },
  "94fe0bc97bd0": {
    "id": "94fe0bc97bd0",
    "label": "9 RTE NEUVE, Bonsecours",
    "lat": 49.416627,
    "lng": 1.131303,
    "transactions": [
      {
        "date": "2025-01-31",
        "priceEur": 70000,
        "typeLocal": "Appartement",
        "surfaceM2": 45,
        "isVefa": false
      },
      {
        "date": "2024-11-15",
        "priceEur": 114000,
        "typeLocal": "Appartement",
        "surfaceM2": 70,
        "isVefa": false
      }
    ]
  },
  "a9e435a46e6e": {
    "id": "a9e435a46e6e",
    "label": "7C RUE LEON LEBOURGEOIS, Bonsecours",
    "lat": 49.417122,
    "lng": 1.129816,
    "transactions": [
      {
        "date": "2024-11-18",
        "priceEur": 293000,
        "typeLocal": "Maison",
        "surfaceM2": 107,
        "isVefa": false
      }
    ]
  },
  "237cfd54614f": {
    "id": "237cfd54614f",
    "label": "216 RTE DE PARIS, Amfreville-la-Mi-Voie",
    "lat": 49.41457,
    "lng": 1.121234,
    "transactions": [
      {
        "date": "2025-02-06",
        "priceEur": 357200,
        "typeLocal": "Maison",
        "surfaceM2": 220,
        "isVefa": false
      }
    ]
  },
  "92a5ce777c7d": {
    "id": "92a5ce777c7d",
    "label": "3 RUE LEON LEBOURGEOIS, Bonsecours",
    "lat": 49.416333,
    "lng": 1.131188,
    "transactions": [
      {
        "date": "2025-03-06",
        "priceEur": 540000,
        "typeLocal": "Maison",
        "surfaceM2": 232,
        "isVefa": false
      }
    ]
  },
  "e5f12a3e0ce8": {
    "id": "e5f12a3e0ce8",
    "label": "28 RUE GERARD PHILIPPE, Amfreville-la-Mi-Voie",
    "lat": 49.411394,
    "lng": 1.122294,
    "transactions": [
      {
        "date": "2025-06-04",
        "priceEur": 159000,
        "typeLocal": "Maison",
        "surfaceM2": 64,
        "isVefa": false
      }
    ]
  }
}