{
  "e9ec2033d7f7": {
    "id": "e9ec2033d7f7",
    "label": "126 RUE DU BORD DU BOIS, Montroty",
    "lat": 49.434086,
    "lng": 1.662382,
    "transactions": [
      {
        "date": "2021-12-02",
        "priceEur": 156500,
        "typeLocal": "Maison",
        "surfaceM2": 120,
        "isVefa": false
      }
    ]
  },
  "c3e692b6dd1e": {
    "id": "c3e692b6dd1e",
    "label": "180 RUE DES ENCLOS, Montroty",
    "lat": 49.438958,
    "lng": 1.665244,
    "transactions": [
      {
        "date": "2021-01-21",
        "priceEur": 140000,
        "typeLocal": "Maison",
        "surfaceM2": 84,
        "isVefa": false
      }
    ]
  },
  "ae8c4b20fcbb": {
    "id": "ae8c4b20fcbb",
    "label": "32 CHE DE LA COTE D OLIVIERS, Montroty",
    "lat": 49.439172,
    "lng": 1.666736,
    "transactions": [
      {
        "date": "2021-07-10",
        "priceEur": 179000,
        "typeLocal": "Maison",
        "surfaceM2": 105,
        "isVefa": false
      }
    ]
  },
  "c80c5e14bca9": {
    "id": "c80c5e14bca9",
    "label": "412 PL DE L EGLISE, Montroty",
    "lat": 49.438998,
    "lng": 1.66585,
    "transactions": [
      {
        "date": "2021-07-28",
        "priceEur": 77875,
        "typeLocal": "Maison",
        "surfaceM2": 40,
        "isVefa": false
      }
    ]
  },
  "2286623827d5": {
    "id": "2286623827d5",
    "label": "68 RUE DU BORD DU BOIS, Montroty",
    "lat": 49.434541,
    "lng": 1.662889,
    "transactions": [
      {
        "date": "2025-03-18",
        "priceEur": 166000,
        "typeLocal": "Maison",
        "surfaceM2": 110,
        "isVefa": false
      },
      {
        "date": "2021-08-27",
        "priceEur": 179000,
        "typeLocal": "Maison",
        "surfaceM2": 110,
        "isVefa": false
      }
    ]
  },
  "4392ca7f466e": {
    "id": "4392ca7f466e",
    "label": "292 PL DE L EGLISE, Montroty",
    "lat": 49.438161,
    "lng": 1.666706,
    "transactions": [
      {
        "date": "2022-03-22",
        "priceEur": 100000,
        "typeLocal": "Maison",
        "surfaceM2": 70,
        "isVefa": false
      }
    ]
  },
  "984c40145640": {
    "id": "984c40145640",
    "label": "398 PL DE L EGLISE, Montroty",
    "lat": 49.438996,
    "lng": 1.666304,
    "transactions": [
      {
        "date": "2022-06-22",
        "priceEur": 108000,
        "typeLocal": "Maison",
        "surfaceM2": 49,
        "isVefa": false
      }
    ]
  },
  "d1c136df1fa6": {
    "id": "d1c136df1fa6",
    "label": "41 RUE GODARD MONTROTY, Montroty",
    "lat": 49.437665,
    "lng": 1.663966,
    "transactions": [
      {
        "date": "2022-09-16",
        "priceEur": 166000,
        "typeLocal": "Maison",
        "surfaceM2": 70,
        "isVefa": false
      }
    ]
  },
  "1206ee30fe07": {
    "id": "1206ee30fe07",
    "label": "4 RUE GODARD, Bosc-Hyons",
    "lat": 49.435754,
    "lng": 1.663222,
    "transactions": [
      {
        "date": "2024-09-23",
        "priceEur": 110000,
        "typeLocal": "Maison",
        "surfaceM2": 40,
        "isVefa": false
      }
    ]
  },
  "739d9c76cc53": {
    "id": "739d9c76cc53",
    "label": "165 RUE DES ENCLOS, Montroty",
    "lat": 49.439357,
    "lng": 1.665099,
    "transactions": [
      {
        "date": "2025-06-03",
        "priceEur": 125000,
        "typeLocal": "Maison",
        "surfaceM2": 104,
        "isVefa": false
      }
    ]
  }
}