{
  "f2e8555c18c7": {
    "id": "f2e8555c18c7",
    "label": "120 RUE PASTEUR, Grande-Synthe",
    "lat": 51.017939,
    "lng": 2.297786,
    "transactions": [
      {
        "date": "2020-07-22",
        "priceEur": 144200,
        "typeLocal": "Maison",
        "surfaceM2": 68,
        "isVefa": false
      }
    ]
  },
  "8f7cee6c8180": {
    "id": "8f7cee6c8180",
    "label": "15 RUE BRANLY, Grande-Synthe",
    "lat": 51.016629,
    "lng": 2.297289,
    "transactions": [
      {
        "date": "2020-08-06",
        "priceEur": 115630,
        "typeLocal": "Maison",
        "surfaceM2": 73,
        "isVefa": false
      }
    ]
  },
  "8174b7f14ff6": {
    "id": "8174b7f14ff6",
    "label": "26 RUE DE LA HAYE, Grande-Synthe",
    "lat": 51.014214,
    "lng": 2.304754,
    "transactions": [
      {
        "date": "2023-08-31",
        "priceEur": 142000,
        "typeLocal": "Appartement",
        "surfaceM2": 76,
        "isVefa": false
      },
      {
        "date": "2023-06-06",
        "priceEur": 145000,
        "typeLocal": "Appartement",
        "surfaceM2": 77,
        "isVefa": false
      },
      {
        "date": "2022-10-03",
        "priceEur": 156420,
        "typeLocal": "Appartement",
        "surfaceM2": 77,
        "isVefa": false
      },
      {
        "date": "2022-04-08",
        "priceEur": 138600,
        "typeLocal": "Appartement",
        "surfaceM2": 77,
        "isVefa": false
      },
      {
        "date": "2020-11-06",
        "priceEur": 94050,
        "typeLocal": "Appartement",
        "surfaceM2": 52,
        "isVefa": false
      },
      {
        "date": "2020-09-25",
        "priceEur": 94700,
        "typeLocal": "Appartement",
        "surfaceM2": 53,
        "isVefa": false
      },
      {
        "date": "2020-08-13",
        "priceEur": 103950,
        "typeLocal": "Appartement",
        "surfaceM2": 53,
        "isVefa": false
      }
    ]
  },
  "a2a2025d8b2e": {
    "id": "a2a2025d8b2e",
    "label": "118 RUE PASTEUR, Grande-Synthe",
    "lat": 51.017939,
    "lng": 2.297693,
    "transactions": [
      {
        "date": "2020-10-30",
        "priceEur": 86000,
        "typeLocal": "Maison",
        "surfaceM2": 98,
        "isVefa": false
      }
    ]
  },
  "a1f03edd278f": {
    "id": "a1f03edd278f",
    "label": "1 RUE REAUMUR, Grande-Synthe",
    "lat": 51.015733,
    "lng": 2.299838,
    "transactions": [
      {
        "date": "2025-02-21",
        "priceEur": 81700,
        "typeLocal": "Appartement",
        "surfaceM2": 77,
        "isVefa": false
      },
      {
        "date": "2024-09-30",
        "priceEur": 115000,
        "typeLocal": "Appartement",
        "surfaceM2": 77,
        "isVefa": false
      },
      {
        "date": "2024-07-12",
        "priceEur": 81000,
        "typeLocal": "Appartement",
        "surfaceM2": 88,
        "isVefa": false
      },
      {
        "date": "2022-12-20",
        "priceEur": 88000,
        "typeLocal": "Appartement",
        "surfaceM2": 77,
        "isVefa": false
      },
      {
        "date": "2020-11-19",
        "priceEur": 104950,
        "typeLocal": "Appartement",
        "surfaceM2": 77,
        "isVefa": false
      }
    ]
  },
  "5332fcb85904": {
    "id": "5332fcb85904",
    "label": "14 RUE DENIS PAPIN, Grande-Synthe",
    "lat": 51.018332,
    "lng": 2.300479,
    "transactions": [
      {
        "date": "2020-12-23",
        "priceEur": 106320,
        "typeLocal": "Appartement",
        "surfaceM2": 125,
        "isVefa": false
      }
    ]
  },
  "70c185157a17": {
    "id": "70c185157a17",
    "label": "56 RUE VICTOR HUGO, Grande-Synthe",
    "lat": 51.01384,
    "lng": 2.299476,
    "transactions": [
      {
        "date": "2020-12-17",
        "priceEur": 90000,
        "typeLocal": "Maison",
        "surfaceM2": 100,
        "isVefa": false
      }
    ]
  },
  "7d80cafb3bfe": {
    "id": "7d80cafb3bfe",
    "label": "38 RUE SALVADOR ALLENDE, Grande-Synthe",
    "lat": 51.018333,
    "lng": 2.306088,
    "transactions": [
      {
        "date": "2020-12-29",
        "priceEur": 184900,
        "typeLocal": "Maison",
        "surfaceM2": 195,
        "isVefa": false
      }
    ]
  },
  "cd2db01b523a": {
    "id": "cd2db01b523a",
    "label": "37 RUE DES PEUPLIERS, Grande-Synthe",
    "lat": 51.020473,
    "lng": 2.306872,
    "transactions": [
      {
        "date": "2021-01-22",
        "priceEur": 155000,
        "typeLocal": "Maison",
        "surfaceM2": 84,
        "isVefa": false
      }
    ]
  },
  "f1d96f42660d": {
    "id": "f1d96f42660d",
    "label": "15 ALL DES ALGUES, Grande-Synthe",
    "lat": 51.019471,
    "lng": 2.30622,
    "transactions": [
      {
        "date": "2021-03-11",
        "priceEur": 125000,
        "typeLocal": "Maison",
        "surfaceM2": 82,
        "isVefa": false
      }
    ]
  },
  "384156641037": {
    "id": "384156641037",
    "label": "12 RUE DENIS PAPIN, Grande-Synthe",
    "lat": 51.018332,
    "lng": 2.300479,
    "transactions": [
      {
        "date": "2025-06-05",
        "priceEur": 110000,
        "typeLocal": "Appartement",
        "surfaceM2": 95,
        "isVefa": false
      },
      {
        "date": "2024-10-03",
        "priceEur": 98000,
        "typeLocal": "Appartement",
        "surfaceM2": 95,
        "isVefa": false
      },
      {
        "date": "2022-03-15",
        "priceEur": 75000,
        "typeLocal": "Appartement",
        "surfaceM2": 77,
        "isVefa": false
      },
      {
        "date": "2021-11-09",
        "priceEur": 112500,
        "typeLocal": "Appartement",
        "surfaceM2": 106,
        "isVefa": false
      },
      {
        "date": "2021-06-18",
        "priceEur": 95000,
        "typeLocal": "Appartement",
        "surfaceM2": 125,
        "isVefa": false
      },
      {
        "date": "2021-03-05",
        "priceEur": 65000,
        "typeLocal": "Appartement",
        "surfaceM2": 77,
        "isVefa": false
      }
    ]
  },
  "b8ce7a9cdc0e": {
    "id": "b8ce7a9cdc0e",
    "label": "12 RUE GEORGES CLEMENCEAU, Grande-Synthe",
    "lat": 51.014116,
    "lng": 2.301922,
    "transactions": [
      {
        "date": "2024-05-07",
        "priceEur": 60000,
        "typeLocal": "Appartement",
        "surfaceM2": 62,
        "isVefa": false
      },
      {
        "date": "2021-06-10",
        "priceEur": 64000,
        "typeLocal": "Appartement",
        "surfaceM2": 62,
        "isVefa": false
      }
    ]
  },
  "e431748592e9": {
    "id": "e431748592e9",
    "label": "73 RUE PIERRE ET MARIE CURIE, Grande-Synthe",
    "lat": 51.015926,
    "lng": 2.298221,
    "transactions": [
      {
        "date": "2021-07-19",
        "priceEur": 152000,
        "typeLocal": "Maison",
        "surfaceM2": 73,
        "isVefa": false
      }
    ]
  },
  "d4273813d1b1": {
    "id": "d4273813d1b1",
    "label": "26 RUE MICHELET, Grande-Synthe",
    "lat": 51.013896,
    "lng": 2.300142,
    "transactions": [
      {
        "date": "2021-08-26",
        "priceEur": 80000,
        "typeLocal": "Maison",
        "surfaceM2": 68,
        "isVefa": false
      }
    ]
  },
  "34d55545cc67": {
    "id": "34d55545cc67",
    "label": "61 RUE VICTOR HUGO, Grande-Synthe",
    "lat": 51.014157,
    "lng": 2.298708,
    "transactions": [
      {
        "date": "2022-02-16",
        "priceEur": 135000,
        "typeLocal": "Maison",
        "surfaceM2": 76,
        "isVefa": false
      }
    ]
  },
  "b4581cbc8ee9": {
    "id": "b4581cbc8ee9",
    "label": "6 RUE DENIS PAPIN, Grande-Synthe",
    "lat": 51.018332,
    "lng": 2.300479,
    "transactions": [
      {
        "date": "2022-10-10",
        "priceEur": 85500,
        "typeLocal": "Appartement",
        "surfaceM2": 106,
        "isVefa": false
      },
      {
        "date": "2022-03-01",
        "priceEur": 105000,
        "typeLocal": "Appartement",
        "surfaceM2": 106,
        "isVefa": false
      }
    ]
  },
  "79932c1f2543": {
    "id": "79932c1f2543",
    "label": "18 RUE DENIS PAPIN, Grande-Synthe",
    "lat": 51.018332,
    "lng": 2.300479,
    "transactions": [
      {
        "date": "2023-10-05",
        "priceEur": 122280,
        "typeLocal": "Appartement",
        "surfaceM2": 106,
        "isVefa": false
      },
      {
        "date": "2022-07-28",
        "priceEur": 99500,
        "typeLocal": "Appartement",
        "surfaceM2": 106,
        "isVefa": false
      },
      {
        "date": "2022-03-15",
        "priceEur": 100000,
        "typeLocal": "Appartement",
        "surfaceM2": 95,
        "isVefa": false
      }
    ]
  },
  "6643dcd68712": {
    "id": "6643dcd68712",
    "label": "8 RUE GEORGES CLEMENCEAU, Grande-Synthe",
    "lat": 51.014116,
    "lng": 2.301922,
    "transactions": [
      {
        "date": "2022-03-18",
        "priceEur": 68685,
        "typeLocal": "Appartement",
        "surfaceM2": 72,
        "isVefa": false
      }
    ]
  },
  "d699d3a4ee0d": {
    "id": "d699d3a4ee0d",
    "label": "10 RUE GEORGES CLEMENCEAU, Grande-Synthe",
    "lat": 51.014116,
    "lng": 2.301922,
    "transactions": [
      {
        "date": "2022-03-18",
        "priceEur": 90500,
        "typeLocal": "Appartement",
        "surfaceM2": 72,
        "isVefa": false
      }
    ]
  },
  "027fec93ce6f": {
    "id": "027fec93ce6f",
    "label": "46 RUE SALVADOR ALLENDE, Grande-Synthe",
    "lat": 51.018788,
    "lng": 2.305781,
    "transactions": [
      {
        "date": "2022-04-29",
        "priceEur": 146000,
        "typeLocal": "Maison",
        "surfaceM2": 103,
        "isVefa": false
      }
    ]
  },
  "66d772ac5447": {
    "id": "66d772ac5447",
    "label": "33 RUE DES PEUPLIERS, Grande-Synthe",
    "lat": 51.020368,
    "lng": 2.30679,
    "transactions": [
      {
        "date": "2022-05-17",
        "priceEur": 147000,
        "typeLocal": "Maison",
        "surfaceM2": 98,
        "isVefa": false
      }
    ]
  },
  "07f6c3e00039": {
    "id": "07f6c3e00039",
    "label": "6 RUE GEORGES CLEMENCEAU, Grande-Synthe",
    "lat": 51.014116,
    "lng": 2.301922,
    "transactions": [
      {
        "date": "2024-03-15",
        "priceEur": 50000,
        "typeLocal": "Appartement",
        "surfaceM2": 72,
        "isVefa": false
      },
      {
        "date": "2023-07-06",
        "priceEur": 98000,
        "typeLocal": "Appartement",
        "surfaceM2": 62,
        "isVefa": false
      },
      {
        "date": "2022-09-30",
        "priceEur": 81200,
        "typeLocal": "Appartement",
        "surfaceM2": 72,
        "isVefa": false
      },
      {
        "date": "2022-06-20",
        "priceEur": 69300,
        "typeLocal": "Appartement",
        "surfaceM2": 62,
        "isVefa": false
      }
    ]
  },
  "f83f799a5642": {
    "id": "f83f799a5642",
    "label": "42 RUE SALVADOR ALLENDE, Grande-Synthe",
    "lat": 51.018556,
    "lng": 2.305908,
    "transactions": [
      {
        "date": "2022-08-19",
        "priceEur": 125000,
        "typeLocal": "Maison",
        "surfaceM2": 87,
        "isVefa": false
      }
    ]
  },
  "1ce160f8b711": {
    "id": "1ce160f8b711",
    "label": "29 RUE DES PEUPLIERS, Grande-Synthe",
    "lat": 51.020168,
    "lng": 2.306721,
    "transactions": [
      {
        "date": "2022-09-23",
        "priceEur": 178000,
        "typeLocal": "Maison",
        "surfaceM2": 82,
        "isVefa": false
      }
    ]
  },
  "ae302ca5ccbc": {
    "id": "ae302ca5ccbc",
    "label": "8 RUE DENIS PAPIN, Grande-Synthe",
    "lat": 51.018332,
    "lng": 2.300479,
    "transactions": [
      {
        "date": "2024-09-04",
        "priceEur": 102500,
        "typeLocal": "Appartement",
        "surfaceM2": 95,
        "isVefa": false
      },
      {
        "date": "2024-07-11",
        "priceEur": 87000,
        "typeLocal": "Appartement",
        "surfaceM2": 95,
        "isVefa": false
      },
      {
        "date": "2022-10-18",
        "priceEur": 105000,
        "typeLocal": "Appartement",
        "surfaceM2": 95,
        "isVefa": false
      }
    ]
  },
  "ae3d19ec92a1": {
    "id": "ae3d19ec92a1",
    "label": "82 RUE VICTOR HUGO, Grande-Synthe",
    "lat": 51.01471,
    "lng": 2.301218,
    "transactions": [
      {
        "date": "2022-09-29",
        "priceEur": 154560,
        "typeLocal": "Maison",
        "surfaceM2": 80,
        "isVefa": false
      }
    ]
  },
  "422f9b7f4e5c": {
    "id": "422f9b7f4e5c",
    "label": "7 RUE PELLETIER, Grande-Synthe",
    "lat": 51.018816,
    "lng": 2.296774,
    "transactions": [
      {
        "date": "2022-10-07",
        "priceEur": 170000,
        "typeLocal": "Maison",
        "surfaceM2": 103,
        "isVefa": false
      }
    ]
  },
  "c5a6ca4d3789": {
    "id": "c5a6ca4d3789",
    "label": "59 RUE VICTOR HUGO, Grande-Synthe",
    "lat": 51.014155,
    "lng": 2.298604,
    "transactions": [
      {
        "date": "2022-10-13",
        "priceEur": 127000,
        "typeLocal": "Maison",
        "surfaceM2": 91,
        "isVefa": false
      }
    ]
  },
  "8d0570239d3d": {
    "id": "8d0570239d3d",
    "label": "5B RUE PELLETIER, Grande-Synthe",
    "lat": 51.018792,
    "lng": 2.296668,
    "transactions": [
      {
        "date": "2022-12-23",
        "priceEur": 177000,
        "typeLocal": "Maison",
        "surfaceM2": 84,
        "isVefa": false
      }
    ]
  },
  "66b362b9fdbb": {
    "id": "66b362b9fdbb",
    "label": "4 RUE GEORGES CLEMENCEAU, Grande-Synthe",
    "lat": 51.014116,
    "lng": 2.301922,
    "transactions": [
      {
        "date": "2023-02-15",
        "priceEur": 74700,
        "typeLocal": "Appartement",
        "surfaceM2": 72,
        "isVefa": false
      }
    ]
  },
  "69a57d28404d": {
    "id": "69a57d28404d",
    "label": "93 RUE PASTEUR, Grande-Synthe",
    "lat": 51.017779,
    "lng": 2.296821,
    "transactions": [
      {
        "date": "2023-02-27",
        "priceEur": 120000,
        "typeLocal": "Maison",
        "surfaceM2": 75,
        "isVefa": false
      }
    ]
  },
  "d76180777805": {
    "id": "d76180777805",
    "label": "12 RUE DES ROSIERS, Grande-Synthe",
    "lat": 51.020262,
    "lng": 2.306331,
    "transactions": [
      {
        "date": "2023-04-11",
        "priceEur": 145000,
        "typeLocal": "Maison",
        "surfaceM2": 97,
        "isVefa": false
      }
    ]
  },
  "9b8ebe9ed35c": {
    "id": "9b8ebe9ed35c",
    "label": "28 RUE LAMARTINE, Grande-Synthe",
    "lat": 51.01441,
    "lng": 2.298397,
    "transactions": [
      {
        "date": "2023-05-25",
        "priceEur": 128000,
        "typeLocal": "Maison",
        "surfaceM2": 71,
        "isVefa": false
      }
    ]
  },
  "486829f15a6f": {
    "id": "486829f15a6f",
    "label": "5 RUE PASCAL, Grande-Synthe",
    "lat": 51.01818,
    "lng": 2.296998,
    "transactions": [
      {
        "date": "2023-06-28",
        "priceEur": 178000,
        "typeLocal": "Maison",
        "surfaceM2": 87,
        "isVefa": false
      }
    ]
  },
  "287e7f3034b3": {
    "id": "287e7f3034b3",
    "label": "48 AV DE PETITE SYNTHE, Grande-Synthe",
    "lat": 51.013988,
    "lng": 2.307069,
    "transactions": [
      {
        "date": "2023-08-25",
        "priceEur": 130000,
        "typeLocal": "Maison",
        "surfaceM2": 91,
        "isVefa": false
      }
    ]
  },
  "0e54a407f60d": {
    "id": "0e54a407f60d",
    "label": "54 RUE DE LA COMMUNE DE PARIS, Grande-Synthe",
    "lat": 51.013902,
    "lng": 2.306638,
    "transactions": [
      {
        "date": "2023-12-08",
        "priceEur": 150000,
        "typeLocal": "Maison",
        "surfaceM2": 80,
        "isVefa": false
      }
    ]
  },
  "c98d8d18d03a": {
    "id": "c98d8d18d03a",
    "label": "3B RUE PELLETIER, Grande-Synthe",
    "lat": 51.018693,
    "lng": 2.296425,
    "transactions": [
      {
        "date": "2024-05-31",
        "priceEur": 147000,
        "typeLocal": "Maison",
        "surfaceM2": 92,
        "isVefa": false
      }
    ]
  },
  "9b0f33848c29": {
    "id": "9b0f33848c29",
    "label": "2 RUE PASCAL, Grande-Synthe",
    "lat": 51.017985,
    "lng": 2.296492,
    "transactions": [
      {
        "date": "2024-06-19",
        "priceEur": 145000,
        "typeLocal": "Maison",
        "surfaceM2": 76,
        "isVefa": false
      }
    ]
  },
  "eee44582750a": {
    "id": "eee44582750a",
    "label": "80 RUE VICTOR HUGO, Grande-Synthe",
    "lat": 51.014658,
    "lng": 2.301052,
    "transactions": [
      {
        "date": "2024-07-16",
        "priceEur": 156480,
        "typeLocal": "Maison",
        "surfaceM2": 80,
        "isVefa": false
      }
    ]
  },
  "b3a74ce32a1b": {
    "id": "b3a74ce32a1b",
    "label": "8 RUE PERRIN, Grande-Synthe",
    "lat": 51.01604,
    "lng": 2.300631,
    "transactions": [
      {
        "date": "2024-09-12",
        "priceEur": 70000,
        "typeLocal": "Appartement",
        "surfaceM2": 62,
        "isVefa": false
      }
    ]
  },
  "c69a6f49a522": {
    "id": "c69a6f49a522",
    "label": "10 RUE DENIS PAPIN, Grande-Synthe",
    "lat": 51.018332,
    "lng": 2.300479,
    "transactions": [
      {
        "date": "2025-06-02",
        "priceEur": 125000,
        "typeLocal": "Appartement",
        "surfaceM2": 106,
        "isVefa": false
      },
      {
        "date": "2025-03-17",
        "priceEur": 98000,
        "typeLocal": "Appartement",
        "surfaceM2": 106,
        "isVefa": false
      },
      {
        "date": "2025-03-14",
        "priceEur": 125400,
        "typeLocal": "Appartement",
        "surfaceM2": 106,
        "isVefa": false
      },
      {
        "date": "2024-09-20",
        "priceEur": 119380,
        "typeLocal": "Appartement",
        "surfaceM2": 125,
        "isVefa": false
      }
    ]
  },
  "e2e9e1c0e1e0": {
    "id": "e2e9e1c0e1e0",
    "label": "20 RUE LAMARTINE, Grande-Synthe",
    "lat": 51.01425,
    "lng": 2.298058,
    "transactions": [
      {
        "date": "2024-10-01",
        "priceEur": 165000,
        "typeLocal": "Maison",
        "surfaceM2": 90,
        "isVefa": false
      }
    ]
  },
  "1bbc7513af8f": {
    "id": "1bbc7513af8f",
    "label": "6 RUE MICHELET, Grande-Synthe",
    "lat": 51.014744,
    "lng": 2.299765,
    "transactions": [
      {
        "date": "2024-10-30",
        "priceEur": 137800,
        "typeLocal": "Maison",
        "surfaceM2": 68,
        "isVefa": false
      }
    ]
  },
  "b0858441f5ec": {
    "id": "b0858441f5ec",
    "label": "31 RUE DES PEUPLIERS, Grande-Synthe",
    "lat": 51.020279,
    "lng": 2.306722,
    "transactions": [
      {
        "date": "2025-03-19",
        "priceEur": 170000,
        "typeLocal": "Maison",
        "surfaceM2": 83,
        "isVefa": false
      }
    ]
  },
  "d79928d9cb96": {
    "id": "d79928d9cb96",
    "label": "50 RUE ALPHONSE DAUDET, Grande-Synthe",
    "lat": 51.013906,
    "lng": 2.296807,
    "transactions": [
      {
        "date": "2025-04-18",
        "priceEur": 110000,
        "typeLocal": "Maison",
        "surfaceM2": 68,
        "isVefa": false
      }
    ]
  },
  "15152ae98295": {
    "id": "15152ae98295",
    "label": "10 RUE DES AUBEPINES, Grande-Synthe",
    "lat": 51.018914,
    "lng": 2.306852,
    "transactions": [
      {
        "date": "2025-04-18",
        "priceEur": 115000,
        "typeLocal": "Maison",
        "surfaceM2": 85,
        "isVefa": false
      }
    ]
  },
  "b227fb3f68e1": {
    "id": "b227fb3f68e1",
    "label": "1B RUE PELLETIER, Grande-Synthe",
    "lat": 51.018583,
    "lng": 2.296203,
    "transactions": [
      {
        "date": "2025-05-13",
        "priceEur": 140000,
        "typeLocal": "Maison",
        "surfaceM2": 84,
        "isVefa": false
      }
    ]
  },
  "0f6a743126d3": {
    "id": "0f6a743126d3",
    "label": "16 RUE DES AUBEPINES, Grande-Synthe",
    "lat": 51.018843,
    "lng": 2.306652,
    "transactions": [
      {
        "date": "2025-06-05",
        "priceEur": 120000,
        "typeLocal": "Maison",
        "surfaceM2": 85,
        "isVefa": false
      }
    ]
  }
}