{
  "e32aa0480bdd": {
    "id": "e32aa0480bdd",
    "label": "177 RUE DU POULIER, Auzebosc",
    "lat": 49.601959,
    "lng": 0.723069,
    "transactions": [
      {
        "date": "2021-04-10",
        "priceEur": 184000,
        "typeLocal": "Maison",
        "surfaceM2": 96,
        "isVefa": false
      }
    ]
  },
  "c0525676e3c6": {
    "id": "c0525676e3c6",
    "label": "31 RES LA BICHOTTERIE, Auzebosc",
    "lat": 49.596719,
    "lng": 0.723968,
    "transactions": [
      {
        "date": "2021-10-13",
        "priceEur": 195000,
        "typeLocal": "Maison",
        "surfaceM2": 123,
        "isVefa": false
      }
    ]
  },
  "06bdfc7c39c4": {
    "id": "06bdfc7c39c4",
    "label": "151 IMP DU CLAIR BOUILLON, Auzebosc",
    "lat": 49.601905,
    "lng": 0.720916,
    "transactions": [
      {
        "date": "2021-11-24",
        "priceEur": 154500,
        "typeLocal": "Maison",
        "surfaceM2": 95,
        "isVefa": false
      }
    ]
  },
  "bfffbf2fe629": {
    "id": "bfffbf2fe629",
    "label": "106 IMP DU CLAIR BOUILLON, Auzebosc",
    "lat": 49.60207,
    "lng": 0.722126,
    "transactions": [
      {
        "date": "2022-02-11",
        "priceEur": 192700,
        "typeLocal": "Maison",
        "surfaceM2": 95,
        "isVefa": false
      }
    ]
  },
  "1ffd301586ba": {
    "id": "1ffd301586ba",
    "label": "191 RUE DE LA VALLERIE, Auzebosc",
    "lat": 49.599301,
    "lng": 0.720823,
    "transactions": [
      {
        "date": "2022-05-16",
        "priceEur": 152000,
        "typeLocal": "Maison",
        "surfaceM2": 70,
        "isVefa": false
      }
    ]
  },
  "43f01e039fec": {
    "id": "43f01e039fec",
    "label": "9 RES LES MYOSOTIS, Auzebosc",
    "lat": 49.599092,
    "lng": 0.724548,
    "transactions": [
      {
        "date": "2022-07-04",
        "priceEur": 191000,
        "typeLocal": "Maison",
        "surfaceM2": 88,
        "isVefa": false
      }
    ]
  },
  "196b3140d225": {
    "id": "196b3140d225",
    "label": "181 RUE DU POULIER, Auzebosc",
    "lat": 49.602444,
    "lng": 0.723353,
    "transactions": [
      {
        "date": "2022-07-29",
        "priceEur": 215000,
        "typeLocal": "Maison",
        "surfaceM2": 109,
        "isVefa": false
      }
    ]
  },
  "c0a2eae3f3da": {
    "id": "c0a2eae3f3da",
    "label": "193 LA VALLERIE, Auzebosc",
    "lat": 49.599146,
    "lng": 0.720488,
    "transactions": [
      {
        "date": "2022-11-18",
        "priceEur": 150000,
        "typeLocal": "Maison",
        "surfaceM2": 50,
        "isVefa": false
      }
    ]
  },
  "8671fba40f65": {
    "id": "8671fba40f65",
    "label": "29 PL DES TOURTERELLES, Auzebosc",
    "lat": 49.596641,
    "lng": 0.724442,
    "transactions": [
      {
        "date": "2023-03-22",
        "priceEur": 193000,
        "typeLocal": "Maison",
        "surfaceM2": 99,
        "isVefa": false
      }
    ]
  },
  "747b288b112e": {
    "id": "747b288b112e",
    "label": "8 RES LES MYOSOTIS, Auzebosc",
    "lat": 49.5989,
    "lng": 0.724737,
    "transactions": [
      {
        "date": "2023-12-26",
        "priceEur": 213000,
        "typeLocal": "Maison",
        "surfaceM2": 102,
        "isVefa": false
      }
    ]
  },
  "87c04b2cc3cd": {
    "id": "87c04b2cc3cd",
    "label": "445 RUE DU CALVAIRE, Auzebosc",
    "lat": 49.598875,
    "lng": 0.723681,
    "transactions": [
      {
        "date": "2024-06-05",
        "priceEur": 254200,
        "typeLocal": "Maison",
        "surfaceM2": 115,
        "isVefa": false
      }
    ]
  },
  "76f9b7455360": {
    "id": "76f9b7455360",
    "label": "27 PL DES TOURTERELLES, Auzebosc",
    "lat": 49.596736,
    "lng": 0.724894,
    "transactions": [
      {
        "date": "2024-06-05",
        "priceEur": 151500,
        "typeLocal": "Maison",
        "surfaceM2": 88,
        "isVefa": false
      }
    ]
  },
  "27506a330950": {
    "id": "27506a330950",
    "label": "25 PL DES TOURTERELLES, Auzebosc",
    "lat": 49.596571,
    "lng": 0.724807,
    "transactions": [
      {
        "date": "2025-02-26",
        "priceEur": 227000,
        "typeLocal": "Maison",
        "surfaceM2": 105,
        "isVefa": false
      }
    ]
  },
  "2bca280b2a7f": {
    "id": "2bca280b2a7f",
    "label": "52 RUE DE LA VALLERIE, Auzebosc",
    "lat": 49.600342,
    "lng": 0.722013,
    "transactions": [
      {
        "date": "2025-05-05",
        "priceEur": 378600,
        "typeLocal": "Maison",
        "surfaceM2": 189,
        "isVefa": false
      }
    ]
  }
}