{
  "f528d1a82eba": {
    "id": "f528d1a82eba",
    "label": "24 PL D ARMES, Rives-en-Seine",
    "lat": 49.525678,
    "lng": 0.723939,
    "transactions": [
      {
        "date": "2021-07-09",
        "priceEur": 68000,
        "typeLocal": "Appartement",
        "surfaceM2": 70,
        "isVefa": false
      },
      {
        "date": "2021-03-17",
        "priceEur": 110000,
        "typeLocal": "Appartement",
        "surfaceM2": 60,
        "isVefa": false
      },
      {
        "date": "2020-09-03",
        "priceEur": 170000,
        "typeLocal": "Appartement",
        "surfaceM2": 48,
        "isVefa": false
      },
      {
        "date": "2020-09-03",
        "priceEur": 170000,
        "typeLocal": "Appartement",
        "surfaceM2": 59,
        "isVefa": false
      }
    ]
  },
  "09f3afeb364b": {
    "id": "09f3afeb364b",
    "label": "9011 LE CALIDU, Rives-en-Seine",
    "lat": 49.526382,
    "lng": 0.721045,
    "transactions": [
      {
        "date": "2020-09-08",
        "priceEur": 260000,
        "typeLocal": "Maison",
        "surfaceM2": 167,
        "isVefa": false
      }
    ]
  },
  "f57e4e865e58": {
    "id": "f57e4e865e58",
    "label": "9013 RUE DU HUIT MAI, Rives-en-Seine",
    "lat": 49.525647,
    "lng": 0.723832,
    "transactions": [
      {
        "date": "2022-06-15",
        "priceEur": 57000,
        "typeLocal": "Appartement",
        "surfaceM2": 30,
        "isVefa": false
      },
      {
        "date": "2022-04-07",
        "priceEur": 66000,
        "typeLocal": "Appartement",
        "surfaceM2": 40,
        "isVefa": false
      },
      {
        "date": "2020-09-29",
        "priceEur": 129000,
        "typeLocal": "Appartement",
        "surfaceM2": 75,
        "isVefa": false
      }
    ]
  },
  "8008977c33f0": {
    "id": "8008977c33f0",
    "label": "2 RUE UPPINGHAM, Rives-en-Seine",
    "lat": 49.529204,
    "lng": 0.72133,
    "transactions": [
      {
        "date": "2025-04-16",
        "priceEur": 330000,
        "typeLocal": "Appartement",
        "surfaceM2": 130,
        "isVefa": false
      },
      {
        "date": "2024-07-03",
        "priceEur": 290000,
        "typeLocal": "Appartement",
        "surfaceM2": 95,
        "isVefa": false
      },
      {
        "date": "2024-05-17",
        "priceEur": 300000,
        "typeLocal": "Appartement",
        "surfaceM2": 98,
        "isVefa": false
      },
      {
        "date": "2022-05-10",
        "priceEur": 152000,
        "typeLocal": "Appartement",
        "surfaceM2": 46,
        "isVefa": false
      },
      {
        "date": "2020-11-03",
        "priceEur": 122000,
        "typeLocal": "Appartement",
        "surfaceM2": 47,
        "isVefa": false
      }
    ]
  },
  "2e858b6b4548": {
    "id": "2e858b6b4548",
    "label": "3 RUE DES TANNEURS, Rives-en-Seine",
    "lat": 49.526162,
    "lng": 0.722848,
    "transactions": [
      {
        "date": "2023-06-29",
        "priceEur": 170000,
        "typeLocal": "Appartement",
        "surfaceM2": 80,
        "isVefa": false
      },
      {
        "date": "2022-06-07",
        "priceEur": 134200,
        "typeLocal": "Appartement",
        "surfaceM2": 72,
        "isVefa": false
      },
      {
        "date": "2021-09-03",
        "priceEur": 135500,
        "typeLocal": "Appartement",
        "surfaceM2": 80,
        "isVefa": false
      }
    ]
  },
  "bd5455c9c795": {
    "id": "bd5455c9c795",
    "label": "18 GRANDE RUE, Rives-en-Seine",
    "lat": 49.526382,
    "lng": 0.723672,
    "transactions": [
      {
        "date": "2021-12-22",
        "priceEur": 289000,
        "typeLocal": "Appartement",
        "surfaceM2": 50,
        "isVefa": false
      },
      {
        "date": "2021-12-22",
        "priceEur": 289000,
        "typeLocal": "Appartement",
        "surfaceM2": 60,
        "isVefa": false
      },
      {
        "date": "2021-12-22",
        "priceEur": 289000,
        "typeLocal": "Appartement",
        "surfaceM2": 57,
        "isVefa": false
      },
      {
        "date": "2021-12-22",
        "priceEur": 289000,
        "typeLocal": "Appartement",
        "surfaceM2": 64,
        "isVefa": false
      },
      {
        "date": "2021-12-22",
        "priceEur": 289000,
        "typeLocal": "Appartement",
        "surfaceM2": 66,
        "isVefa": false
      }
    ]
  },
  "36fbb4f7af36": {
    "id": "36fbb4f7af36",
    "label": "2 RUE DE LA TOUR D HARFLEUR, Rives-en-Seine",
    "lat": 49.526301,
    "lng": 0.72296,
    "transactions": [
      {
        "date": "2023-05-30",
        "priceEur": 105000,
        "typeLocal": "Appartement",
        "surfaceM2": 61,
        "isVefa": false
      },
      {
        "date": "2021-02-24",
        "priceEur": 67000,
        "typeLocal": "Appartement",
        "surfaceM2": 36,
        "isVefa": false
      }
    ]
  },
  "f6e0a0dd99f5": {
    "id": "f6e0a0dd99f5",
    "label": "12 RTE DU HAVRE - CAUDEBEC, Rives-en-Seine",
    "lat": 49.526627,
    "lng": 0.721647,
    "transactions": [
      {
        "date": "2021-03-11",
        "priceEur": 40000,
        "typeLocal": "Maison",
        "surfaceM2": 45,
        "isVefa": false
      }
    ]
  },
  "1c0898631c16": {
    "id": "1c0898631c16",
    "label": "9 RUE UPPINGHAM, Rives-en-Seine",
    "lat": 49.528897,
    "lng": 0.7212,
    "transactions": [
      {
        "date": "2022-01-19",
        "priceEur": 210000,
        "typeLocal": "Maison",
        "surfaceM2": 96,
        "isVefa": false
      }
    ]
  },
  "5c6efae0c91e": {
    "id": "5c6efae0c91e",
    "label": "13 RUE UPPINGHAM, Rives-en-Seine",
    "lat": 49.528673,
    "lng": 0.721354,
    "transactions": [
      {
        "date": "2022-02-16",
        "priceEur": 201000,
        "typeLocal": "Maison",
        "surfaceM2": 99,
        "isVefa": false
      }
    ]
  },
  "c5db10f8b8a6": {
    "id": "c5db10f8b8a6",
    "label": "7 RUE UPPINGHAM, Rives-en-Seine",
    "lat": 49.528984,
    "lng": 0.721213,
    "transactions": [
      {
        "date": "2022-02-17",
        "priceEur": 207400,
        "typeLocal": "Maison",
        "surfaceM2": 96,
        "isVefa": false
      }
    ]
  },
  "7e8cdb2f1ecf": {
    "id": "7e8cdb2f1ecf",
    "label": "11 RUE DU HUIT MAI, Rives-en-Seine",
    "lat": 49.525647,
    "lng": 0.723832,
    "transactions": [
      {
        "date": "2022-03-31",
        "priceEur": 95000,
        "typeLocal": "Appartement",
        "surfaceM2": 30,
        "isVefa": false
      }
    ]
  },
  "ee3fa6c7ea43": {
    "id": "ee3fa6c7ea43",
    "label": "7 CHE DES ARCHERS, Rives-en-Seine",
    "lat": 49.525701,
    "lng": 0.721232,
    "transactions": [
      {
        "date": "2022-08-30",
        "priceEur": 290000,
        "typeLocal": "Maison",
        "surfaceM2": 116,
        "isVefa": false
      }
    ]
  },
  "2a527a29d595": {
    "id": "2a527a29d595",
    "label": "4 RTE DU HAVRE - CAUDEBEC, Rives-en-Seine",
    "lat": 49.526436,
    "lng": 0.721906,
    "transactions": [
      {
        "date": "2022-11-25",
        "priceEur": 54500,
        "typeLocal": "Maison",
        "surfaceM2": 50,
        "isVefa": false
      }
    ]
  },
  "52d61cb770d8": {
    "id": "52d61cb770d8",
    "label": "5 RUE SAINT FRANCOIS, Rives-en-Seine",
    "lat": 49.525478,
    "lng": 0.722408,
    "transactions": [
      {
        "date": "2023-01-10",
        "priceEur": 479000,
        "typeLocal": "Appartement",
        "surfaceM2": 73,
        "isVefa": false
      },
      {
        "date": "2023-01-10",
        "priceEur": 479000,
        "typeLocal": "Appartement",
        "surfaceM2": 60,
        "isVefa": false
      },
      {
        "date": "2023-01-10",
        "priceEur": 479000,
        "typeLocal": "Appartement",
        "surfaceM2": 36,
        "isVefa": false
      },
      {
        "date": "2023-01-10",
        "priceEur": 479000,
        "typeLocal": "Appartement",
        "surfaceM2": 75,
        "isVefa": false
      }
    ]
  },
  "48aabce47fe4": {
    "id": "48aabce47fe4",
    "label": "2 RUE OLGIERD ILINSKI, Rives-en-Seine",
    "lat": 49.530601,
    "lng": 0.718504,
    "transactions": [
      {
        "date": "2023-01-03",
        "priceEur": 330000,
        "typeLocal": "Appartement",
        "surfaceM2": 50,
        "isVefa": false
      },
      {
        "date": "2023-01-03",
        "priceEur": 330000,
        "typeLocal": "Appartement",
        "surfaceM2": 42,
        "isVefa": false
      },
      {
        "date": "2023-01-03",
        "priceEur": 330000,
        "typeLocal": "Appartement",
        "surfaceM2": 45,
        "isVefa": false
      }
    ]
  },
  "aa3250a99d02": {
    "id": "aa3250a99d02",
    "label": "12 GRANDE RUE, Rives-en-Seine",
    "lat": 49.526324,
    "lng": 0.724884,
    "transactions": [
      {
        "date": "2023-04-18",
        "priceEur": 80000,
        "typeLocal": "Appartement",
        "surfaceM2": 37,
        "isVefa": false
      }
    ]
  },
  "b57a5b84d4ba": {
    "id": "b57a5b84d4ba",
    "label": "20 RUE DU HUIT MAI, Rives-en-Seine",
    "lat": 49.525678,
    "lng": 0.723939,
    "transactions": [
      {
        "date": "2023-05-30",
        "priceEur": 155000,
        "typeLocal": "Appartement",
        "surfaceM2": 98,
        "isVefa": false
      }
    ]
  },
  "3ce160705def": {
    "id": "3ce160705def",
    "label": "15 RUE UPPINGHAM, Rives-en-Seine",
    "lat": 49.528571,
    "lng": 0.721499,
    "transactions": [
      {
        "date": "2023-09-06",
        "priceEur": 243170,
        "typeLocal": "Maison",
        "surfaceM2": 99,
        "isVefa": false
      }
    ]
  },
  "491c0c30282a": {
    "id": "491c0c30282a",
    "label": "18 RTE DU HAVRE - CAUDEBEC, Rives-en-Seine",
    "lat": 49.526745,
    "lng": 0.721492,
    "transactions": [
      {
        "date": "2023-12-22",
        "priceEur": 30000,
        "typeLocal": "Maison",
        "surfaceM2": 25,
        "isVefa": false
      }
    ]
  },
  "464130df06c9": {
    "id": "464130df06c9",
    "label": "9003 RUE DE L AMBION, Rives-en-Seine",
    "lat": 49.525782,
    "lng": 0.723722,
    "transactions": [
      {
        "date": "2024-02-08",
        "priceEur": 73600,
        "typeLocal": "Appartement",
        "surfaceM2": 37,
        "isVefa": false
      }
    ]
  },
  "ebd4b5dbada3": {
    "id": "ebd4b5dbada3",
    "label": "28 RTE D YVETOT, Rives-en-Seine",
    "lat": 49.532339,
    "lng": 0.722207,
    "transactions": [
      {
        "date": "2024-04-23",
        "priceEur": 130625,
        "typeLocal": "Maison",
        "surfaceM2": 76,
        "isVefa": false
      }
    ]
  },
  "e84785df9bdf": {
    "id": "e84785df9bdf",
    "label": "4 RUE OLGIERD ILINSKI, Rives-en-Seine",
    "lat": 49.530943,
    "lng": 0.718255,
    "transactions": [
      {
        "date": "2024-06-03",
        "priceEur": 525000,
        "typeLocal": "Appartement",
        "surfaceM2": 65,
        "isVefa": false
      },
      {
        "date": "2024-06-03",
        "priceEur": 525000,
        "typeLocal": "Appartement",
        "surfaceM2": 52,
        "isVefa": false
      }
    ]
  },
  "7a17ed2efb5d": {
    "id": "7a17ed2efb5d",
    "label": "28 RTE DU HAVRE - CAUDEBEC, Rives-en-Seine",
    "lat": 49.527506,
    "lng": 0.720938,
    "transactions": [
      {
        "date": "2024-06-21",
        "priceEur": 70000,
        "typeLocal": "Maison",
        "surfaceM2": 63,
        "isVefa": false
      }
    ]
  },
  "80c0a03632be": {
    "id": "80c0a03632be",
    "label": "21A RUE PDT JOHN F KENNEDY, Rives-en-Seine",
    "lat": 49.528562,
    "lng": 0.720969,
    "transactions": [
      {
        "date": "2024-09-16",
        "priceEur": 107000,
        "typeLocal": "Maison",
        "surfaceM2": 72,
        "isVefa": false
      }
    ]
  },
  "81436c9cfb80": {
    "id": "81436c9cfb80",
    "label": "17 RUE PDT JOHN F KENNEDY, Rives-en-Seine",
    "lat": 49.527707,
    "lng": 0.72102,
    "transactions": [
      {
        "date": "2024-09-11",
        "priceEur": 130000,
        "typeLocal": "Maison",
        "surfaceM2": 40,
        "isVefa": false
      }
    ]
  },
  "a8c6147887f6": {
    "id": "a8c6147887f6",
    "label": "1 RTE D YVETOT, Rives-en-Seine",
    "lat": 49.529354,
    "lng": 0.724047,
    "transactions": [
      {
        "date": "2024-09-11",
        "priceEur": 210000,
        "typeLocal": "Maison",
        "surfaceM2": 143,
        "isVefa": false
      }
    ]
  },
  "83efb9758bbd": {
    "id": "83efb9758bbd",
    "label": "5 RUE PDT JOHN F KENNEDY, Rives-en-Seine",
    "lat": 49.526634,
    "lng": 0.721729,
    "transactions": [
      {
        "date": "2024-11-18",
        "priceEur": 90000,
        "typeLocal": "Maison",
        "surfaceM2": 62,
        "isVefa": false
      }
    ]
  },
  "107fa10e2cc4": {
    "id": "107fa10e2cc4",
    "label": "2 RUE DE L AMBION, Rives-en-Seine",
    "lat": 49.525727,
    "lng": 0.723775,
    "transactions": [
      {
        "date": "2025-04-22",
        "priceEur": 121450,
        "typeLocal": "Appartement",
        "surfaceM2": 96,
        "isVefa": false
      }
    ]
  },
  "b7cdf7c9c835": {
    "id": "b7cdf7c9c835",
    "label": "26 RTE D YVETOT, Rives-en-Seine",
    "lat": 49.532208,
    "lng": 0.722325,
    "transactions": [
      {
        "date": "2025-04-18",
        "priceEur": 103000,
        "typeLocal": "Maison",
        "surfaceM2": 76,
        "isVefa": false
      }
    ]
  },
  "8a8827359976": {
    "id": "8a8827359976",
    "label": "9 GRANDE RUE, Rives-en-Seine",
    "lat": 49.526035,
    "lng": 0.723889,
    "transactions": [
      {
        "date": "2025-04-28",
        "priceEur": 164000,
        "typeLocal": "Maison",
        "surfaceM2": 125,
        "isVefa": false
      }
    ]
  },
  "4434363c7b63": {
    "id": "4434363c7b63",
    "label": "6 RUE DE L AMBION, Rives-en-Seine",
    "lat": 49.525838,
    "lng": 0.723705,
    "transactions": [
      {
        "date": "2025-05-14",
        "priceEur": 250000,
        "typeLocal": "Appartement",
        "surfaceM2": 43,
        "isVefa": false
      },
      {
        "date": "2025-05-14",
        "priceEur": 250000,
        "typeLocal": "Appartement",
        "surfaceM2": 32,
        "isVefa": false
      },
      {
        "date": "2025-05-14",
        "priceEur": 250000,
        "typeLocal": "Appartement",
        "surfaceM2": 78,
        "isVefa": false
      }
    ]
  }
}