{
  "5098020e97e0": {
    "id": "5098020e97e0",
    "label": "361 RUE NOTRE DAME, Thun-l'Évêque",
    "lat": 50.22293,
    "lng": 3.29195,
    "transactions": [
      {
        "date": "2020-10-02",
        "priceEur": 375000,
        "typeLocal": "Maison",
        "surfaceM2": 131,
        "isVefa": false
      }
    ]
  },
  "42bf4591ad02": {
    "id": "42bf4591ad02",
    "label": "14 RUE DU CAMBRESIS, Thun-Saint-Martin",
    "lat": 50.222787,
    "lng": 3.295331,
    "transactions": [
      {
        "date": "2021-03-11",
        "priceEur": 135050,
        "typeLocal": "Maison",
        "surfaceM2": 90,
        "isVefa": false
      }
    ]
  },
  "e4bd9b172cff": {
    "id": "e4bd9b172cff",
    "label": "317 RUE NOTRE DAME, Thun-l'Évêque",
    "lat": 50.222572,
    "lng": 3.291389,
    "transactions": [
      {
        "date": "2021-07-15",
        "priceEur": 300000,
        "typeLocal": "Maison",
        "surfaceM2": 161,
        "isVefa": false
      }
    ]
  },
  "975d2fdbbfdc": {
    "id": "975d2fdbbfdc",
    "label": "153 RUE DU MOULIN, Thun-l'Évêque",
    "lat": 50.224864,
    "lng": 3.286843,
    "transactions": [
      {
        "date": "2022-06-17",
        "priceEur": 155000,
        "typeLocal": "Maison",
        "surfaceM2": 132,
        "isVefa": false
      }
    ]
  },
  "eef52e2e7dfa": {
    "id": "eef52e2e7dfa",
    "label": "9B RUE DU CAMBRESIS, Thun-Saint-Martin",
    "lat": 50.223451,
    "lng": 3.29441,
    "transactions": [
      {
        "date": "2022-07-29",
        "priceEur": 140000,
        "typeLocal": "Maison",
        "surfaceM2": 120,
        "isVefa": false
      }
    ]
  },
  "edf07afa5b73": {
    "id": "edf07afa5b73",
    "label": "79 RUE BURY, Thun-l'Évêque",
    "lat": 50.225559,
    "lng": 3.28576,
    "transactions": [
      {
        "date": "2023-09-18",
        "priceEur": 60000,
        "typeLocal": "Maison",
        "surfaceM2": 118,
        "isVefa": false
      }
    ]
  },
  "6922950ad82d": {
    "id": "6922950ad82d",
    "label": "79 RUE DE LA FOSSADE, Thun-l'Évêque",
    "lat": 50.225872,
    "lng": 3.289047,
    "transactions": [
      {
        "date": "2023-10-19",
        "priceEur": 30000,
        "typeLocal": "Maison",
        "surfaceM2": 68,
        "isVefa": false
      }
    ]
  },
  "96ffe58df121": {
    "id": "96ffe58df121",
    "label": "39 RUE DU CAMBRESIS, Thun-Saint-Martin",
    "lat": 50.221132,
    "lng": 3.295451,
    "transactions": [
      {
        "date": "2023-10-26",
        "priceEur": 172000,
        "typeLocal": "Maison",
        "surfaceM2": 90,
        "isVefa": false
      }
    ]
  },
  "139876bca958": {
    "id": "139876bca958",
    "label": "67 RUE DE LA FOSSADE, Thun-l'Évêque",
    "lat": 50.225817,
    "lng": 3.288866,
    "transactions": [
      {
        "date": "2023-11-06",
        "priceEur": 120000,
        "typeLocal": "Maison",
        "surfaceM2": 100,
        "isVefa": false
      }
    ]
  },
  "b45689a41653": {
    "id": "b45689a41653",
    "label": "2 RUE DE LA FOSSADE, Thun-l'Évêque",
    "lat": 50.225962,
    "lng": 3.287642,
    "transactions": [
      {
        "date": "2023-11-16",
        "priceEur": 178000,
        "typeLocal": "Maison",
        "surfaceM2": 134,
        "isVefa": false
      }
    ]
  },
  "8e57f6359b61": {
    "id": "8e57f6359b61",
    "label": "149 RUE DE BRANTIAU, Thun-l'Évêque",
    "lat": 50.219861,
    "lng": 3.287176,
    "transactions": [
      {
        "date": "2023-12-28",
        "priceEur": 200000,
        "typeLocal": "Maison",
        "surfaceM2": 122,
        "isVefa": false
      }
    ]
  },
  "24a7479fbd46": {
    "id": "24a7479fbd46",
    "label": "161 RUE DE BRANTIAU, Thun-l'Évêque",
    "lat": 50.219434,
    "lng": 3.287205,
    "transactions": [
      {
        "date": "2024-04-23",
        "priceEur": 5000,
        "typeLocal": "Maison",
        "surfaceM2": 44,
        "isVefa": false
      }
    ]
  },
  "298d817f6176": {
    "id": "298d817f6176",
    "label": "2 RUE NOTRE DAME, Thun-l'Évêque",
    "lat": 50.220917,
    "lng": 3.288902,
    "transactions": [
      {
        "date": "2024-06-21",
        "priceEur": 221350,
        "typeLocal": "Maison",
        "surfaceM2": 128,
        "isVefa": false
      }
    ]
  },
  "3ffb875e6d4b": {
    "id": "3ffb875e6d4b",
    "label": "78 RUE BURY, Thun-l'Évêque",
    "lat": 50.225304,
    "lng": 3.286209,
    "transactions": [
      {
        "date": "2024-11-29",
        "priceEur": 231100,
        "typeLocal": "Maison",
        "surfaceM2": 180,
        "isVefa": false
      }
    ]
  },
  "3d5129f0214c": {
    "id": "3d5129f0214c",
    "label": "58 RUE DU CDT DOISE, Thun-l'Évêque",
    "lat": 50.225503,
    "lng": 3.284989,
    "transactions": [
      {
        "date": "2025-03-20",
        "priceEur": 60000,
        "typeLocal": "Maison",
        "surfaceM2": 74,
        "isVefa": false
      }
    ]
  }
}