{
  "35ba89034cab": {
    "id": "35ba89034cab",
    "label": "40 RUE DES FRENES, Clermont-l'Hérault",
    "lat": 43.633086,
    "lng": 3.41605,
    "transactions": [
      {
        "date": "2020-08-31",
        "priceEur": 286900,
        "typeLocal": "Maison",
        "surfaceM2": 130,
        "isVefa": false
      }
    ]
  },
  "4dee0b53d81a": {
    "id": "4dee0b53d81a",
    "label": "36 RUE DES FRENES, Clermont-l'Hérault",
    "lat": 43.633271,
    "lng": 3.415727,
    "transactions": [
      {
        "date": "2021-08-16",
        "priceEur": 246722,
        "typeLocal": "Maison",
        "surfaceM2": 99,
        "isVefa": false
      }
    ]
  },
  "922c4ca7bb4a": {
    "id": "922c4ca7bb4a",
    "label": "46 RUE DES ARBOUSIERS, Clermont-l'Hérault",
    "lat": 43.632346,
    "lng": 3.416364,
    "transactions": [
      {
        "date": "2022-04-22",
        "priceEur": 203000,
        "typeLocal": "Maison",
        "surfaceM2": 77,
        "isVefa": false
      }
    ]
  },
  "5fbf2e4161b2": {
    "id": "5fbf2e4161b2",
    "label": "9001 FONTENAY, Clermont-l'Hérault",
    "lat": 43.630988,
    "lng": 3.415899,
    "transactions": [
      {
        "date": "2022-04-27",
        "priceEur": 175000,
        "typeLocal": "Maison",
        "surfaceM2": 250,
        "isVefa": false
      }
    ]
  },
  "39d0280201c0": {
    "id": "39d0280201c0",
    "label": "6B RUE DES FRENES, Clermont-l'Hérault",
    "lat": 43.632816,
    "lng": 3.416551,
    "transactions": [
      {
        "date": "2022-06-01",
        "priceEur": 360000,
        "typeLocal": "Maison",
        "surfaceM2": 89,
        "isVefa": false
      }
    ]
  },
  "1b201c4d9a6d": {
    "id": "1b201c4d9a6d",
    "label": "11 RUE DES MICOCOULIERS, Clermont-l'Hérault",
    "lat": 43.631221,
    "lng": 3.414161,
    "transactions": [
      {
        "date": "2022-05-30",
        "priceEur": 356250,
        "typeLocal": "Maison",
        "surfaceM2": 145,
        "isVefa": false
      }
    ]
  },
  "3ffd90c566ae": {
    "id": "3ffd90c566ae",
    "label": "46 RUE DES MICOCOULIERS, Clermont-l'Hérault",
    "lat": 43.630735,
    "lng": 3.414557,
    "transactions": [
      {
        "date": "2022-07-06",
        "priceEur": 307110,
        "typeLocal": "Maison",
        "surfaceM2": 100,
        "isVefa": false
      }
    ]
  },
  "141a8dce05f0": {
    "id": "141a8dce05f0",
    "label": "8 AV JEAN ROUAUD, Clermont-l'Hérault",
    "lat": 43.632102,
    "lng": 3.416521,
    "transactions": [
      {
        "date": "2022-09-06",
        "priceEur": 245000,
        "typeLocal": "Maison",
        "surfaceM2": 80,
        "isVefa": false
      }
    ]
  },
  "26c626ba0453": {
    "id": "26c626ba0453",
    "label": "207 CHE BAS DE LA COTE, Clermont-l'Hérault",
    "lat": 43.634398,
    "lng": 3.415474,
    "transactions": [
      {
        "date": "2023-03-29",
        "priceEur": 1360000,
        "typeLocal": "Maison",
        "surfaceM2": 230,
        "isVefa": false
      },
      {
        "date": "2023-03-29",
        "priceEur": 1360000,
        "typeLocal": "Maison",
        "surfaceM2": 230,
        "isVefa": false
      },
      {
        "date": "2023-03-29",
        "priceEur": 1360000,
        "typeLocal": "Maison",
        "surfaceM2": 230,
        "isVefa": false
      }
    ]
  },
  "5d018bd37a9e": {
    "id": "5d018bd37a9e",
    "label": "1 RUE DES MICOCOULIERS, Clermont-l'Hérault",
    "lat": 43.631542,
    "lng": 3.414871,
    "transactions": [
      {
        "date": "2023-04-21",
        "priceEur": 370000,
        "typeLocal": "Maison",
        "surfaceM2": 145,
        "isVefa": false
      }
    ]
  },
  "b3cf559f4830": {
    "id": "b3cf559f4830",
    "label": "13 RUE VINCENT BADIE, Clermont-l'Hérault",
    "lat": 43.628578,
    "lng": 3.416683,
    "transactions": [
      {
        "date": "2023-06-22",
        "priceEur": 412200,
        "typeLocal": "Maison",
        "surfaceM2": 118,
        "isVefa": false
      }
    ]
  },
  "a2a71ecb1bfb": {
    "id": "a2a71ecb1bfb",
    "label": "11 RUE JEAN DE LA FONTAINE, Clermont-l'Hérault",
    "lat": 43.630022,
    "lng": 3.415759,
    "transactions": [
      {
        "date": "2023-10-17",
        "priceEur": 355300,
        "typeLocal": "Maison",
        "surfaceM2": 136,
        "isVefa": false
      }
    ]
  },
  "b9cb5bd2794a": {
    "id": "b9cb5bd2794a",
    "label": "18 RUE DES ARBOUSIERS, Clermont-l'Hérault",
    "lat": 43.632517,
    "lng": 3.414857,
    "transactions": [
      {
        "date": "2023-12-04",
        "priceEur": 416000,
        "typeLocal": "Maison",
        "surfaceM2": 197,
        "isVefa": false
      }
    ]
  },
  "3448fad8f357": {
    "id": "3448fad8f357",
    "label": "4 RUE DES MICOCOULIERS, Clermont-l'Hérault",
    "lat": 43.631565,
    "lng": 3.415162,
    "transactions": [
      {
        "date": "2024-12-16",
        "priceEur": 419290,
        "typeLocal": "Maison",
        "surfaceM2": 151,
        "isVefa": false
      }
    ]
  }
}