{
  "37454b3f0882": {
    "id": "37454b3f0882",
    "label": "3 RUE DE LA MAIRIE, Nizas",
    "lat": 43.511913,
    "lng": 3.407483,
    "transactions": [
      {
        "date": "2020-07-16",
        "priceEur": 48000,
        "typeLocal": "Maison",
        "surfaceM2": 37,
        "isVefa": false
      }
    ]
  },
  "d4615c897b4e": {
    "id": "d4615c897b4e",
    "label": "16 RTE DES CAVES, Nizas",
    "lat": 43.514413,
    "lng": 3.40842,
    "transactions": [
      {
        "date": "2020-07-21",
        "priceEur": 205000,
        "typeLocal": "Maison",
        "surfaceM2": 72,
        "isVefa": false
      }
    ]
  },
  "696749ea5f64": {
    "id": "696749ea5f64",
    "label": "14 RUE DES PRAIRIES, Nizas",
    "lat": 43.512283,
    "lng": 3.406544,
    "transactions": [
      {
        "date": "2020-12-15",
        "priceEur": 140700,
        "typeLocal": "Maison",
        "surfaceM2": 60,
        "isVefa": false
      }
    ]
  },
  "30dccbceb31f": {
    "id": "30dccbceb31f",
    "label": "5351F LOT LE CAYRONET, Nizas",
    "lat": 43.514874,
    "lng": 3.406234,
    "transactions": [
      {
        "date": "2020-10-28",
        "priceEur": 214500,
        "typeLocal": "Maison",
        "surfaceM2": 92,
        "isVefa": false
      }
    ]
  },
  "34b41d7f75ef": {
    "id": "34b41d7f75ef",
    "label": "21 RUE DES ECOLES, Nizas",
    "lat": 43.513626,
    "lng": 3.408482,
    "transactions": [
      {
        "date": "2021-01-08",
        "priceEur": 226500,
        "typeLocal": "Maison",
        "surfaceM2": 105,
        "isVefa": false
      },
      {
        "date": "2021-01-08",
        "priceEur": 226500,
        "typeLocal": "Maison",
        "surfaceM2": 49,
        "isVefa": false
      }
    ]
  },
  "66d8af1b2987": {
    "id": "66d8af1b2987",
    "label": "1 PLAN DE LA VILETTE, Nizas",
    "lat": 43.511967,
    "lng": 3.407761,
    "transactions": [
      {
        "date": "2021-03-15",
        "priceEur": 116850,
        "typeLocal": "Maison",
        "surfaceM2": 162,
        "isVefa": false
      }
    ]
  },
  "fc0bff0a9e41": {
    "id": "fc0bff0a9e41",
    "label": "12 RUE DES ROSIERS, Nizas",
    "lat": 43.513201,
    "lng": 3.407431,
    "transactions": [
      {
        "date": "2024-02-27",
        "priceEur": 294447,
        "typeLocal": "Maison",
        "surfaceM2": 238,
        "isVefa": false
      },
      {
        "date": "2021-04-30",
        "priceEur": 210000,
        "typeLocal": "Maison",
        "surfaceM2": 97,
        "isVefa": false
      }
    ]
  },
  "1bc947709440": {
    "id": "1bc947709440",
    "label": "14 RUE DES ROSIERS, Nizas",
    "lat": 43.513309,
    "lng": 3.407453,
    "transactions": [
      {
        "date": "2021-04-30",
        "priceEur": 210000,
        "typeLocal": "Maison",
        "surfaceM2": 168,
        "isVefa": false
      }
    ]
  },
  "f9fc89bd39ea": {
    "id": "f9fc89bd39ea",
    "label": "4 PL DU GRIFFE, Nizas",
    "lat": 43.51216,
    "lng": 3.407571,
    "transactions": [
      {
        "date": "2021-06-11",
        "priceEur": 280000,
        "typeLocal": "Maison",
        "surfaceM2": 126,
        "isVefa": false
      }
    ]
  },
  "bf5eb049e964": {
    "id": "bf5eb049e964",
    "label": "5349F CHE DE MALVIZY, Nizas",
    "lat": 43.515277,
    "lng": 3.405924,
    "transactions": [
      {
        "date": "2021-07-15",
        "priceEur": 235000,
        "typeLocal": "Maison",
        "surfaceM2": 73,
        "isVefa": false
      }
    ]
  },
  "45dc9cd0ce43": {
    "id": "45dc9cd0ce43",
    "label": "6 RUE D'OCCITANIE, Nizas",
    "lat": 43.515726,
    "lng": 3.408765,
    "transactions": [
      {
        "date": "2021-08-02",
        "priceEur": 250300,
        "typeLocal": "Maison",
        "surfaceM2": 80,
        "isVefa": false
      }
    ]
  },
  "58271f2a2229": {
    "id": "58271f2a2229",
    "label": "26 RUE DES PRAIRIES, Nizas",
    "lat": 43.512016,
    "lng": 3.406664,
    "transactions": [
      {
        "date": "2021-08-12",
        "priceEur": 139000,
        "typeLocal": "Maison",
        "surfaceM2": 54,
        "isVefa": false
      }
    ]
  },
  "3f3cf04bd269": {
    "id": "3f3cf04bd269",
    "label": "12 RUE DES ECOLES, Nizas",
    "lat": 43.513255,
    "lng": 3.408441,
    "transactions": [
      {
        "date": "2022-12-15",
        "priceEur": 91250,
        "typeLocal": "Maison",
        "surfaceM2": 40,
        "isVefa": false
      },
      {
        "date": "2021-07-26",
        "priceEur": 77000,
        "typeLocal": "Maison",
        "surfaceM2": 40,
        "isVefa": false
      }
    ]
  },
  "de6fa1722a89": {
    "id": "de6fa1722a89",
    "label": "13 RUE DE LA VIEILLE TOUR, Nizas",
    "lat": 43.51187,
    "lng": 3.408007,
    "transactions": [
      {
        "date": "2021-09-28",
        "priceEur": 150000,
        "typeLocal": "Maison",
        "surfaceM2": 53,
        "isVefa": false
      }
    ]
  },
  "0815f93c868d": {
    "id": "0815f93c868d",
    "label": "10 PLAN DE LA VILETTE, Nizas",
    "lat": 43.5117,
    "lng": 3.407958,
    "transactions": [
      {
        "date": "2022-03-10",
        "priceEur": 515000,
        "typeLocal": "Appartement",
        "surfaceM2": 67,
        "isVefa": false
      },
      {
        "date": "2022-03-10",
        "priceEur": 515000,
        "typeLocal": "Appartement",
        "surfaceM2": 67,
        "isVefa": false
      }
    ]
  },
  "3662933064c5": {
    "id": "3662933064c5",
    "label": "12 PLAN DE LA VILETTE, Nizas",
    "lat": 43.511662,
    "lng": 3.408097,
    "transactions": [
      {
        "date": "2022-03-10",
        "priceEur": 515000,
        "typeLocal": "Maison",
        "surfaceM2": 143,
        "isVefa": false
      }
    ]
  },
  "8d387e8959a6": {
    "id": "8d387e8959a6",
    "label": "25 RUE DES ECOLES, Nizas",
    "lat": 43.513692,
    "lng": 3.408573,
    "transactions": [
      {
        "date": "2022-04-15",
        "priceEur": 280000,
        "typeLocal": "Maison",
        "surfaceM2": 175,
        "isVefa": false
      }
    ]
  },
  "1f042ee0e460": {
    "id": "1f042ee0e460",
    "label": "7 RUE DE LA TOUR DE L'HORLOGE, Nizas",
    "lat": 43.51202,
    "lng": 3.407723,
    "transactions": [
      {
        "date": "2022-06-01",
        "priceEur": 88100,
        "typeLocal": "Maison",
        "surfaceM2": 68,
        "isVefa": false
      }
    ]
  },
  "ef34c010c99c": {
    "id": "ef34c010c99c",
    "label": "5 RUE TRAS LES MURS, Nizas",
    "lat": 43.511897,
    "lng": 3.407542,
    "transactions": [
      {
        "date": "2022-06-10",
        "priceEur": 108500,
        "typeLocal": "Maison",
        "surfaceM2": 36,
        "isVefa": false
      }
    ]
  },
  "c8d023a66c23": {
    "id": "c8d023a66c23",
    "label": "9 PL DU GRIFFE, Nizas",
    "lat": 43.512297,
    "lng": 3.407312,
    "transactions": [
      {
        "date": "2022-07-18",
        "priceEur": 195400,
        "typeLocal": "Maison",
        "surfaceM2": 96,
        "isVefa": false
      }
    ]
  },
  "c11b8a033d45": {
    "id": "c11b8a033d45",
    "label": "7 RUE TRAS LES MURS, Nizas",
    "lat": 43.511923,
    "lng": 3.4076,
    "transactions": [
      {
        "date": "2022-07-23",
        "priceEur": 64000,
        "typeLocal": "Appartement",
        "surfaceM2": 50,
        "isVefa": false
      },
      {
        "date": "2022-07-23",
        "priceEur": 64000,
        "typeLocal": "Appartement",
        "surfaceM2": 45,
        "isVefa": false
      }
    ]
  },
  "db4a3462611d": {
    "id": "db4a3462611d",
    "label": "2 PLAN DU CHATEAU, Nizas",
    "lat": 43.51247,
    "lng": 3.408261,
    "transactions": [
      {
        "date": "2022-08-04",
        "priceEur": 1450000,
        "typeLocal": "Maison",
        "surfaceM2": 144,
        "isVefa": false
      },
      {
        "date": "2022-08-04",
        "priceEur": 1450000,
        "typeLocal": "Maison",
        "surfaceM2": 60,
        "isVefa": false
      }
    ]
  },
  "7dae39edfead": {
    "id": "7dae39edfead",
    "label": "45 RUE DES ECOLES, Nizas",
    "lat": 43.514367,
    "lng": 3.408819,
    "transactions": [
      {
        "date": "2022-09-23",
        "priceEur": 232500,
        "typeLocal": "Maison",
        "surfaceM2": 110,
        "isVefa": false
      }
    ]
  },
  "a114caeeecfb": {
    "id": "a114caeeecfb",
    "label": "1 RUE DES JARDINS, Nizas",
    "lat": 43.513465,
    "lng": 3.409058,
    "transactions": [
      {
        "date": "2022-10-21",
        "priceEur": 285000,
        "typeLocal": "Maison",
        "surfaceM2": 90,
        "isVefa": false
      },
      {
        "date": "2022-10-21",
        "priceEur": 285000,
        "typeLocal": "Maison",
        "surfaceM2": 90,
        "isVefa": false
      }
    ]
  },
  "16c49e55fac2": {
    "id": "16c49e55fac2",
    "label": "4 RUE TRAS LES MURS, Nizas",
    "lat": 43.511826,
    "lng": 3.407258,
    "transactions": [
      {
        "date": "2022-10-22",
        "priceEur": 209500,
        "typeLocal": "Maison",
        "surfaceM2": 136,
        "isVefa": false
      }
    ]
  },
  "44ec45a3496c": {
    "id": "44ec45a3496c",
    "label": "7 RTE DE CISSO, Nizas",
    "lat": 43.513138,
    "lng": 3.408735,
    "transactions": [
      {
        "date": "2022-11-29",
        "priceEur": 220000,
        "typeLocal": "Maison",
        "surfaceM2": 82,
        "isVefa": false
      }
    ]
  },
  "10bf9d62187c": {
    "id": "10bf9d62187c",
    "label": "12 RUE DES MUIDS, Nizas",
    "lat": 43.51318,
    "lng": 3.407208,
    "transactions": [
      {
        "date": "2022-11-26",
        "priceEur": 79000,
        "typeLocal": "Maison",
        "surfaceM2": 107,
        "isVefa": false
      }
    ]
  },
  "76358f1d8e7d": {
    "id": "76358f1d8e7d",
    "label": "10 RUE DU MAITRE DE PRESSOIR, Nizas",
    "lat": 43.512598,
    "lng": 3.406705,
    "transactions": [
      {
        "date": "2022-12-19",
        "priceEur": 139000,
        "typeLocal": "Maison",
        "surfaceM2": 90,
        "isVefa": false
      }
    ]
  },
  "8d1bcccda74f": {
    "id": "8d1bcccda74f",
    "label": "21 RUE DES TERRASSES, Nizas",
    "lat": 43.512558,
    "lng": 3.406513,
    "transactions": [
      {
        "date": "2023-01-23",
        "priceEur": 144400,
        "typeLocal": "Maison",
        "surfaceM2": 46,
        "isVefa": false
      }
    ]
  },
  "8607246d9d1f": {
    "id": "8607246d9d1f",
    "label": "7 PLAN DU CHATEAU, Nizas",
    "lat": 43.512868,
    "lng": 3.407747,
    "transactions": [
      {
        "date": "2023-03-28",
        "priceEur": 100000,
        "typeLocal": "Maison",
        "surfaceM2": 75,
        "isVefa": false
      }
    ]
  },
  "55d89097ad19": {
    "id": "55d89097ad19",
    "label": "1 RUE DE L'EGLISE, Nizas",
    "lat": 43.512766,
    "lng": 3.407279,
    "transactions": [
      {
        "date": "2023-04-06",
        "priceEur": 40000,
        "typeLocal": "Maison",
        "surfaceM2": 40,
        "isVefa": false
      }
    ]
  },
  "3bb6cc03a223": {
    "id": "3bb6cc03a223",
    "label": "8 PL DU GRIFFE, Nizas",
    "lat": 43.512235,
    "lng": 3.407673,
    "transactions": [
      {
        "date": "2023-04-12",
        "priceEur": 205183,
        "typeLocal": "Maison",
        "surfaceM2": 92,
        "isVefa": false
      }
    ]
  },
  "66e3ad7e1b71": {
    "id": "66e3ad7e1b71",
    "label": "17 RUE DES PRAIRIES, Nizas",
    "lat": 43.512261,
    "lng": 3.406831,
    "transactions": [
      {
        "date": "2023-04-27",
        "priceEur": 35261.2,
        "typeLocal": "Maison",
        "surfaceM2": 74,
        "isVefa": false
      }
    ]
  },
  "a74542ac920b": {
    "id": "a74542ac920b",
    "label": "17 RUE DES TERRASSES, Nizas",
    "lat": 43.512652,
    "lng": 3.406579,
    "transactions": [
      {
        "date": "2023-07-04",
        "priceEur": 31950,
        "typeLocal": "Maison",
        "surfaceM2": 20,
        "isVefa": false
      }
    ]
  },
  "609b6952e06e": {
    "id": "609b6952e06e",
    "label": "19 RUE DES ECOLES, Nizas",
    "lat": 43.513629,
    "lng": 3.40836,
    "transactions": [
      {
        "date": "2023-06-22",
        "priceEur": 243000,
        "typeLocal": "Maison",
        "surfaceM2": 98,
        "isVefa": false
      }
    ]
  },
  "16ed6ccc425c": {
    "id": "16ed6ccc425c",
    "label": "17 PL DU GRIFFE, Nizas",
    "lat": 43.512464,
    "lng": 3.407227,
    "transactions": [
      {
        "date": "2023-07-25",
        "priceEur": 109500,
        "typeLocal": "Maison",
        "surfaceM2": 75,
        "isVefa": false
      }
    ]
  },
  "cb736c0a4f54": {
    "id": "cb736c0a4f54",
    "label": "8 RUE DES GLYCINES, Nizas",
    "lat": 43.512264,
    "lng": 3.407103,
    "transactions": [
      {
        "date": "2023-07-25",
        "priceEur": 84400,
        "typeLocal": "Maison",
        "surfaceM2": 50,
        "isVefa": false
      }
    ]
  },
  "94a21f7e28a6": {
    "id": "94a21f7e28a6",
    "label": "6 RUE DES GLYCINES, Nizas",
    "lat": 43.512302,
    "lng": 3.407123,
    "transactions": [
      {
        "date": "2023-12-20",
        "priceEur": 106000,
        "typeLocal": "Maison",
        "surfaceM2": 87,
        "isVefa": false
      }
    ]
  },
  "f5ae70f3610e": {
    "id": "f5ae70f3610e",
    "label": "1 RUE TRAS LES MURS, Nizas",
    "lat": 43.512006,
    "lng": 3.407181,
    "transactions": [
      {
        "date": "2024-02-01",
        "priceEur": 166100,
        "typeLocal": "Maison",
        "surfaceM2": 65,
        "isVefa": false
      }
    ]
  },
  "35df61c13d93": {
    "id": "35df61c13d93",
    "label": "5 RUE DES MUIDS, Nizas",
    "lat": 43.513032,
    "lng": 3.40694,
    "transactions": [
      {
        "date": "2024-05-30",
        "priceEur": 97650,
        "typeLocal": "Maison",
        "surfaceM2": 45,
        "isVefa": false
      }
    ]
  },
  "e6011a195cbb": {
    "id": "e6011a195cbb",
    "label": "10 RUE DES CELLIERS, Nizas",
    "lat": 43.512238,
    "lng": 3.406883,
    "transactions": [
      {
        "date": "2024-09-16",
        "priceEur": 62000,
        "typeLocal": "Maison",
        "surfaceM2": 50,
        "isVefa": false
      }
    ]
  },
  "ca771fb58ec6": {
    "id": "ca771fb58ec6",
    "label": "1 RUE DE LA MAIRIE, Nizas",
    "lat": 43.511957,
    "lng": 3.407508,
    "transactions": [
      {
        "date": "2024-09-19",
        "priceEur": 75000,
        "typeLocal": "Maison",
        "surfaceM2": 80,
        "isVefa": false
      }
    ]
  },
  "27b4cbe090cf": {
    "id": "27b4cbe090cf",
    "label": "4 PL DE LA TREILLE, Nizas",
    "lat": 43.512459,
    "lng": 3.406637,
    "transactions": [
      {
        "date": "2024-11-26",
        "priceEur": 78000,
        "typeLocal": "Maison",
        "surfaceM2": 40,
        "isVefa": false
      }
    ]
  },
  "95634cb20e7c": {
    "id": "95634cb20e7c",
    "label": "22 RUE DES PRAIRIES, Nizas",
    "lat": 43.512139,
    "lng": 3.406744,
    "transactions": [
      {
        "date": "2024-12-10",
        "priceEur": 91600,
        "typeLocal": "Maison",
        "surfaceM2": 39,
        "isVefa": false
      }
    ]
  },
  "8ecaf6681a7c": {
    "id": "8ecaf6681a7c",
    "label": "23 RUE DES PRAIRIES, Nizas",
    "lat": 43.511726,
    "lng": 3.407501,
    "transactions": [
      {
        "date": "2025-03-31",
        "priceEur": 199850,
        "typeLocal": "Maison",
        "surfaceM2": 124,
        "isVefa": false
      }
    ]
  }
}