{
  "2b74691d279b": {
    "id": "2b74691d279b",
    "label": "95 CHE DU MAS DES MARECAGES, Pézenas",
    "lat": 43.449815,
    "lng": 3.413114,
    "transactions": [
      {
        "date": "2021-08-05",
        "priceEur": 321000,
        "typeLocal": "Maison",
        "surfaceM2": 180,
        "isVefa": false
      }
    ]
  },
  "5665d4b63f88": {
    "id": "5665d4b63f88",
    "label": "9 RUE PIERRE DAVID, Pézenas",
    "lat": 43.451612,
    "lng": 3.413588,
    "transactions": [
      {
        "date": "2022-09-19",
        "priceEur": 450000,
        "typeLocal": "Maison",
        "surfaceM2": 121,
        "isVefa": false
      }
    ]
  },
  "334e7c9f11ca": {
    "id": "334e7c9f11ca",
    "label": "6 RUE JEAN VIGO, Pézenas",
    "lat": 43.452745,
    "lng": 3.409944,
    "transactions": [
      {
        "date": "2023-03-21",
        "priceEur": 504200,
        "typeLocal": "Maison",
        "surfaceM2": 147,
        "isVefa": false
      },
      {
        "date": "2023-03-21",
        "priceEur": 504200,
        "typeLocal": "Maison",
        "surfaceM2": 147,
        "isVefa": false
      }
    ]
  },
  "7cac42b68422": {
    "id": "7cac42b68422",
    "label": "399 RTE DE TOURBES, Pézenas",
    "lat": 43.451863,
    "lng": 3.407255,
    "transactions": [
      {
        "date": "2023-11-24",
        "priceEur": 410000,
        "typeLocal": "Maison",
        "surfaceM2": 89,
        "isVefa": false
      }
    ]
  },
  "d2445695ea48": {
    "id": "d2445695ea48",
    "label": "9018 RUE PAUL GUERY, Pézenas",
    "lat": 43.447587,
    "lng": 3.414274,
    "transactions": [
      {
        "date": "2023-12-22",
        "priceEur": 317000,
        "typeLocal": "Maison",
        "surfaceM2": 97,
        "isVefa": false
      }
    ]
  }
}