{
  "cb64ff358837": {
    "id": "cb64ff358837",
    "label": "105 GR GRAND RUE, Saussines",
    "lat": 43.763985,
    "lng": 4.057123,
    "transactions": [
      {
        "date": "2023-04-25",
        "priceEur": 225000,
        "typeLocal": "Maison",
        "surfaceM2": 80,
        "isVefa": false
      },
      {
        "date": "2020-10-09",
        "priceEur": 80600,
        "typeLocal": "Maison",
        "surfaceM2": 80,
        "isVefa": false
      }
    ]
  },
  "39b6111e31cd": {
    "id": "39b6111e31cd",
    "label": "82 RUE DES SOURCES, Saussines",
    "lat": 43.763824,
    "lng": 4.054541,
    "transactions": [
      {
        "date": "2021-08-03",
        "priceEur": 195000,
        "typeLocal": "Maison",
        "surfaceM2": 72,
        "isVefa": false
      }
    ]
  },
  "bc5befda3552": {
    "id": "bc5befda3552",
    "label": "29 RUE MISTRAL, Saussines",
    "lat": 43.763877,
    "lng": 4.055278,
    "transactions": [
      {
        "date": "2023-04-12",
        "priceEur": 238650,
        "typeLocal": "Maison",
        "surfaceM2": 44,
        "isVefa": false
      },
      {
        "date": "2021-12-30",
        "priceEur": 166000,
        "typeLocal": "Maison",
        "surfaceM2": 44,
        "isVefa": false
      }
    ]
  },
  "985f13b1ca15": {
    "id": "985f13b1ca15",
    "label": "67 GR GRAND RUE, Saussines",
    "lat": 43.763832,
    "lng": 4.056753,
    "transactions": [
      {
        "date": "2022-03-10",
        "priceEur": 222750,
        "typeLocal": "Maison",
        "surfaceM2": 150,
        "isVefa": false
      }
    ]
  },
  "76cfe99c431f": {
    "id": "76cfe99c431f",
    "label": "46 RUE DE L EGLISE, Saussines",
    "lat": 43.764178,
    "lng": 4.056053,
    "transactions": [
      {
        "date": "2022-06-21",
        "priceEur": 635000,
        "typeLocal": "Maison",
        "surfaceM2": 150,
        "isVefa": false
      }
    ]
  },
  "69bd98028713": {
    "id": "69bd98028713",
    "label": "232 RUE NEUVE, Saussines",
    "lat": 43.763808,
    "lng": 4.058139,
    "transactions": [
      {
        "date": "2022-07-20",
        "priceEur": 273339,
        "typeLocal": "Maison",
        "surfaceM2": 176,
        "isVefa": false
      }
    ]
  },
  "d6dea91a3af5": {
    "id": "d6dea91a3af5",
    "label": "81 AV DE SOMMIERES, Saussines",
    "lat": 43.764709,
    "lng": 4.058411,
    "transactions": [
      {
        "date": "2022-07-11",
        "priceEur": 200000,
        "typeLocal": "Maison",
        "surfaceM2": 156,
        "isVefa": false
      }
    ]
  },
  "5fb8057d0ab6": {
    "id": "5fb8057d0ab6",
    "label": "65 RUE DU MOULIN A VENT, Saussines",
    "lat": 43.763507,
    "lng": 4.057385,
    "transactions": [
      {
        "date": "2022-09-14",
        "priceEur": 645400,
        "typeLocal": "Maison",
        "surfaceM2": 170,
        "isVefa": false
      }
    ]
  },
  "d101cb75b15d": {
    "id": "d101cb75b15d",
    "label": "5014 LE VILLAGE, Saussines",
    "lat": 43.764027,
    "lng": 4.05453,
    "transactions": [
      {
        "date": "2023-01-24",
        "priceEur": 283550,
        "typeLocal": "Maison",
        "surfaceM2": 97,
        "isVefa": false
      }
    ]
  },
  "217873e309de": {
    "id": "217873e309de",
    "label": "35 AV DE BOISSERON, Saussines",
    "lat": 43.764111,
    "lng": 4.058256,
    "transactions": [
      {
        "date": "2023-09-18",
        "priceEur": 412600,
        "typeLocal": "Maison",
        "surfaceM2": 130,
        "isVefa": false
      }
    ]
  },
  "1c66d512cb21": {
    "id": "1c66d512cb21",
    "label": "46 GR GRAND RUE, Saussines",
    "lat": 43.763616,
    "lng": 4.05656,
    "transactions": [
      {
        "date": "2023-09-18",
        "priceEur": 210000,
        "typeLocal": "Maison",
        "surfaceM2": 90,
        "isVefa": false
      }
    ]
  },
  "b9008d84ebe8": {
    "id": "b9008d84ebe8",
    "label": "11 RUE DU MOULIN A VENT, Saussines",
    "lat": 43.763717,
    "lng": 4.057176,
    "transactions": [
      {
        "date": "2024-02-27",
        "priceEur": 303000,
        "typeLocal": "Maison",
        "surfaceM2": 147,
        "isVefa": false
      }
    ]
  },
  "497e69cbf828": {
    "id": "497e69cbf828",
    "label": "80 RUE DE L ARGEALAS, Saussines",
    "lat": 43.763796,
    "lng": 4.059689,
    "transactions": [
      {
        "date": "2024-03-26",
        "priceEur": 450000,
        "typeLocal": "Maison",
        "surfaceM2": 119,
        "isVefa": false
      },
      {
        "date": "2024-03-26",
        "priceEur": 450000,
        "typeLocal": "Maison",
        "surfaceM2": 119,
        "isVefa": false
      }
    ]
  },
  "0939cc1021cb": {
    "id": "0939cc1021cb",
    "label": "56 RUE MISTRAL, Saussines",
    "lat": 43.764216,
    "lng": 4.05523,
    "transactions": [
      {
        "date": "2025-01-03",
        "priceEur": 220000,
        "typeLocal": "Appartement",
        "surfaceM2": 78,
        "isVefa": false
      },
      {
        "date": "2025-01-03",
        "priceEur": 220000,
        "typeLocal": "Appartement",
        "surfaceM2": 47,
        "isVefa": false
      }
    ]
  },
  "24c33a488f7d": {
    "id": "24c33a488f7d",
    "label": "100 RUE DE L ARGEALAS, Saussines",
    "lat": 43.763958,
    "lng": 4.060338,
    "transactions": [
      {
        "date": "2025-02-27",
        "priceEur": 378910,
        "typeLocal": "Maison",
        "surfaceM2": 165,
        "isVefa": false
      },
      {
        "date": "2025-02-27",
        "priceEur": 378910,
        "typeLocal": "Maison",
        "surfaceM2": 165,
        "isVefa": false
      }
    ]
  }
}