{
  "7e28ec450d29": {
    "id": "7e28ec450d29",
    "label": "2B RUE DES ARTISTES, Colombiers",
    "lat": 43.31469,
    "lng": 3.138014,
    "transactions": [
      {
        "date": "2020-07-03",
        "priceEur": 176000,
        "typeLocal": "Maison",
        "surfaceM2": 96,
        "isVefa": false
      }
    ]
  },
  "9341fc64f1b5": {
    "id": "9341fc64f1b5",
    "label": "27 AV DE NISSAN, Colombiers",
    "lat": 43.311921,
    "lng": 3.140017,
    "transactions": [
      {
        "date": "2022-07-29",
        "priceEur": 177500,
        "typeLocal": "Maison",
        "surfaceM2": 214,
        "isVefa": false
      },
      {
        "date": "2020-08-13",
        "priceEur": 350000,
        "typeLocal": "Maison",
        "surfaceM2": 214,
        "isVefa": false
      }
    ]
  },
  "6644c91810cf": {
    "id": "6644c91810cf",
    "label": "4B RUE DES COMMERCANTS, Colombiers",
    "lat": 43.314578,
    "lng": 3.140259,
    "transactions": [
      {
        "date": "2020-08-10",
        "priceEur": 131150,
        "typeLocal": "Maison",
        "surfaceM2": 90,
        "isVefa": false
      }
    ]
  },
  "91fed8e3aee1": {
    "id": "91fed8e3aee1",
    "label": "3 RUE DE L ARCHEOLOGIE, Colombiers",
    "lat": 43.313247,
    "lng": 3.139174,
    "transactions": [
      {
        "date": "2020-09-09",
        "priceEur": 184560,
        "typeLocal": "Maison",
        "surfaceM2": 150,
        "isVefa": false
      }
    ]
  },
  "36eb65dbc6de": {
    "id": "36eb65dbc6de",
    "label": "2 RUE D ENSERUNE, Colombiers",
    "lat": 43.3133,
    "lng": 3.139279,
    "transactions": [
      {
        "date": "2020-10-22",
        "priceEur": 255380,
        "typeLocal": "Maison",
        "surfaceM2": 170,
        "isVefa": false
      }
    ]
  },
  "9581689d3449": {
    "id": "9581689d3449",
    "label": "1 RUE DES DOUCHES, Colombiers",
    "lat": 43.314867,
    "lng": 3.138075,
    "transactions": [
      {
        "date": "2024-02-16",
        "priceEur": 224000,
        "typeLocal": "Maison",
        "surfaceM2": 116,
        "isVefa": false
      },
      {
        "date": "2020-11-06",
        "priceEur": 105000,
        "typeLocal": "Maison",
        "surfaceM2": 30,
        "isVefa": false
      }
    ]
  },
  "5aca7086161e": {
    "id": "5aca7086161e",
    "label": "9 RUE DES COMMERCANTS, Colombiers",
    "lat": 43.314692,
    "lng": 3.140193,
    "transactions": [
      {
        "date": "2020-10-30",
        "priceEur": 160000,
        "typeLocal": "Maison",
        "surfaceM2": 106,
        "isVefa": false
      }
    ]
  },
  "b3b94d4d7fb5": {
    "id": "b3b94d4d7fb5",
    "label": "11 RUE DES DOUCHES, Colombiers",
    "lat": 43.315191,
    "lng": 3.137479,
    "transactions": [
      {
        "date": "2024-02-08",
        "priceEur": 205000,
        "typeLocal": "Appartement",
        "surfaceM2": 90,
        "isVefa": false
      },
      {
        "date": "2023-05-10",
        "priceEur": 251550,
        "typeLocal": "Appartement",
        "surfaceM2": 98,
        "isVefa": false
      },
      {
        "date": "2020-11-27",
        "priceEur": 157000,
        "typeLocal": "Appartement",
        "surfaceM2": 98,
        "isVefa": false
      }
    ]
  },
  "24e4d8937b49": {
    "id": "24e4d8937b49",
    "label": "9 GR GRAND RUE, Colombiers",
    "lat": 43.314488,
    "lng": 3.13911,
    "transactions": [
      {
        "date": "2025-01-03",
        "priceEur": 108100,
        "typeLocal": "Maison",
        "surfaceM2": 100,
        "isVefa": false
      },
      {
        "date": "2020-12-10",
        "priceEur": 65000,
        "typeLocal": "Maison",
        "surfaceM2": 100,
        "isVefa": false
      }
    ]
  },
  "f7a652b71e87": {
    "id": "f7a652b71e87",
    "label": "4 RUE DES ACACIAS, Colombiers",
    "lat": 43.313517,
    "lng": 3.13862,
    "transactions": [
      {
        "date": "2020-12-11",
        "priceEur": 185750,
        "typeLocal": "Maison",
        "surfaceM2": 200,
        "isVefa": false
      }
    ]
  },
  "ca29125a85e1": {
    "id": "ca29125a85e1",
    "label": "4 GR GRAND RUE, Colombiers",
    "lat": 43.31429,
    "lng": 3.139068,
    "transactions": [
      {
        "date": "2021-01-08",
        "priceEur": 150000,
        "typeLocal": "Maison",
        "surfaceM2": 150,
        "isVefa": false
      }
    ]
  },
  "b9a5d95c9cba": {
    "id": "b9a5d95c9cba",
    "label": "1 RUE DES ACACIAS, Colombiers",
    "lat": 43.313104,
    "lng": 3.138076,
    "transactions": [
      {
        "date": "2021-01-13",
        "priceEur": 425750,
        "typeLocal": "Maison",
        "surfaceM2": 150,
        "isVefa": false
      }
    ]
  },
  "b5da3af29d00": {
    "id": "b5da3af29d00",
    "label": "13 RUE DE L EGLISE, Colombiers",
    "lat": 43.314216,
    "lng": 3.139173,
    "transactions": [
      {
        "date": "2021-02-22",
        "priceEur": 84850,
        "typeLocal": "Maison",
        "surfaceM2": 75,
        "isVefa": false
      }
    ]
  },
  "de77aa4521ee": {
    "id": "de77aa4521ee",
    "label": "1 RUE DU CHATEAU, Colombiers",
    "lat": 43.314948,
    "lng": 3.140339,
    "transactions": [
      {
        "date": "2021-02-26",
        "priceEur": 405000,
        "typeLocal": "Maison",
        "surfaceM2": 150,
        "isVefa": false
      }
    ]
  },
  "1b5dc6d283e3": {
    "id": "1b5dc6d283e3",
    "label": "1 RUE DU CARREAU, Colombiers",
    "lat": 43.31482,
    "lng": 3.138906,
    "transactions": [
      {
        "date": "2021-03-25",
        "priceEur": 100000,
        "typeLocal": "Maison",
        "surfaceM2": 119,
        "isVefa": false
      }
    ]
  },
  "f077df34f8da": {
    "id": "f077df34f8da",
    "label": "5 RUE DE LA VITICULTURE, Colombiers",
    "lat": 43.313985,
    "lng": 3.138893,
    "transactions": [
      {
        "date": "2021-05-03",
        "priceEur": 108036.36,
        "typeLocal": "Maison",
        "surfaceM2": 180,
        "isVefa": false
      }
    ]
  },
  "bf934191feec": {
    "id": "bf934191feec",
    "label": "12 RUE DU SOLEIL LEVANT, Colombiers",
    "lat": 43.311346,
    "lng": 3.140291,
    "transactions": [
      {
        "date": "2021-05-12",
        "priceEur": 414530,
        "typeLocal": "Maison",
        "surfaceM2": 145,
        "isVefa": false
      }
    ]
  },
  "e9ac2c8b0a9c": {
    "id": "e9ac2c8b0a9c",
    "label": "5 RUE DU PETIT CHATEAU, Colombiers",
    "lat": 43.313586,
    "lng": 3.139941,
    "transactions": [
      {
        "date": "2021-06-30",
        "priceEur": 45000,
        "typeLocal": "Maison",
        "surfaceM2": 180,
        "isVefa": false
      }
    ]
  },
  "c48825aa6f4f": {
    "id": "c48825aa6f4f",
    "label": "3 RUE DE L EGLISE, Colombiers",
    "lat": 43.314345,
    "lng": 3.138698,
    "transactions": [
      {
        "date": "2021-06-28",
        "priceEur": 174000,
        "typeLocal": "Maison",
        "surfaceM2": 92,
        "isVefa": false
      }
    ]
  },
  "04a655819c38": {
    "id": "04a655819c38",
    "label": "6 RUE DES ARTISTES, Colombiers",
    "lat": 43.314899,
    "lng": 3.137558,
    "transactions": [
      {
        "date": "2021-07-15",
        "priceEur": 187000,
        "typeLocal": "Maison",
        "surfaceM2": 192,
        "isVefa": false
      }
    ]
  },
  "cb083934db25": {
    "id": "cb083934db25",
    "label": "16 RUE DES ANCIENS COMBATTANTS, Colombiers",
    "lat": 43.314055,
    "lng": 3.137984,
    "transactions": [
      {
        "date": "2022-09-19",
        "priceEur": 225000,
        "typeLocal": "Maison",
        "surfaceM2": 90,
        "isVefa": false
      },
      {
        "date": "2021-09-08",
        "priceEur": 62000,
        "typeLocal": "Maison",
        "surfaceM2": 65,
        "isVefa": false
      }
    ]
  },
  "296f6ffebdaf": {
    "id": "296f6ffebdaf",
    "label": "2 RUE DE LA GRIFFE, Colombiers",
    "lat": 43.313553,
    "lng": 3.139739,
    "transactions": [
      {
        "date": "2021-09-09",
        "priceEur": 124770,
        "typeLocal": "Maison",
        "surfaceM2": 67,
        "isVefa": false
      }
    ]
  },
  "aaa5b8880571": {
    "id": "aaa5b8880571",
    "label": "4 AV DE NISSAN, Colombiers",
    "lat": 43.313785,
    "lng": 3.139184,
    "transactions": [
      {
        "date": "2021-10-08",
        "priceEur": 259000,
        "typeLocal": "Appartement",
        "surfaceM2": 60,
        "isVefa": false
      },
      {
        "date": "2021-10-08",
        "priceEur": 259000,
        "typeLocal": "Maison",
        "surfaceM2": 94,
        "isVefa": false
      },
      {
        "date": "2021-10-08",
        "priceEur": 259000,
        "typeLocal": "Appartement",
        "surfaceM2": 80,
        "isVefa": false
      }
    ]
  },
  "8b3f9de01a6b": {
    "id": "8b3f9de01a6b",
    "label": "12 RUE DES ANCIENS COMBATTANTS, Colombiers",
    "lat": 43.314172,
    "lng": 3.138084,
    "transactions": [
      {
        "date": "2024-07-23",
        "priceEur": 104000,
        "typeLocal": "Maison",
        "surfaceM2": 58,
        "isVefa": false
      },
      {
        "date": "2021-10-30",
        "priceEur": 35000,
        "typeLocal": "Maison",
        "surfaceM2": 58,
        "isVefa": false
      }
    ]
  },
  "6a54e45f8338": {
    "id": "6a54e45f8338",
    "label": "9 RUE DES ARTISTES, Colombiers",
    "lat": 43.314871,
    "lng": 3.137122,
    "transactions": [
      {
        "date": "2021-11-16",
        "priceEur": 80000,
        "typeLocal": "Appartement",
        "surfaceM2": 100,
        "isVefa": false
      },
      {
        "date": "2021-11-16",
        "priceEur": 80000,
        "typeLocal": "Appartement",
        "surfaceM2": 100,
        "isVefa": false
      }
    ]
  },
  "64dadc21f7a7": {
    "id": "64dadc21f7a7",
    "label": "9 RUE DU CERS, Colombiers",
    "lat": 43.309749,
    "lng": 3.140157,
    "transactions": [
      {
        "date": "2021-11-17",
        "priceEur": 424000,
        "typeLocal": "Maison",
        "surfaceM2": 127,
        "isVefa": false
      },
      {
        "date": "2021-11-17",
        "priceEur": 424000,
        "typeLocal": "Maison",
        "surfaceM2": 127,
        "isVefa": false
      }
    ]
  },
  "7dd994c12f87": {
    "id": "7dd994c12f87",
    "label": "10 RUE DU MISTRAL, Colombiers",
    "lat": 43.309376,
    "lng": 3.140424,
    "transactions": [
      {
        "date": "2021-12-01",
        "priceEur": 390000,
        "typeLocal": "Maison",
        "surfaceM2": 112,
        "isVefa": false
      }
    ]
  },
  "2ba20adb251a": {
    "id": "2ba20adb251a",
    "label": "3 AV DE BEZIERS, Colombiers",
    "lat": 43.314097,
    "lng": 3.139586,
    "transactions": [
      {
        "date": "2021-12-27",
        "priceEur": 40000,
        "typeLocal": "Maison",
        "surfaceM2": 50,
        "isVefa": false
      }
    ]
  },
  "cb46eb6d9ac9": {
    "id": "cb46eb6d9ac9",
    "label": "3 RUE DU BON VIN, Colombiers",
    "lat": 43.314219,
    "lng": 3.14037,
    "transactions": [
      {
        "date": "2021-12-16",
        "priceEur": 84050,
        "typeLocal": "Maison",
        "surfaceM2": 100,
        "isVefa": false
      }
    ]
  },
  "17aeb64a5bfe": {
    "id": "17aeb64a5bfe",
    "label": "8 RUE DE LA VITICULTURE, Colombiers",
    "lat": 43.313908,
    "lng": 3.138715,
    "transactions": [
      {
        "date": "2021-12-23",
        "priceEur": 154000,
        "typeLocal": "Maison",
        "surfaceM2": 100,
        "isVefa": false
      }
    ]
  },
  "5eb104511587": {
    "id": "5eb104511587",
    "label": "2 RUE DES ANCIENS COMBATTANTS, Colombiers",
    "lat": 43.31433,
    "lng": 3.138371,
    "transactions": [
      {
        "date": "2022-02-16",
        "priceEur": 203000,
        "typeLocal": "Maison",
        "surfaceM2": 50,
        "isVefa": false
      },
      {
        "date": "2022-02-16",
        "priceEur": 203000,
        "typeLocal": "Maison",
        "surfaceM2": 230,
        "isVefa": false
      }
    ]
  },
  "3cc97d54969f": {
    "id": "3cc97d54969f",
    "label": "1 RUE DE LA TREILLE, Colombiers",
    "lat": 43.31492,
    "lng": 3.139284,
    "transactions": [
      {
        "date": "2022-03-14",
        "priceEur": 65000,
        "typeLocal": "Appartement",
        "surfaceM2": 50,
        "isVefa": false
      }
    ]
  },
  "0f21dd13252a": {
    "id": "0f21dd13252a",
    "label": "8270 RUE DE L ARCHEOLOGIE, Colombiers",
    "lat": 43.313307,
    "lng": 3.139077,
    "transactions": [
      {
        "date": "2022-03-08",
        "priceEur": 169000,
        "typeLocal": "Maison",
        "surfaceM2": 66,
        "isVefa": false
      }
    ]
  },
  "7b07cf69503d": {
    "id": "7b07cf69503d",
    "label": "5 RUE DE LA GRIFFE, Colombiers",
    "lat": 43.31366,
    "lng": 3.139739,
    "transactions": [
      {
        "date": "2022-05-20",
        "priceEur": 126000,
        "typeLocal": "Maison",
        "surfaceM2": 30,
        "isVefa": false
      }
    ]
  },
  "46967832614b": {
    "id": "46967832614b",
    "label": "5 RUE DE L EGLISE, Colombiers",
    "lat": 43.314318,
    "lng": 3.138781,
    "transactions": [
      {
        "date": "2024-07-19",
        "priceEur": 80000,
        "typeLocal": "Maison",
        "surfaceM2": 40,
        "isVefa": false
      },
      {
        "date": "2022-05-25",
        "priceEur": 69400,
        "typeLocal": "Maison",
        "surfaceM2": 40,
        "isVefa": false
      }
    ]
  },
  "0a066466f527": {
    "id": "0a066466f527",
    "label": "9 RUE DES DOUCHES, Colombiers",
    "lat": 43.315146,
    "lng": 3.137579,
    "transactions": [
      {
        "date": "2022-06-22",
        "priceEur": 357400,
        "typeLocal": "Maison",
        "surfaceM2": 140,
        "isVefa": false
      }
    ]
  },
  "6e5a643f923a": {
    "id": "6e5a643f923a",
    "label": "26 AV DE NISSAN, Colombiers",
    "lat": 43.313027,
    "lng": 3.139823,
    "transactions": [
      {
        "date": "2022-06-22",
        "priceEur": 197870,
        "typeLocal": "Appartement",
        "surfaceM2": 80,
        "isVefa": false
      },
      {
        "date": "2022-06-22",
        "priceEur": 197870,
        "typeLocal": "Appartement",
        "surfaceM2": 60,
        "isVefa": false
      }
    ]
  },
  "9b46773d9dcd": {
    "id": "9b46773d9dcd",
    "label": "4 RUE DU BEL AIR, Colombiers",
    "lat": 43.314596,
    "lng": 3.137325,
    "transactions": [
      {
        "date": "2022-09-20",
        "priceEur": 242090,
        "typeLocal": "Maison",
        "surfaceM2": 100,
        "isVefa": false
      }
    ]
  },
  "398c9207936f": {
    "id": "398c9207936f",
    "label": "15 GR GRAND RUE, Colombiers",
    "lat": 43.314419,
    "lng": 3.139226,
    "transactions": [
      {
        "date": "2022-09-30",
        "priceEur": 113100,
        "typeLocal": "Maison",
        "surfaceM2": 30,
        "isVefa": false
      }
    ]
  },
  "510845b97d13": {
    "id": "510845b97d13",
    "label": "18 RUE DE LA TRAMONTANE, Colombiers",
    "lat": 43.309599,
    "lng": 3.141006,
    "transactions": [
      {
        "date": "2022-10-12",
        "priceEur": 303607,
        "typeLocal": "Maison",
        "surfaceM2": 87,
        "isVefa": false
      }
    ]
  },
  "f25156cf3c95": {
    "id": "f25156cf3c95",
    "label": "1 RUE DU BON VIN, Colombiers",
    "lat": 43.314189,
    "lng": 3.140311,
    "transactions": [
      {
        "date": "2022-10-11",
        "priceEur": 202000,
        "typeLocal": "Appartement",
        "surfaceM2": 50,
        "isVefa": false
      },
      {
        "date": "2022-10-11",
        "priceEur": 202000,
        "typeLocal": "Appartement",
        "surfaceM2": 50,
        "isVefa": false
      },
      {
        "date": "2022-10-11",
        "priceEur": 202000,
        "typeLocal": "Appartement",
        "surfaceM2": 45,
        "isVefa": false
      }
    ]
  },
  "11625146b5e9": {
    "id": "11625146b5e9",
    "label": "3 RUE DU REPOS, Colombiers",
    "lat": 43.31379,
    "lng": 3.137706,
    "transactions": [
      {
        "date": "2022-11-02",
        "priceEur": 361450,
        "typeLocal": "Maison",
        "surfaceM2": 175,
        "isVefa": false
      }
    ]
  },
  "e3055d61b090": {
    "id": "e3055d61b090",
    "label": "3 RUE DE LA VITICULTURE, Colombiers",
    "lat": 43.314066,
    "lng": 3.138657,
    "transactions": [
      {
        "date": "2022-11-10",
        "priceEur": 70000,
        "typeLocal": "Maison",
        "surfaceM2": 110,
        "isVefa": false
      }
    ]
  },
  "596e36ea10de": {
    "id": "596e36ea10de",
    "label": "3 RUE DU MALPAS, Colombiers",
    "lat": 43.311718,
    "lng": 3.137419,
    "transactions": [
      {
        "date": "2022-12-12",
        "priceEur": 308000,
        "typeLocal": "Maison",
        "surfaceM2": 89,
        "isVefa": false
      }
    ]
  },
  "bb9d5d094246": {
    "id": "bb9d5d094246",
    "label": "3B RUE DU BEL AIR, Colombiers",
    "lat": 43.314446,
    "lng": 3.137035,
    "transactions": [
      {
        "date": "2022-12-13",
        "priceEur": 160000,
        "typeLocal": "Maison",
        "surfaceM2": 64,
        "isVefa": false
      }
    ]
  },
  "06ef1b949598": {
    "id": "06ef1b949598",
    "label": "5266 LE VILLAGE, Colombiers",
    "lat": 43.314408,
    "lng": 3.139133,
    "transactions": [
      {
        "date": "2022-12-30",
        "priceEur": 55100,
        "typeLocal": "Maison",
        "surfaceM2": 32,
        "isVefa": false
      }
    ]
  },
  "4b27919dd14a": {
    "id": "4b27919dd14a",
    "label": "10 RUE DES COMMERCANTS, Colombiers",
    "lat": 43.314539,
    "lng": 3.140549,
    "transactions": [
      {
        "date": "2022-12-20",
        "priceEur": 92000,
        "typeLocal": "Maison",
        "surfaceM2": 55,
        "isVefa": false
      }
    ]
  },
  "2be326051643": {
    "id": "2be326051643",
    "label": "2 RUE DES JARDINS, Colombiers",
    "lat": 43.312608,
    "lng": 3.138347,
    "transactions": [
      {
        "date": "2023-01-05",
        "priceEur": 280090,
        "typeLocal": "Maison",
        "surfaceM2": 120,
        "isVefa": false
      }
    ]
  },
  "d0ff7c8c1b84": {
    "id": "d0ff7c8c1b84",
    "label": "17 RUE DE LA VITICULTURE, Colombiers",
    "lat": 43.313389,
    "lng": 3.139444,
    "transactions": [
      {
        "date": "2023-03-06",
        "priceEur": 178010,
        "typeLocal": "Appartement",
        "surfaceM2": 70,
        "isVefa": false
      },
      {
        "date": "2023-03-06",
        "priceEur": 178010,
        "typeLocal": "Appartement",
        "surfaceM2": 91,
        "isVefa": false
      }
    ]
  },
  "6326c4cb3c6d": {
    "id": "6326c4cb3c6d",
    "label": "3 RUE DU CERS, Colombiers",
    "lat": 43.310494,
    "lng": 3.140385,
    "transactions": [
      {
        "date": "2023-04-11",
        "priceEur": 326560,
        "typeLocal": "Maison",
        "surfaceM2": 110,
        "isVefa": false
      },
      {
        "date": "2023-04-11",
        "priceEur": 326560,
        "typeLocal": "Maison",
        "surfaceM2": 110,
        "isVefa": false
      }
    ]
  },
  "ca23636f1882": {
    "id": "ca23636f1882",
    "label": "8 RUE DES ACACIAS, Colombiers",
    "lat": 43.313347,
    "lng": 3.138177,
    "transactions": [
      {
        "date": "2023-05-24",
        "priceEur": 358770,
        "typeLocal": "Maison",
        "surfaceM2": 160,
        "isVefa": false
      }
    ]
  },
  "6046dbfc64bd": {
    "id": "6046dbfc64bd",
    "label": "3 RUE DES COMMERCANTS, Colombiers",
    "lat": 43.31466,
    "lng": 3.140027,
    "transactions": [
      {
        "date": "2023-07-12",
        "priceEur": 80000,
        "typeLocal": "Maison",
        "surfaceM2": 40,
        "isVefa": false
      },
      {
        "date": "2023-07-12",
        "priceEur": 80000,
        "typeLocal": "Maison",
        "surfaceM2": 66,
        "isVefa": false
      }
    ]
  },
  "66a7638b31d4": {
    "id": "66a7638b31d4",
    "label": "2 RUE DES ALIZES, Colombiers",
    "lat": 43.309357,
    "lng": 3.140857,
    "transactions": [
      {
        "date": "2023-07-17",
        "priceEur": 438000,
        "typeLocal": "Maison",
        "surfaceM2": 133,
        "isVefa": false
      }
    ]
  },
  "d19f92dc3a14": {
    "id": "d19f92dc3a14",
    "label": "3 RUE DE LA GRIFFE, Colombiers",
    "lat": 43.313653,
    "lng": 3.139678,
    "transactions": [
      {
        "date": "2023-08-31",
        "priceEur": 93000,
        "typeLocal": "Maison",
        "surfaceM2": 70,
        "isVefa": false
      }
    ]
  },
  "815258df32f2": {
    "id": "815258df32f2",
    "label": "3 RUE DE LA JUSTICE, Colombiers",
    "lat": 43.313942,
    "lng": 3.138339,
    "transactions": [
      {
        "date": "2023-09-15",
        "priceEur": 208100,
        "typeLocal": "Maison",
        "surfaceM2": 80,
        "isVefa": false
      }
    ]
  },
  "602346a8aba0": {
    "id": "602346a8aba0",
    "label": "2 RUE DE LA PAIX, Colombiers",
    "lat": 43.314367,
    "lng": 3.140186,
    "transactions": [
      {
        "date": "2023-11-24",
        "priceEur": 53000,
        "typeLocal": "Maison",
        "surfaceM2": 25,
        "isVefa": false
      }
    ]
  },
  "8c8f12c1790c": {
    "id": "8c8f12c1790c",
    "label": "1 RUE DE L ARCHEOLOGIE, Colombiers",
    "lat": 43.313411,
    "lng": 3.138925,
    "transactions": [
      {
        "date": "2024-03-12",
        "priceEur": 50000,
        "typeLocal": "Maison",
        "surfaceM2": 200,
        "isVefa": false
      }
    ]
  },
  "d01578c1b255": {
    "id": "d01578c1b255",
    "label": "4 RUE DE LA PAIX, Colombiers",
    "lat": 43.314331,
    "lng": 3.140179,
    "transactions": [
      {
        "date": "2024-10-22",
        "priceEur": 237000,
        "typeLocal": "Appartement",
        "surfaceM2": 153,
        "isVefa": false
      }
    ]
  },
  "b1e83fda7a35": {
    "id": "b1e83fda7a35",
    "label": "5140 LE VILLAGE, Colombiers",
    "lat": 43.314822,
    "lng": 3.138173,
    "transactions": [
      {
        "date": "2024-11-29",
        "priceEur": 188540,
        "typeLocal": "Maison",
        "surfaceM2": 90,
        "isVefa": false
      }
    ]
  },
  "8a016bbe29fc": {
    "id": "8a016bbe29fc",
    "label": "7 RUE DU SOLEIL LEVANT, Colombiers",
    "lat": 43.310911,
    "lng": 3.141073,
    "transactions": [
      {
        "date": "2024-11-26",
        "priceEur": 290200,
        "typeLocal": "Maison",
        "surfaceM2": 93,
        "isVefa": false
      }
    ]
  },
  "89ceb7ff40ed": {
    "id": "89ceb7ff40ed",
    "label": "6 RUE DES OISEAUX, Colombiers",
    "lat": 43.314331,
    "lng": 3.140179,
    "transactions": [
      {
        "date": "2025-01-28",
        "priceEur": 82240,
        "typeLocal": "Appartement",
        "surfaceM2": 43,
        "isVefa": false
      }
    ]
  },
  "c56a28956055": {
    "id": "c56a28956055",
    "label": "11 RUE DU SOLEIL LEVANT, Colombiers",
    "lat": 43.310946,
    "lng": 3.14057,
    "transactions": [
      {
        "date": "2025-02-07",
        "priceEur": 281060,
        "typeLocal": "Maison",
        "surfaceM2": 101,
        "isVefa": false
      }
    ]
  },
  "0c11fe8fae2d": {
    "id": "0c11fe8fae2d",
    "label": "6 RUE DU PETIT CHATEAU, Colombiers",
    "lat": 43.313483,
    "lng": 3.139788,
    "transactions": [
      {
        "date": "2025-03-06",
        "priceEur": 92300,
        "typeLocal": "Maison",
        "surfaceM2": 22,
        "isVefa": false
      }
    ]
  },
  "d1a513babad8": {
    "id": "d1a513babad8",
    "label": "14 AV DE NISSAN, Colombiers",
    "lat": 43.313507,
    "lng": 3.139477,
    "transactions": [
      {
        "date": "2025-03-24",
        "priceEur": 75000,
        "typeLocal": "Maison",
        "surfaceM2": 80,
        "isVefa": false
      }
    ]
  },
  "7a23925b5050": {
    "id": "7a23925b5050",
    "label": "2 RUE DU PRESBYTERE, Colombiers",
    "lat": 43.314508,
    "lng": 3.138867,
    "transactions": [
      {
        "date": "2025-02-24",
        "priceEur": 80000,
        "typeLocal": "Maison",
        "surfaceM2": 70,
        "isVefa": false
      }
    ]
  },
  "f856c5f6c8d5": {
    "id": "f856c5f6c8d5",
    "label": "9 RUE DE LA GRIFFE, Colombiers",
    "lat": 43.313679,
    "lng": 3.139845,
    "transactions": [
      {
        "date": "2025-04-23",
        "priceEur": 156090,
        "typeLocal": "Maison",
        "surfaceM2": 70,
        "isVefa": false
      }
    ]
  },
  "5cc6c018cb1f": {
    "id": "5cc6c018cb1f",
    "label": "17 RUE D ENSERUNE, Colombiers",
    "lat": 43.312172,
    "lng": 3.137507,
    "transactions": [
      {
        "date": "2025-06-11",
        "priceEur": 210000,
        "typeLocal": "Maison",
        "surfaceM2": 70,
        "isVefa": false
      }
    ]
  }
}