{
  "4737b6035671": {
    "id": "4737b6035671",
    "label": "19 AV DU PARC, Sainghin-en-Mélantois",
    "lat": 50.592379,
    "lng": 3.163364,
    "transactions": [
      {
        "date": "2021-02-08",
        "priceEur": 500000,
        "typeLocal": "Maison",
        "surfaceM2": 135,
        "isVefa": false
      }
    ]
  },
  "677fc2360148": {
    "id": "677fc2360148",
    "label": "46 ALL DES CHENES, Sainghin-en-Mélantois",
    "lat": 50.5908,
    "lng": 3.159298,
    "transactions": [
      {
        "date": "2021-08-30",
        "priceEur": 749710,
        "typeLocal": "Maison",
        "surfaceM2": 169,
        "isVefa": false
      }
    ]
  },
  "584ad211381a": {
    "id": "584ad211381a",
    "label": "8 AV DU PARC, Sainghin-en-Mélantois",
    "lat": 50.593271,
    "lng": 3.163145,
    "transactions": [
      {
        "date": "2022-01-12",
        "priceEur": 470000,
        "typeLocal": "Maison",
        "surfaceM2": 96,
        "isVefa": false
      }
    ]
  },
  "4b4d87060dd3": {
    "id": "4b4d87060dd3",
    "label": "99 ALL DU VERGER, Sainghin-en-Mélantois",
    "lat": 50.591066,
    "lng": 3.160635,
    "transactions": [
      {
        "date": "2022-07-05",
        "priceEur": 342500,
        "typeLocal": "Maison",
        "surfaceM2": 87,
        "isVefa": false
      }
    ]
  },
  "2d84e41b2be7": {
    "id": "2d84e41b2be7",
    "label": "174D RUE DU GRAND SAINGHIN, Sainghin-en-Mélantois",
    "lat": 50.591995,
    "lng": 3.15584,
    "transactions": [
      {
        "date": "2022-09-21",
        "priceEur": 562000,
        "typeLocal": "Maison",
        "surfaceM2": 142,
        "isVefa": false
      }
    ]
  },
  "ec96da26fdda": {
    "id": "ec96da26fdda",
    "label": "370 RUE DU GRAND SAINGHIN, Sainghin-en-Mélantois",
    "lat": 50.592906,
    "lng": 3.157208,
    "transactions": [
      {
        "date": "2024-01-15",
        "priceEur": 329800,
        "typeLocal": "Maison",
        "surfaceM2": 63,
        "isVefa": false
      }
    ]
  },
  "d7928d5cbd26": {
    "id": "d7928d5cbd26",
    "label": "2390 RUE DE LILLE, Sainghin-en-Mélantois",
    "lat": 50.59035,
    "lng": 3.156161,
    "transactions": [
      {
        "date": "2024-02-23",
        "priceEur": 217000,
        "typeLocal": "Appartement",
        "surfaceM2": 35,
        "isVefa": false
      },
      {
        "date": "2024-02-23",
        "priceEur": 217000,
        "typeLocal": "Appartement",
        "surfaceM2": 48,
        "isVefa": false
      }
    ]
  },
  "2e299098d67a": {
    "id": "2e299098d67a",
    "label": "86 ALL DU VERGER, Sainghin-en-Mélantois",
    "lat": 50.591408,
    "lng": 3.160959,
    "transactions": [
      {
        "date": "2024-10-11",
        "priceEur": 245730,
        "typeLocal": "Appartement",
        "surfaceM2": 72,
        "isVefa": false
      }
    ]
  },
  "082f31effc10": {
    "id": "082f31effc10",
    "label": "18 AV DU PARC, Sainghin-en-Mélantois",
    "lat": 50.592511,
    "lng": 3.16247,
    "transactions": [
      {
        "date": "2024-10-16",
        "priceEur": 628900,
        "typeLocal": "Maison",
        "surfaceM2": 176,
        "isVefa": false
      }
    ]
  },
  "8391657a665c": {
    "id": "8391657a665c",
    "label": "2 ALL DES CHAMPS, Sainghin-en-Mélantois",
    "lat": 50.59411,
    "lng": 3.164058,
    "transactions": [
      {
        "date": "2025-04-29",
        "priceEur": 372000,
        "typeLocal": "Maison",
        "surfaceM2": 109,
        "isVefa": false
      }
    ]
  }
}