{
  "4a75058141d6": {
    "id": "4a75058141d6",
    "label": "10 RUE POINCARE, Villers-Guislain",
    "lat": 50.03916,
    "lng": 3.153362,
    "transactions": [
      {
        "date": "2020-07-21",
        "priceEur": 138950,
        "typeLocal": "Maison",
        "surfaceM2": 120,
        "isVefa": false
      }
    ]
  },
  "579fcbb8404a": {
    "id": "579fcbb8404a",
    "label": "5 RUE LEDOUX, Villers-Guislain",
    "lat": 50.041264,
    "lng": 3.154964,
    "transactions": [
      {
        "date": "2020-09-11",
        "priceEur": 105000,
        "typeLocal": "Maison",
        "surfaceM2": 172,
        "isVefa": false
      }
    ]
  },
  "2542a48fa32d": {
    "id": "2542a48fa32d",
    "label": "14 RUE DE LA SOMME, Villers-Guislain",
    "lat": 50.038647,
    "lng": 3.154748,
    "transactions": [
      {
        "date": "2022-03-08",
        "priceEur": 235000,
        "typeLocal": "Maison",
        "surfaceM2": 170,
        "isVefa": false
      },
      {
        "date": "2020-09-24",
        "priceEur": 190000,
        "typeLocal": "Maison",
        "surfaceM2": 170,
        "isVefa": false
      }
    ]
  },
  "c2263068feed": {
    "id": "c2263068feed",
    "label": "12 RUE DE LA SOMME, Villers-Guislain",
    "lat": 50.038834,
    "lng": 3.154868,
    "transactions": [
      {
        "date": "2020-10-09",
        "priceEur": 110000,
        "typeLocal": "Maison",
        "surfaceM2": 75,
        "isVefa": false
      }
    ]
  },
  "32fc2ee282f2": {
    "id": "32fc2ee282f2",
    "label": "10 RUE DE LA SOMME, Villers-Guislain",
    "lat": 50.039029,
    "lng": 3.155007,
    "transactions": [
      {
        "date": "2020-10-22",
        "priceEur": 45000,
        "typeLocal": "Maison",
        "surfaceM2": 84,
        "isVefa": false
      }
    ]
  },
  "77877e3c28d4": {
    "id": "77877e3c28d4",
    "label": "13 RUE LEDOUX, Villers-Guislain",
    "lat": 50.04252,
    "lng": 3.154957,
    "transactions": [
      {
        "date": "2021-01-19",
        "priceEur": 181830,
        "typeLocal": "Maison",
        "surfaceM2": 119,
        "isVefa": false
      }
    ]
  },
  "355d98bb27fd": {
    "id": "355d98bb27fd",
    "label": "9E RUE LEDOUX, Villers-Guislain",
    "lat": 50.042094,
    "lng": 3.155027,
    "transactions": [
      {
        "date": "2021-04-30",
        "priceEur": 185600,
        "typeLocal": "Maison",
        "surfaceM2": 96,
        "isVefa": false
      }
    ]
  },
  "082dd33e0244": {
    "id": "082dd33e0244",
    "label": "11 RUE LEDOUX, Villers-Guislain",
    "lat": 50.042306,
    "lng": 3.154942,
    "transactions": [
      {
        "date": "2021-05-17",
        "priceEur": 121800,
        "typeLocal": "Maison",
        "surfaceM2": 86,
        "isVefa": false
      }
    ]
  },
  "34d0ad14bf2e": {
    "id": "34d0ad14bf2e",
    "label": "2 RUE JEANNE D ARC, Villers-Guislain",
    "lat": 50.041412,
    "lng": 3.15588,
    "transactions": [
      {
        "date": "2021-06-21",
        "priceEur": 90000,
        "typeLocal": "Maison",
        "surfaceM2": 90,
        "isVefa": false
      }
    ]
  },
  "77b19060443f": {
    "id": "77b19060443f",
    "label": "11 RUE DES ANCIENS COMBATTANTS, Villers-Guislain",
    "lat": 50.03664,
    "lng": 3.15582,
    "transactions": [
      {
        "date": "2021-07-09",
        "priceEur": 70000,
        "typeLocal": "Maison",
        "surfaceM2": 126,
        "isVefa": false
      }
    ]
  },
  "8ad6bd26a06b": {
    "id": "8ad6bd26a06b",
    "label": "29B RUE DE LA SOMME, Villers-Guislain",
    "lat": 50.03672,
    "lng": 3.153424,
    "transactions": [
      {
        "date": "2021-11-10",
        "priceEur": 210000,
        "typeLocal": "Maison",
        "surfaceM2": 131,
        "isVefa": false
      }
    ]
  },
  "e7d7ac1bde97": {
    "id": "e7d7ac1bde97",
    "label": "4 RUE JULES FERRY, Villers-Guislain",
    "lat": 50.039484,
    "lng": 3.15804,
    "transactions": [
      {
        "date": "2022-02-11",
        "priceEur": 118000,
        "typeLocal": "Maison",
        "surfaceM2": 60,
        "isVefa": false
      }
    ]
  },
  "c01d184d0d57": {
    "id": "c01d184d0d57",
    "label": "35 RUE DE LA SOMME, Villers-Guislain",
    "lat": 50.036279,
    "lng": 3.15326,
    "transactions": [
      {
        "date": "2022-05-16",
        "priceEur": 35000,
        "typeLocal": "Maison",
        "surfaceM2": 84,
        "isVefa": false
      }
    ]
  },
  "de3c279cf3b9": {
    "id": "de3c279cf3b9",
    "label": "3 RUE DE LA MARNE, Villers-Guislain",
    "lat": 50.039957,
    "lng": 3.154298,
    "transactions": [
      {
        "date": "2022-09-16",
        "priceEur": 50000,
        "typeLocal": "Maison",
        "surfaceM2": 83,
        "isVefa": false
      }
    ]
  },
  "a2fef605026e": {
    "id": "a2fef605026e",
    "label": "16 RUE JULES FERRY, Villers-Guislain",
    "lat": 50.040607,
    "lng": 3.159541,
    "transactions": [
      {
        "date": "2022-11-15",
        "priceEur": 85000,
        "typeLocal": "Maison",
        "surfaceM2": 83,
        "isVefa": false
      }
    ]
  },
  "f561455093ff": {
    "id": "f561455093ff",
    "label": "24 RUE DE LA SOMME, Villers-Guislain",
    "lat": 50.037754,
    "lng": 3.153936,
    "transactions": [
      {
        "date": "2023-03-31",
        "priceEur": 187000,
        "typeLocal": "Maison",
        "surfaceM2": 92,
        "isVefa": false
      }
    ]
  },
  "b8af91bf6698": {
    "id": "b8af91bf6698",
    "label": "7 RUE VITTE, Villers-Guislain",
    "lat": 50.04043,
    "lng": 3.157389,
    "transactions": [
      {
        "date": "2024-05-24",
        "priceEur": 185000,
        "typeLocal": "Maison",
        "surfaceM2": 160,
        "isVefa": false
      }
    ]
  },
  "01224c8a1c8b": {
    "id": "01224c8a1c8b",
    "label": "5 RUE DES ANCIENS COMBATTANTS, Villers-Guislain",
    "lat": 50.036942,
    "lng": 3.154962,
    "transactions": [
      {
        "date": "2024-11-28",
        "priceEur": 28000,
        "typeLocal": "Maison",
        "surfaceM2": 70,
        "isVefa": false
      }
    ]
  },
  "bc01a238f178": {
    "id": "bc01a238f178",
    "label": "8B RUE DU COLONEL NICOL, Villers-Guislain",
    "lat": 50.041626,
    "lng": 3.157843,
    "transactions": [
      {
        "date": "2024-12-10",
        "priceEur": 125000,
        "typeLocal": "Maison",
        "surfaceM2": 90,
        "isVefa": false
      },
      {
        "date": "2024-12-10",
        "priceEur": 125000,
        "typeLocal": "Maison",
        "surfaceM2": 93,
        "isVefa": false
      }
    ]
  },
  "faebd432ce8e": {
    "id": "faebd432ce8e",
    "label": "12 RUE LEDOUX, Villers-Guislain",
    "lat": 50.042586,
    "lng": 3.155537,
    "transactions": [
      {
        "date": "2024-12-18",
        "priceEur": 50000,
        "typeLocal": "Maison",
        "surfaceM2": 84,
        "isVefa": false
      }
    ]
  },
  "58394aaee576": {
    "id": "58394aaee576",
    "label": "4 RUE JULIEN PLE, Villers-Guislain",
    "lat": 50.043029,
    "lng": 3.158916,
    "transactions": [
      {
        "date": "2025-04-03",
        "priceEur": 33000,
        "typeLocal": "Maison",
        "surfaceM2": 63,
        "isVefa": false
      }
    ]
  },
  "9c1e710168ef": {
    "id": "9c1e710168ef",
    "label": "2 RUE LEDOUX, Villers-Guislain",
    "lat": 50.041371,
    "lng": 3.155555,
    "transactions": [
      {
        "date": "2025-04-23",
        "priceEur": 100000,
        "typeLocal": "Maison",
        "surfaceM2": 121,
        "isVefa": false
      }
    ]
  }
}