{
  "0f458a96c2f6": {
    "id": "0f458a96c2f6",
    "label": "9 RUE HORTS ET PRATS, Bédarieux",
    "lat": 43.611662,
    "lng": 3.156286,
    "transactions": [
      {
        "date": "2023-11-03",
        "priceEur": 91880,
        "typeLocal": "Appartement",
        "surfaceM2": 77,
        "isVefa": false
      },
      {
        "date": "2023-05-17",
        "priceEur": 76095,
        "typeLocal": "Appartement",
        "surfaceM2": 77,
        "isVefa": false
      },
      {
        "date": "2022-06-07",
        "priceEur": 74000,
        "typeLocal": "Appartement",
        "surfaceM2": 77,
        "isVefa": false
      },
      {
        "date": "2021-09-17",
        "priceEur": 78000,
        "typeLocal": "Appartement",
        "surfaceM2": 77,
        "isVefa": false
      },
      {
        "date": "2020-08-06",
        "priceEur": 52000,
        "typeLocal": "Appartement",
        "surfaceM2": 77,
        "isVefa": false
      },
      {
        "date": "2020-07-20",
        "priceEur": 74400,
        "typeLocal": "Appartement",
        "surfaceM2": 77,
        "isVefa": false
      }
    ]
  },
  "6f5410bbb4c2": {
    "id": "6f5410bbb4c2",
    "label": "6 RUE HORTS ET PRATS, Bédarieux",
    "lat": 43.611662,
    "lng": 3.156286,
    "transactions": [
      {
        "date": "2020-10-30",
        "priceEur": 69000,
        "typeLocal": "Appartement",
        "surfaceM2": 65,
        "isVefa": false
      },
      {
        "date": "2020-09-18",
        "priceEur": 79000,
        "typeLocal": "Appartement",
        "surfaceM2": 74,
        "isVefa": false
      }
    ]
  },
  "b6e868e6e817": {
    "id": "b6e868e6e817",
    "label": "1 RUE HORTS ET PRATS, Bédarieux",
    "lat": 43.611662,
    "lng": 3.156286,
    "transactions": [
      {
        "date": "2020-10-14",
        "priceEur": 116000,
        "typeLocal": "Maison",
        "surfaceM2": 82,
        "isVefa": false
      }
    ]
  },
  "c6143feef34c": {
    "id": "c6143feef34c",
    "label": "44 CHE DES AIRES, Bédarieux",
    "lat": 43.607402,
    "lng": 3.155948,
    "transactions": [
      {
        "date": "2020-10-30",
        "priceEur": 117500,
        "typeLocal": "Maison",
        "surfaceM2": 139,
        "isVefa": false
      }
    ]
  },
  "904a3da6deb0": {
    "id": "904a3da6deb0",
    "label": "37 CHE DES AIRES, Bédarieux",
    "lat": 43.607097,
    "lng": 3.154722,
    "transactions": [
      {
        "date": "2020-11-30",
        "priceEur": 78000,
        "typeLocal": "Appartement",
        "surfaceM2": 74,
        "isVefa": false
      }
    ]
  },
  "1c13eff607f9": {
    "id": "1c13eff607f9",
    "label": "27 CHE DES AIRES, Bédarieux",
    "lat": 43.611607,
    "lng": 3.156613,
    "transactions": [
      {
        "date": "2020-12-18",
        "priceEur": 134000,
        "typeLocal": "Appartement",
        "surfaceM2": 70,
        "isVefa": false
      },
      {
        "date": "2020-12-18",
        "priceEur": 134000,
        "typeLocal": "Maison",
        "surfaceM2": 39,
        "isVefa": false
      }
    ]
  },
  "b8c95e1e1331": {
    "id": "b8c95e1e1331",
    "label": "26 BD JEAN MOULIN, Bédarieux",
    "lat": 43.612032,
    "lng": 3.154366,
    "transactions": [
      {
        "date": "2021-01-08",
        "priceEur": 32000,
        "typeLocal": "Maison",
        "surfaceM2": 30,
        "isVefa": false
      }
    ]
  },
  "8ebae97f2414": {
    "id": "8ebae97f2414",
    "label": "28 CHE DES AIRES, Bédarieux",
    "lat": 43.609907,
    "lng": 3.156509,
    "transactions": [
      {
        "date": "2021-03-17",
        "priceEur": 210000,
        "typeLocal": "Maison",
        "surfaceM2": 148,
        "isVefa": false
      }
    ]
  },
  "238e096295b2": {
    "id": "238e096295b2",
    "label": "19 LOT CASSAGNES, Bédarieux",
    "lat": 43.606362,
    "lng": 3.155588,
    "transactions": [
      {
        "date": "2021-04-13",
        "priceEur": 157225,
        "typeLocal": "Maison",
        "surfaceM2": 88,
        "isVefa": false
      }
    ]
  },
  "d4fe98e86d23": {
    "id": "d4fe98e86d23",
    "label": "9018F CHE DE BOUDOUISSOU, Bédarieux",
    "lat": 43.609512,
    "lng": 3.158206,
    "transactions": [
      {
        "date": "2021-06-25",
        "priceEur": 37800,
        "typeLocal": "Maison",
        "surfaceM2": 80,
        "isVefa": false
      }
    ]
  },
  "ea6e4028316e": {
    "id": "ea6e4028316e",
    "label": "15 CHE DU SERRE DE CASSAGNES, Bédarieux",
    "lat": 43.607428,
    "lng": 3.159225,
    "transactions": [
      {
        "date": "2022-01-05",
        "priceEur": 70000,
        "typeLocal": "Maison",
        "surfaceM2": 61,
        "isVefa": false
      }
    ]
  },
  "f26e2fc535ee": {
    "id": "f26e2fc535ee",
    "label": "3 CHE DE CASSAGNES, Bédarieux",
    "lat": 43.610853,
    "lng": 3.157845,
    "transactions": [
      {
        "date": "2024-03-29",
        "priceEur": 292000,
        "typeLocal": "Maison",
        "surfaceM2": 103,
        "isVefa": false
      },
      {
        "date": "2022-01-14",
        "priceEur": 263000,
        "typeLocal": "Maison",
        "surfaceM2": 103,
        "isVefa": false
      }
    ]
  },
  "0f158dbc5d1e": {
    "id": "0f158dbc5d1e",
    "label": "79 AV AUGUSTE COT, Bédarieux",
    "lat": 43.609703,
    "lng": 3.163858,
    "transactions": [
      {
        "date": "2024-03-11",
        "priceEur": 25000,
        "typeLocal": "Appartement",
        "surfaceM2": 65,
        "isVefa": false
      },
      {
        "date": "2022-02-15",
        "priceEur": 39000,
        "typeLocal": "Appartement",
        "surfaceM2": 125,
        "isVefa": false
      }
    ]
  },
  "73859a7fc5c0": {
    "id": "73859a7fc5c0",
    "label": "18 CHE DE BOUDOUISSOU, Bédarieux",
    "lat": 43.611614,
    "lng": 3.158683,
    "transactions": [
      {
        "date": "2023-10-09",
        "priceEur": 112000,
        "typeLocal": "Maison",
        "surfaceM2": 120,
        "isVefa": false
      },
      {
        "date": "2022-04-12",
        "priceEur": 314000,
        "typeLocal": "Maison",
        "surfaceM2": 120,
        "isVefa": false
      }
    ]
  },
  "c480cfd4270f": {
    "id": "c480cfd4270f",
    "label": "108 AV AUGUSTE COT, Bédarieux",
    "lat": 43.611884,
    "lng": 3.16326,
    "transactions": [
      {
        "date": "2022-04-26",
        "priceEur": 88000,
        "typeLocal": "Maison",
        "surfaceM2": 100,
        "isVefa": false
      }
    ]
  },
  "14e9daa9a14d": {
    "id": "14e9daa9a14d",
    "label": "71B AV AUGUSTE COT, Bédarieux",
    "lat": 43.610986,
    "lng": 3.163597,
    "transactions": [
      {
        "date": "2022-07-04",
        "priceEur": 51000,
        "typeLocal": "Maison",
        "surfaceM2": 50,
        "isVefa": false
      }
    ]
  },
  "c0c2a7a28499": {
    "id": "c0c2a7a28499",
    "label": "9002F CHE DU COL DE FARRAN, Bédarieux",
    "lat": 43.604604,
    "lng": 3.162059,
    "transactions": [
      {
        "date": "2023-03-10",
        "priceEur": 16340,
        "typeLocal": "Maison",
        "surfaceM2": 89,
        "isVefa": false
      },
      {
        "date": "2022-07-05",
        "priceEur": 43000,
        "typeLocal": "Maison",
        "surfaceM2": 89,
        "isVefa": false
      }
    ]
  },
  "2e5f00ad1460": {
    "id": "2e5f00ad1460",
    "label": "9019 CASSAGNES, Bédarieux",
    "lat": 43.609245,
    "lng": 3.158977,
    "transactions": [
      {
        "date": "2022-07-12",
        "priceEur": 68000,
        "typeLocal": "Maison",
        "surfaceM2": 12,
        "isVefa": false
      }
    ]
  },
  "ec2cb2ccc903": {
    "id": "ec2cb2ccc903",
    "label": "23 RTE DE CLERMONT, Bédarieux",
    "lat": 43.611848,
    "lng": 3.163811,
    "transactions": [
      {
        "date": "2022-07-22",
        "priceEur": 70000,
        "typeLocal": "Maison",
        "surfaceM2": 42,
        "isVefa": false
      }
    ]
  },
  "80493233648d": {
    "id": "80493233648d",
    "label": "16 CHE DES AIRES, Bédarieux",
    "lat": 43.611498,
    "lng": 3.157028,
    "transactions": [
      {
        "date": "2022-09-06",
        "priceEur": 155000,
        "typeLocal": "Maison",
        "surfaceM2": 98,
        "isVefa": false
      }
    ]
  },
  "fd9030de0c65": {
    "id": "fd9030de0c65",
    "label": "4 RUE HORTS ET PRATS, Bédarieux",
    "lat": 43.611662,
    "lng": 3.156286,
    "transactions": [
      {
        "date": "2022-10-28",
        "priceEur": 160000,
        "typeLocal": "Maison",
        "surfaceM2": 82,
        "isVefa": false
      }
    ]
  },
  "b9a3076654a9": {
    "id": "b9a3076654a9",
    "label": "114 AV AUGUSTE COT, Bédarieux",
    "lat": 43.611688,
    "lng": 3.163542,
    "transactions": [
      {
        "date": "2023-01-04",
        "priceEur": 110000,
        "typeLocal": "Appartement",
        "surfaceM2": 39,
        "isVefa": false
      }
    ]
  },
  "2a8f74dd9f0e": {
    "id": "2a8f74dd9f0e",
    "label": "9002F LOT CASSAGNES, Bédarieux",
    "lat": 43.605962,
    "lng": 3.155007,
    "transactions": [
      {
        "date": "2023-02-17",
        "priceEur": 200000,
        "typeLocal": "Maison",
        "surfaceM2": 90,
        "isVefa": false
      }
    ]
  },
  "f650108652e9": {
    "id": "f650108652e9",
    "label": "11 RUE HORTS ET PRATS, Bédarieux",
    "lat": 43.611662,
    "lng": 3.156286,
    "transactions": [
      {
        "date": "2023-04-11",
        "priceEur": 91000,
        "typeLocal": "Appartement",
        "surfaceM2": 74,
        "isVefa": false
      }
    ]
  },
  "c0846323d924": {
    "id": "c0846323d924",
    "label": "7 RUE HORTS ET PRATS, Bédarieux",
    "lat": 43.611662,
    "lng": 3.156286,
    "transactions": [
      {
        "date": "2023-05-03",
        "priceEur": 60000,
        "typeLocal": "Appartement",
        "surfaceM2": 65,
        "isVefa": false
      }
    ]
  },
  "6dad29d2d1a8": {
    "id": "6dad29d2d1a8",
    "label": "761 CHE DE L'ANCIENNE VOIE FERREE, Bédarieux",
    "lat": 43.60764,
    "lng": 3.158476,
    "transactions": [
      {
        "date": "2023-06-30",
        "priceEur": 120375,
        "typeLocal": "Maison",
        "surfaceM2": 102,
        "isVefa": false
      }
    ]
  },
  "7a7b0417ab9b": {
    "id": "7a7b0417ab9b",
    "label": "4 IMP CASSAGNES, Bédarieux",
    "lat": 43.605995,
    "lng": 3.15686,
    "transactions": [
      {
        "date": "2023-07-10",
        "priceEur": 79863.58,
        "typeLocal": "Maison",
        "surfaceM2": 97,
        "isVefa": false
      }
    ]
  },
  "b4fe1bee2ab9": {
    "id": "b4fe1bee2ab9",
    "label": "72 CHE DES AIRES, Bédarieux",
    "lat": 43.60443,
    "lng": 3.15471,
    "transactions": [
      {
        "date": "2024-02-01",
        "priceEur": 190000,
        "typeLocal": "Maison",
        "surfaceM2": 59,
        "isVefa": false
      }
    ]
  },
  "9072d290d1fc": {
    "id": "9072d290d1fc",
    "label": "8 CHE DE CASSAGNES, Bédarieux",
    "lat": 43.610423,
    "lng": 3.158439,
    "transactions": [
      {
        "date": "2024-07-01",
        "priceEur": 312500,
        "typeLocal": "Maison",
        "surfaceM2": 110,
        "isVefa": false
      }
    ]
  },
  "08712221c25e": {
    "id": "08712221c25e",
    "label": "112 AV AUGUSTE COT, Bédarieux",
    "lat": 43.61184,
    "lng": 3.16352,
    "transactions": [
      {
        "date": "2024-06-28",
        "priceEur": 190000,
        "typeLocal": "Appartement",
        "surfaceM2": 64,
        "isVefa": false
      },
      {
        "date": "2024-06-28",
        "priceEur": 190000,
        "typeLocal": "Appartement",
        "surfaceM2": 81,
        "isVefa": false
      },
      {
        "date": "2024-06-28",
        "priceEur": 190000,
        "typeLocal": "Appartement",
        "surfaceM2": 94,
        "isVefa": false
      }
    ]
  },
  "a34e546a552b": {
    "id": "a34e546a552b",
    "label": "3 IMP FILATURE, Bédarieux",
    "lat": 43.611473,
    "lng": 3.163666,
    "transactions": [
      {
        "date": "2024-09-05",
        "priceEur": 52000,
        "typeLocal": "Maison",
        "surfaceM2": 75,
        "isVefa": false
      }
    ]
  }
}