{
  "1d70d3ac36b7": {
    "id": "1d70d3ac36b7",
    "label": "10 AV GEORGES CLEMENCEAU, Yvetot",
    "lat": 49.619552,
    "lng": 0.760214,
    "transactions": [
      {
        "date": "2020-07-25",
        "priceEur": 179000,
        "typeLocal": "Appartement",
        "surfaceM2": 40,
        "isVefa": false
      }
    ]
  },
  "bcd32317a53a": {
    "id": "bcd32317a53a",
    "label": "23 AV GEORGES CLEMENCEAU, Yvetot",
    "lat": 49.620604,
    "lng": 0.76172,
    "transactions": [
      {
        "date": "2020-07-23",
        "priceEur": 166000,
        "typeLocal": "Maison",
        "surfaceM2": 101,
        "isVefa": false
      }
    ]
  },
  "99459aeba2aa": {
    "id": "99459aeba2aa",
    "label": "46 RES DU PARC, Yvetot",
    "lat": 49.619449,
    "lng": 0.761592,
    "transactions": [
      {
        "date": "2020-09-28",
        "priceEur": 82000,
        "typeLocal": "Appartement",
        "surfaceM2": 52,
        "isVefa": false
      }
    ]
  },
  "4a92c7488f5a": {
    "id": "4a92c7488f5a",
    "label": "5 RUE BEAUCOUSIN, Yvetot",
    "lat": 49.619868,
    "lng": 0.758507,
    "transactions": [
      {
        "date": "2021-12-20",
        "priceEur": 223000,
        "typeLocal": "Maison",
        "surfaceM2": 94,
        "isVefa": false
      },
      {
        "date": "2020-10-06",
        "priceEur": 142000,
        "typeLocal": "Maison",
        "surfaceM2": 80,
        "isVefa": false
      }
    ]
  },
  "2cf4810c4abd": {
    "id": "2cf4810c4abd",
    "label": "16 RUE RODIN, Yvetot",
    "lat": 49.620535,
    "lng": 0.766452,
    "transactions": [
      {
        "date": "2020-11-30",
        "priceEur": 130000,
        "typeLocal": "Appartement",
        "surfaceM2": 83,
        "isVefa": false
      }
    ]
  },
  "8c5c182dc5bf": {
    "id": "8c5c182dc5bf",
    "label": "16 RTE DE GREMONVILLE, Yvetot",
    "lat": 49.624308,
    "lng": 0.765567,
    "transactions": [
      {
        "date": "2021-03-17",
        "priceEur": 100000,
        "typeLocal": "Maison",
        "surfaceM2": 64,
        "isVefa": false
      }
    ]
  },
  "656555551861": {
    "id": "656555551861",
    "label": "44 RUE CARNOT, Yvetot",
    "lat": 49.621144,
    "lng": 0.760249,
    "transactions": [
      {
        "date": "2021-04-28",
        "priceEur": 204000,
        "typeLocal": "Maison",
        "surfaceM2": 96,
        "isVefa": false
      }
    ]
  },
  "dcf23400e31e": {
    "id": "dcf23400e31e",
    "label": "14A RUE DE LA BRIQUETERIE, Yvetot",
    "lat": 49.617931,
    "lng": 0.762337,
    "transactions": [
      {
        "date": "2021-06-22",
        "priceEur": 257000,
        "typeLocal": "Maison",
        "surfaceM2": 63,
        "isVefa": false
      }
    ]
  },
  "22ddbac7a1f4": {
    "id": "22ddbac7a1f4",
    "label": "3T RUE DE LA GARE, Yvetot",
    "lat": 49.620972,
    "lng": 0.762282,
    "transactions": [
      {
        "date": "2021-07-15",
        "priceEur": 194000,
        "typeLocal": "Maison",
        "surfaceM2": 75,
        "isVefa": false
      }
    ]
  },
  "757a819b7571": {
    "id": "757a819b7571",
    "label": "4B RTE DE DOUDEVILLE, Yvetot",
    "lat": 49.623125,
    "lng": 0.760085,
    "transactions": [
      {
        "date": "2021-10-14",
        "priceEur": 148000,
        "typeLocal": "Maison",
        "surfaceM2": 75,
        "isVefa": false
      }
    ]
  },
  "42ea40526fc4": {
    "id": "42ea40526fc4",
    "label": "40 RUE CARNOT, Yvetot",
    "lat": 49.620519,
    "lng": 0.759325,
    "transactions": [
      {
        "date": "2024-10-07",
        "priceEur": 145000,
        "typeLocal": "Appartement",
        "surfaceM2": 86,
        "isVefa": false
      },
      {
        "date": "2023-08-28",
        "priceEur": 120000,
        "typeLocal": "Appartement",
        "surfaceM2": 65,
        "isVefa": false
      },
      {
        "date": "2023-05-16",
        "priceEur": 145000,
        "typeLocal": "Appartement",
        "surfaceM2": 86,
        "isVefa": false
      },
      {
        "date": "2022-11-25",
        "priceEur": 105000,
        "typeLocal": "Appartement",
        "surfaceM2": 46,
        "isVefa": false
      },
      {
        "date": "2022-02-25",
        "priceEur": 118000,
        "typeLocal": "Appartement",
        "surfaceM2": 65,
        "isVefa": false
      },
      {
        "date": "2021-12-14",
        "priceEur": 127500,
        "typeLocal": "Appartement",
        "surfaceM2": 82,
        "isVefa": false
      },
      {
        "date": "2021-12-03",
        "priceEur": 80000,
        "typeLocal": "Appartement",
        "surfaceM2": 49,
        "isVefa": false
      },
      {
        "date": "2021-11-23",
        "priceEur": 100000,
        "typeLocal": "Appartement",
        "surfaceM2": 70,
        "isVefa": false
      }
    ]
  },
  "89fa5202eae1": {
    "id": "89fa5202eae1",
    "label": "38 RUE CARNOT, Yvetot",
    "lat": 49.620519,
    "lng": 0.759325,
    "transactions": [
      {
        "date": "2025-01-22",
        "priceEur": 145000,
        "typeLocal": "Appartement",
        "surfaceM2": 86,
        "isVefa": false
      },
      {
        "date": "2024-11-27",
        "priceEur": 120000,
        "typeLocal": "Appartement",
        "surfaceM2": 65,
        "isVefa": false
      },
      {
        "date": "2023-12-21",
        "priceEur": 89000,
        "typeLocal": "Appartement",
        "surfaceM2": 52,
        "isVefa": false
      },
      {
        "date": "2023-10-02",
        "priceEur": 95000,
        "typeLocal": "Appartement",
        "surfaceM2": 52,
        "isVefa": false
      },
      {
        "date": "2023-01-18",
        "priceEur": 145000,
        "typeLocal": "Appartement",
        "surfaceM2": 86,
        "isVefa": false
      },
      {
        "date": "2022-10-27",
        "priceEur": 120000,
        "typeLocal": "Appartement",
        "surfaceM2": 69,
        "isVefa": false
      },
      {
        "date": "2022-10-04",
        "priceEur": 120000,
        "typeLocal": "Appartement",
        "surfaceM2": 69,
        "isVefa": false
      },
      {
        "date": "2022-06-13",
        "priceEur": 120000,
        "typeLocal": "Appartement",
        "surfaceM2": 64,
        "isVefa": false
      },
      {
        "date": "2021-11-30",
        "priceEur": 167500,
        "typeLocal": "Appartement",
        "surfaceM2": 122,
        "isVefa": false
      },
      {
        "date": "2021-11-29",
        "priceEur": 100000,
        "typeLocal": "Appartement",
        "surfaceM2": 65,
        "isVefa": false
      }
    ]
  },
  "ea6aae9db57b": {
    "id": "ea6aae9db57b",
    "label": "474 RUE DES CHEVAUX, Sainte-Marie-des-Champs",
    "lat": 49.624402,
    "lng": 0.768693,
    "transactions": [
      {
        "date": "2021-12-17",
        "priceEur": 150000,
        "typeLocal": "Maison",
        "surfaceM2": 153,
        "isVefa": false
      }
    ]
  },
  "d4e88a49919c": {
    "id": "d4e88a49919c",
    "label": "10 RUE GAUTIER D YVETOT, Yvetot",
    "lat": 49.621408,
    "lng": 0.765272,
    "transactions": [
      {
        "date": "2021-01-25",
        "priceEur": 155000,
        "typeLocal": "Maison",
        "surfaceM2": 84,
        "isVefa": false
      }
    ]
  },
  "aba9bf6aa7bd": {
    "id": "aba9bf6aa7bd",
    "label": "4 RUE DE LA CROIX ROUGE, Yvetot",
    "lat": 49.620361,
    "lng": 0.760647,
    "transactions": [
      {
        "date": "2024-12-18",
        "priceEur": 215000,
        "typeLocal": "Maison",
        "surfaceM2": 115,
        "isVefa": false
      },
      {
        "date": "2021-02-13",
        "priceEur": 131000,
        "typeLocal": "Maison",
        "surfaceM2": 84,
        "isVefa": false
      }
    ]
  },
  "6c8c63de9cc6": {
    "id": "6c8c63de9cc6",
    "label": "6 RUE RODIN, Yvetot",
    "lat": 49.620312,
    "lng": 0.765771,
    "transactions": [
      {
        "date": "2023-02-24",
        "priceEur": 87000,
        "typeLocal": "Maison",
        "surfaceM2": 33,
        "isVefa": false
      },
      {
        "date": "2021-03-05",
        "priceEur": 75600,
        "typeLocal": "Maison",
        "surfaceM2": 34,
        "isVefa": false
      }
    ]
  },
  "8abfe77cc866": {
    "id": "8abfe77cc866",
    "label": "40 RES DU PARC, Yvetot",
    "lat": 49.619449,
    "lng": 0.761592,
    "transactions": [
      {
        "date": "2022-02-01",
        "priceEur": 106000,
        "typeLocal": "Appartement",
        "surfaceM2": 52,
        "isVefa": false
      }
    ]
  },
  "d7b41ed82aed": {
    "id": "d7b41ed82aed",
    "label": "7 RUE DE LA GARE, Yvetot",
    "lat": 49.621182,
    "lng": 0.762139,
    "transactions": [
      {
        "date": "2022-03-28",
        "priceEur": 95000,
        "typeLocal": "Maison",
        "surfaceM2": 50,
        "isVefa": false
      }
    ]
  },
  "1bf0cdb8492d": {
    "id": "1bf0cdb8492d",
    "label": "11 RES DU PARC, Yvetot",
    "lat": 49.619449,
    "lng": 0.761592,
    "transactions": [
      {
        "date": "2022-04-28",
        "priceEur": 120000,
        "typeLocal": "Appartement",
        "surfaceM2": 54,
        "isVefa": false
      }
    ]
  },
  "0c91501893a8": {
    "id": "0c91501893a8",
    "label": "7 RUE SAINTE MARIE, Yvetot",
    "lat": 49.621706,
    "lng": 0.762834,
    "transactions": [
      {
        "date": "2022-06-17",
        "priceEur": 300000,
        "typeLocal": "Maison",
        "surfaceM2": 170,
        "isVefa": false
      }
    ]
  },
  "ec727bf46562": {
    "id": "ec727bf46562",
    "label": "1 RTE DE DOUDEVILLE, Yvetot",
    "lat": 49.623097,
    "lng": 0.75867,
    "transactions": [
      {
        "date": "2022-06-21",
        "priceEur": 96500,
        "typeLocal": "Maison",
        "surfaceM2": 57,
        "isVefa": false
      }
    ]
  },
  "4efccc64e740": {
    "id": "4efccc64e740",
    "label": "10 RES DU PARC, Yvetot",
    "lat": 49.619449,
    "lng": 0.761592,
    "transactions": [
      {
        "date": "2022-11-29",
        "priceEur": 40239.99,
        "typeLocal": "Appartement",
        "surfaceM2": 73,
        "isVefa": false
      },
      {
        "date": "2022-06-24",
        "priceEur": 99500,
        "typeLocal": "Appartement",
        "surfaceM2": 73,
        "isVefa": false
      }
    ]
  },
  "352253d41f7e": {
    "id": "352253d41f7e",
    "label": "7 RTE DE DOUDEVILLE, Yvetot",
    "lat": 49.623117,
    "lng": 0.759044,
    "transactions": [
      {
        "date": "2022-10-08",
        "priceEur": 92000,
        "typeLocal": "Maison",
        "surfaceM2": 91,
        "isVefa": false
      }
    ]
  },
  "8695d3bd3d84": {
    "id": "8695d3bd3d84",
    "label": "2 RTE DE DOUDEVILLE, Yvetot",
    "lat": 49.622994,
    "lng": 0.759563,
    "transactions": [
      {
        "date": "2022-11-16",
        "priceEur": 170000,
        "typeLocal": "Maison",
        "surfaceM2": 75,
        "isVefa": false
      }
    ]
  },
  "6f4d24334f0d": {
    "id": "6f4d24334f0d",
    "label": "16B AV GEORGES CLEMENCEAU, Yvetot",
    "lat": 49.619829,
    "lng": 0.761553,
    "transactions": [
      {
        "date": "2022-12-28",
        "priceEur": 195000,
        "typeLocal": "Maison",
        "surfaceM2": 94,
        "isVefa": false
      }
    ]
  },
  "1ddda4eb570c": {
    "id": "1ddda4eb570c",
    "label": "19 RUE DE LA CROIX ROUGE, Yvetot",
    "lat": 49.621189,
    "lng": 0.760461,
    "transactions": [
      {
        "date": "2023-01-25",
        "priceEur": 125000,
        "typeLocal": "Maison",
        "surfaceM2": 79,
        "isVefa": false
      }
    ]
  },
  "0e5aeca01b78": {
    "id": "0e5aeca01b78",
    "label": "9 RUE DE LA CROIX ROUGE, Yvetot",
    "lat": 49.62049,
    "lng": 0.759637,
    "transactions": [
      {
        "date": "2023-02-03",
        "priceEur": 61000,
        "typeLocal": "Maison",
        "surfaceM2": 39,
        "isVefa": false
      }
    ]
  },
  "34bafc382180": {
    "id": "34bafc382180",
    "label": "9001 IMM ALBERT ROUSSEL, Yvetot",
    "lat": 49.619514,
    "lng": 0.764613,
    "transactions": [
      {
        "date": "2023-06-02",
        "priceEur": 1,
        "typeLocal": "Appartement",
        "surfaceM2": 59,
        "isVefa": false
      },
      {
        "date": "2023-06-02",
        "priceEur": 1,
        "typeLocal": "Appartement",
        "surfaceM2": 74,
        "isVefa": false
      },
      {
        "date": "2023-06-02",
        "priceEur": 1,
        "typeLocal": "Appartement",
        "surfaceM2": 49,
        "isVefa": false
      },
      {
        "date": "2023-06-02",
        "priceEur": 1,
        "typeLocal": "Appartement",
        "surfaceM2": 88,
        "isVefa": false
      },
      {
        "date": "2023-06-02",
        "priceEur": 1,
        "typeLocal": "Appartement",
        "surfaceM2": 52,
        "isVefa": false
      }
    ]
  },
  "da6e2acc35f4": {
    "id": "da6e2acc35f4",
    "label": "9028 IMM BOIELDIEU, Yvetot",
    "lat": 49.619101,
    "lng": 0.765235,
    "transactions": [
      {
        "date": "2023-06-02",
        "priceEur": 1,
        "typeLocal": "Appartement",
        "surfaceM2": 74,
        "isVefa": false
      },
      {
        "date": "2023-06-02",
        "priceEur": 1,
        "typeLocal": "Appartement",
        "surfaceM2": 59,
        "isVefa": false
      }
    ]
  },
  "a290d83445d6": {
    "id": "a290d83445d6",
    "label": "9031 IMM HONEGGER, Yvetot",
    "lat": 49.61895,
    "lng": 0.76563,
    "transactions": [
      {
        "date": "2023-06-02",
        "priceEur": 1,
        "typeLocal": "Appartement",
        "surfaceM2": 74,
        "isVefa": false
      },
      {
        "date": "2023-06-02",
        "priceEur": 1,
        "typeLocal": "Appartement",
        "surfaceM2": 59,
        "isVefa": false
      }
    ]
  },
  "0626e0d3b1a7": {
    "id": "0626e0d3b1a7",
    "label": "12E RUE DU COL TRUPEL, Yvetot",
    "lat": 49.618351,
    "lng": 0.760831,
    "transactions": [
      {
        "date": "2023-06-23",
        "priceEur": 159000,
        "typeLocal": "Maison",
        "surfaceM2": 53,
        "isVefa": false
      }
    ]
  },
  "87aa83c4897c": {
    "id": "87aa83c4897c",
    "label": "59 AV GEORGES CLEMENCEAU, Yvetot",
    "lat": 49.62152,
    "lng": 0.768085,
    "transactions": [
      {
        "date": "2023-06-16",
        "priceEur": 169000,
        "typeLocal": "Maison",
        "surfaceM2": 85,
        "isVefa": false
      },
      {
        "date": "2023-06-16",
        "priceEur": 169000,
        "typeLocal": "Maison",
        "surfaceM2": 80,
        "isVefa": false
      }
    ]
  },
  "2c33fb73a680": {
    "id": "2c33fb73a680",
    "label": "4F IMP COL TRUPEL, Yvetot",
    "lat": 49.618261,
    "lng": 0.759097,
    "transactions": [
      {
        "date": "2023-07-05",
        "priceEur": 150000,
        "typeLocal": "Maison",
        "surfaceM2": 82,
        "isVefa": false
      }
    ]
  },
  "3a3b6eefc210": {
    "id": "3a3b6eefc210",
    "label": "5D RTE DE DOUDEVILLE, Yvetot",
    "lat": 49.623283,
    "lng": 0.759199,
    "transactions": [
      {
        "date": "2023-07-07",
        "priceEur": 127000,
        "typeLocal": "Maison",
        "surfaceM2": 50,
        "isVefa": false
      }
    ]
  },
  "882f91dd1f2f": {
    "id": "882f91dd1f2f",
    "label": "41 RES DU PARC, Yvetot",
    "lat": 49.619449,
    "lng": 0.761592,
    "transactions": [
      {
        "date": "2023-09-07",
        "priceEur": 119470,
        "typeLocal": "Appartement",
        "surfaceM2": 52,
        "isVefa": false
      }
    ]
  },
  "67b65e52a463": {
    "id": "67b65e52a463",
    "label": "11 RUE DU VIEUX STE MARIE, Yvetot",
    "lat": 49.624109,
    "lng": 0.767116,
    "transactions": [
      {
        "date": "2023-08-31",
        "priceEur": 120000,
        "typeLocal": "Maison",
        "surfaceM2": 89,
        "isVefa": false
      }
    ]
  },
  "5e892723eb2f": {
    "id": "5e892723eb2f",
    "label": "49 RES DU PARC, Yvetot",
    "lat": 49.619449,
    "lng": 0.761592,
    "transactions": [
      {
        "date": "2023-09-18",
        "priceEur": 157000,
        "typeLocal": "Appartement",
        "surfaceM2": 68,
        "isVefa": false
      }
    ]
  },
  "60c1a14e7e3a": {
    "id": "60c1a14e7e3a",
    "label": "5B RTE DE DOUDEVILLE, Yvetot",
    "lat": 49.623338,
    "lng": 0.759068,
    "transactions": [
      {
        "date": "2023-09-22",
        "priceEur": 120000,
        "typeLocal": "Maison",
        "surfaceM2": 65,
        "isVefa": false
      }
    ]
  },
  "beee7b47c044": {
    "id": "beee7b47c044",
    "label": "34 AV GEORGES CLEMENCEAU, Yvetot",
    "lat": 49.620268,
    "lng": 0.763366,
    "transactions": [
      {
        "date": "2023-10-19",
        "priceEur": 85000,
        "typeLocal": "Maison",
        "surfaceM2": 20,
        "isVefa": false
      }
    ]
  },
  "611ca60bb54f": {
    "id": "611ca60bb54f",
    "label": "4G IMP COL TRUPEL, Yvetot",
    "lat": 49.618415,
    "lng": 0.759307,
    "transactions": [
      {
        "date": "2023-10-13",
        "priceEur": 367000,
        "typeLocal": "Maison",
        "surfaceM2": 176,
        "isVefa": false
      }
    ]
  },
  "6892331d1448": {
    "id": "6892331d1448",
    "label": "67 RUE DU CALVAIRE, Yvetot",
    "lat": 49.61843,
    "lng": 0.758327,
    "transactions": [
      {
        "date": "2024-08-21",
        "priceEur": 201000,
        "typeLocal": "Appartement",
        "surfaceM2": 70,
        "isVefa": false
      },
      {
        "date": "2023-11-15",
        "priceEur": 292000,
        "typeLocal": "Appartement",
        "surfaceM2": 98,
        "isVefa": false
      }
    ]
  },
  "10ccf79cf55e": {
    "id": "10ccf79cf55e",
    "label": "79 RUE DU CALVAIRE, Yvetot",
    "lat": 49.619273,
    "lng": 0.758917,
    "transactions": [
      {
        "date": "2023-12-11",
        "priceEur": 140000,
        "typeLocal": "Maison",
        "surfaceM2": 18,
        "isVefa": false
      },
      {
        "date": "2023-12-11",
        "priceEur": 140000,
        "typeLocal": "Maison",
        "surfaceM2": 50,
        "isVefa": false
      }
    ]
  },
  "19085982cc1b": {
    "id": "19085982cc1b",
    "label": "1 RUE BEAUCOUSIN, Yvetot",
    "lat": 49.619744,
    "lng": 0.758822,
    "transactions": [
      {
        "date": "2024-02-19",
        "priceEur": 184524.25,
        "typeLocal": "Maison",
        "surfaceM2": 80,
        "isVefa": false
      }
    ]
  },
  "4c868d24f054": {
    "id": "4c868d24f054",
    "label": "51 AV GEORGES CLEMENCEAU, Yvetot",
    "lat": 49.621286,
    "lng": 0.765744,
    "transactions": [
      {
        "date": "2024-04-15",
        "priceEur": 182000,
        "typeLocal": "Maison",
        "surfaceM2": 105,
        "isVefa": false
      }
    ]
  },
  "beadf7adbcc4": {
    "id": "beadf7adbcc4",
    "label": "12 AV GEORGES CLEMENCEAU, Yvetot",
    "lat": 49.619675,
    "lng": 0.760386,
    "transactions": [
      {
        "date": "2024-05-23",
        "priceEur": 290000,
        "typeLocal": "Appartement",
        "surfaceM2": 70,
        "isVefa": false
      },
      {
        "date": "2024-05-23",
        "priceEur": 290000,
        "typeLocal": "Appartement",
        "surfaceM2": 30,
        "isVefa": false
      }
    ]
  },
  "ad3a5fb21665": {
    "id": "ad3a5fb21665",
    "label": "16 RUE DE LA BREME, Yvetot",
    "lat": 49.620317,
    "lng": 0.767471,
    "transactions": [
      {
        "date": "2024-07-01",
        "priceEur": 180000,
        "typeLocal": "Maison",
        "surfaceM2": 114,
        "isVefa": false
      }
    ]
  },
  "8b617f7a21e4": {
    "id": "8b617f7a21e4",
    "label": "17 RUE DE LA CROIX ROUGE, Yvetot",
    "lat": 49.621032,
    "lng": 0.760222,
    "transactions": [
      {
        "date": "2024-07-19",
        "priceEur": 75000,
        "typeLocal": "Maison",
        "surfaceM2": 60,
        "isVefa": false
      }
    ]
  },
  "13114d4b00f2": {
    "id": "13114d4b00f2",
    "label": "20T AV GEORGES CLEMENCEAU, Yvetot",
    "lat": 49.619986,
    "lng": 0.762515,
    "transactions": [
      {
        "date": "2024-12-09",
        "priceEur": 250000,
        "typeLocal": "Maison",
        "surfaceM2": 100,
        "isVefa": false
      }
    ]
  },
  "e7e31f40ce80": {
    "id": "e7e31f40ce80",
    "label": "4 RUE SAINTE MARIE, Yvetot",
    "lat": 49.621768,
    "lng": 0.764963,
    "transactions": [
      {
        "date": "2024-11-27",
        "priceEur": 160000,
        "typeLocal": "Maison",
        "surfaceM2": 150,
        "isVefa": false
      }
    ]
  },
  "78c37abd8366": {
    "id": "78c37abd8366",
    "label": "75 RUE DU CALVAIRE, Yvetot",
    "lat": 49.619151,
    "lng": 0.758479,
    "transactions": [
      {
        "date": "2024-12-18",
        "priceEur": 620000,
        "typeLocal": "Maison",
        "surfaceM2": 190,
        "isVefa": false
      }
    ]
  },
  "35107e5bfce1": {
    "id": "35107e5bfce1",
    "label": "20 RUE RODIN, Yvetot",
    "lat": 49.620563,
    "lng": 0.767124,
    "transactions": [
      {
        "date": "2024-12-20",
        "priceEur": 147000,
        "typeLocal": "Maison",
        "surfaceM2": 81,
        "isVefa": false
      }
    ]
  },
  "489a7f53f266": {
    "id": "489a7f53f266",
    "label": "1B RUE DE LA CROIX ROUGE, Yvetot",
    "lat": 49.620139,
    "lng": 0.759141,
    "transactions": [
      {
        "date": "2025-03-26",
        "priceEur": 380000,
        "typeLocal": "Maison",
        "surfaceM2": 199,
        "isVefa": false
      }
    ]
  },
  "dedf0d106d50": {
    "id": "dedf0d106d50",
    "label": "58 AV GEORGES CLEMENCEAU, Yvetot",
    "lat": 49.621045,
    "lng": 0.76752,
    "transactions": [
      {
        "date": "2025-06-14",
        "priceEur": 205000,
        "typeLocal": "Maison",
        "surfaceM2": 145,
        "isVefa": false
      }
    ]
  }
}