{
  "6d38a4102fc2": {
    "id": "6d38a4102fc2",
    "label": "5065O LOT DU VALLON DE LA HAYE, Saint-Saëns",
    "lat": 49.677389,
    "lng": 1.292997,
    "transactions": [
      {
        "date": "2020-07-24",
        "priceEur": 161000,
        "typeLocal": "Maison",
        "surfaceM2": 111,
        "isVefa": false
      }
    ]
  },
  "2adfdb4de2b8": {
    "id": "2adfdb4de2b8",
    "label": "10 RUE DU HUIT MAI 1945, Saint-Saëns",
    "lat": 49.675017,
    "lng": 1.293891,
    "transactions": [
      {
        "date": "2020-07-27",
        "priceEur": 186000,
        "typeLocal": "Maison",
        "surfaceM2": 110,
        "isVefa": false
      }
    ]
  },
  "ba45e318e269": {
    "id": "ba45e318e269",
    "label": "27 LE CATELIER, Saint-Saëns",
    "lat": 49.675428,
    "lng": 1.287056,
    "transactions": [
      {
        "date": "2020-11-09",
        "priceEur": 120000,
        "typeLocal": "Maison",
        "surfaceM2": 57,
        "isVefa": false
      }
    ]
  },
  "702390178274": {
    "id": "702390178274",
    "label": "5462 RUE D HAUSSEZ, Saint-Saëns",
    "lat": 49.678146,
    "lng": 1.28583,
    "transactions": [
      {
        "date": "2020-11-30",
        "priceEur": 97000,
        "typeLocal": "Maison",
        "surfaceM2": 52,
        "isVefa": false
      }
    ]
  },
  "9b29c0c47fbb": {
    "id": "9b29c0c47fbb",
    "label": "34 VAL DE BOULOGNE, Saint-Saëns",
    "lat": 49.676851,
    "lng": 1.289959,
    "transactions": [
      {
        "date": "2021-12-30",
        "priceEur": 141000,
        "typeLocal": "Maison",
        "surfaceM2": 112,
        "isVefa": false
      }
    ]
  },
  "87d35120d49b": {
    "id": "87d35120d49b",
    "label": "41 RUE DU HUIT MAI 1945, Saint-Saëns",
    "lat": 49.675177,
    "lng": 1.289125,
    "transactions": [
      {
        "date": "2021-12-30",
        "priceEur": 550000,
        "typeLocal": "Maison",
        "surfaceM2": 35,
        "isVefa": false
      }
    ]
  },
  "f4e84140cf62": {
    "id": "f4e84140cf62",
    "label": "16 RUE DU CATELIER, Saint-Saëns",
    "lat": 49.675044,
    "lng": 1.286924,
    "transactions": [
      {
        "date": "2021-12-30",
        "priceEur": 550000,
        "typeLocal": "Maison",
        "surfaceM2": 47,
        "isVefa": false
      }
    ]
  },
  "afce44348301": {
    "id": "afce44348301",
    "label": "6 RES HETRAIE, Saint-Saëns",
    "lat": 49.676299,
    "lng": 1.291153,
    "transactions": [
      {
        "date": "2021-01-30",
        "priceEur": 92000,
        "typeLocal": "Maison",
        "surfaceM2": 70,
        "isVefa": false
      }
    ]
  },
  "11aa210ec748": {
    "id": "11aa210ec748",
    "label": "19 RUE DU CATELIER, Saint-Saëns",
    "lat": 49.674961,
    "lng": 1.286218,
    "transactions": [
      {
        "date": "2022-09-15",
        "priceEur": 79500,
        "typeLocal": "Maison",
        "surfaceM2": 84,
        "isVefa": false
      },
      {
        "date": "2021-02-18",
        "priceEur": 69000,
        "typeLocal": "Maison",
        "surfaceM2": 84,
        "isVefa": false
      }
    ]
  },
  "a02c50074844": {
    "id": "a02c50074844",
    "label": "41 RUE PAUL LESUEUR, Saint-Saëns",
    "lat": 49.675099,
    "lng": 1.288051,
    "transactions": [
      {
        "date": "2021-03-24",
        "priceEur": 205000,
        "typeLocal": "Maison",
        "surfaceM2": 149,
        "isVefa": false
      }
    ]
  },
  "26f4ed14a62d": {
    "id": "26f4ed14a62d",
    "label": "5079 RTE DE NEUFCHATEL, Saint-Saëns",
    "lat": 49.675133,
    "lng": 1.289026,
    "transactions": [
      {
        "date": "2021-04-13",
        "priceEur": 94050,
        "typeLocal": "Maison",
        "surfaceM2": 82,
        "isVefa": false
      }
    ]
  },
  "93de65750dca": {
    "id": "93de65750dca",
    "label": "35 RUE DU CATELIER, Saint-Saëns",
    "lat": 49.676149,
    "lng": 1.287611,
    "transactions": [
      {
        "date": "2021-05-04",
        "priceEur": 173800,
        "typeLocal": "Appartement",
        "surfaceM2": 46,
        "isVefa": false
      },
      {
        "date": "2021-05-04",
        "priceEur": 173800,
        "typeLocal": "Appartement",
        "surfaceM2": 58,
        "isVefa": false
      },
      {
        "date": "2021-05-04",
        "priceEur": 173800,
        "typeLocal": "Appartement",
        "surfaceM2": 71,
        "isVefa": false
      }
    ]
  },
  "401d083b3bf6": {
    "id": "401d083b3bf6",
    "label": "9 LE TEURTRE, Saint-Saëns",
    "lat": 49.676691,
    "lng": 1.286142,
    "transactions": [
      {
        "date": "2021-06-18",
        "priceEur": 62500,
        "typeLocal": "Maison",
        "surfaceM2": 83,
        "isVefa": false
      }
    ]
  },
  "92f697496b1e": {
    "id": "92f697496b1e",
    "label": "14 RES HETRAIE, Saint-Saëns",
    "lat": 49.676573,
    "lng": 1.292163,
    "transactions": [
      {
        "date": "2021-07-17",
        "priceEur": 93000,
        "typeLocal": "Maison",
        "surfaceM2": 70,
        "isVefa": false
      }
    ]
  },
  "ccbef28c8862": {
    "id": "ccbef28c8862",
    "label": "5065M LOT DU VALLON DE LA HAYE, Saint-Saëns",
    "lat": 49.677158,
    "lng": 1.292184,
    "transactions": [
      {
        "date": "2021-08-23",
        "priceEur": 124000,
        "typeLocal": "Maison",
        "surfaceM2": 111,
        "isVefa": false
      }
    ]
  },
  "af3d90fb8eb4": {
    "id": "af3d90fb8eb4",
    "label": "5053 LE VAL DE BOULOGNE, Saint-Saëns",
    "lat": 49.676391,
    "lng": 1.290861,
    "transactions": [
      {
        "date": "2021-08-20",
        "priceEur": 175000,
        "typeLocal": "Maison",
        "surfaceM2": 75,
        "isVefa": false
      }
    ]
  },
  "2bb072174c38": {
    "id": "2bb072174c38",
    "label": "6280 RUE PAUL LESUEUR, Saint-Saëns",
    "lat": 49.675353,
    "lng": 1.288942,
    "transactions": [
      {
        "date": "2025-02-07",
        "priceEur": 193000,
        "typeLocal": "Maison",
        "surfaceM2": 128,
        "isVefa": false
      },
      {
        "date": "2021-09-17",
        "priceEur": 180000,
        "typeLocal": "Maison",
        "surfaceM2": 128,
        "isVefa": false
      }
    ]
  },
  "87802bc2cfdf": {
    "id": "87802bc2cfdf",
    "label": "12 RES LE CATELIER, Saint-Saëns",
    "lat": 49.677168,
    "lng": 1.288649,
    "transactions": [
      {
        "date": "2022-01-31",
        "priceEur": 85000,
        "typeLocal": "Maison",
        "surfaceM2": 82,
        "isVefa": false
      }
    ]
  },
  "ed57f99c82ff": {
    "id": "ed57f99c82ff",
    "label": "6348 RUE DU HUIT MAI 1945, Saint-Saëns",
    "lat": 49.675702,
    "lng": 1.293533,
    "transactions": [
      {
        "date": "2022-03-21",
        "priceEur": 220000,
        "typeLocal": "Maison",
        "surfaceM2": 106,
        "isVefa": false
      }
    ]
  },
  "ee355cdbdb2e": {
    "id": "ee355cdbdb2e",
    "label": "7 RES HETRAIE, Saint-Saëns",
    "lat": 49.676411,
    "lng": 1.291358,
    "transactions": [
      {
        "date": "2022-05-09",
        "priceEur": 115000,
        "typeLocal": "Maison",
        "surfaceM2": 70,
        "isVefa": false
      }
    ]
  },
  "9dfa73f74ccf": {
    "id": "9dfa73f74ccf",
    "label": "1 RES LE CATELIER, Saint-Saëns",
    "lat": 49.67847,
    "lng": 1.289742,
    "transactions": [
      {
        "date": "2022-08-02",
        "priceEur": 236100,
        "typeLocal": "Maison",
        "surfaceM2": 96,
        "isVefa": false
      }
    ]
  },
  "77e23291a602": {
    "id": "77e23291a602",
    "label": "5042 RUE PAUL LESUEUR, Saint-Saëns",
    "lat": 49.674954,
    "lng": 1.287764,
    "transactions": [
      {
        "date": "2022-09-23",
        "priceEur": 180000,
        "typeLocal": "Maison",
        "surfaceM2": 90,
        "isVefa": false
      }
    ]
  },
  "07b8075cd31b": {
    "id": "07b8075cd31b",
    "label": "5049 LE VAL DE BOULOGNE, Saint-Saëns",
    "lat": 49.676218,
    "lng": 1.29051,
    "transactions": [
      {
        "date": "2023-04-24",
        "priceEur": 140940,
        "typeLocal": "Maison",
        "surfaceM2": 61,
        "isVefa": false
      }
    ]
  },
  "f86c2ba657a8": {
    "id": "f86c2ba657a8",
    "label": "5047 LE VAL DE BOULOGNE, Saint-Saëns",
    "lat": 49.676039,
    "lng": 1.29021,
    "transactions": [
      {
        "date": "2023-03-31",
        "priceEur": 100000,
        "typeLocal": "Maison",
        "surfaceM2": 80,
        "isVefa": false
      }
    ]
  },
  "c824632ef8fe": {
    "id": "c824632ef8fe",
    "label": "87 RUE D HAUSSEZ, Saint-Saëns",
    "lat": 49.678134,
    "lng": 1.285623,
    "transactions": [
      {
        "date": "2024-09-27",
        "priceEur": 120000,
        "typeLocal": "Maison",
        "surfaceM2": 82,
        "isVefa": false
      }
    ]
  },
  "a65f4e428217": {
    "id": "a65f4e428217",
    "label": "6 RUE DU HUIT MAI 1945, Saint-Saëns",
    "lat": 49.675138,
    "lng": 1.292615,
    "transactions": [
      {
        "date": "2024-11-04",
        "priceEur": 136000,
        "typeLocal": "Maison",
        "surfaceM2": 65,
        "isVefa": false
      }
    ]
  },
  "b50bbfbd8c12": {
    "id": "b50bbfbd8c12",
    "label": "5065L LOT DU VALLON DE LA HAYE, Saint-Saëns",
    "lat": 49.677214,
    "lng": 1.291825,
    "transactions": [
      {
        "date": "2024-12-23",
        "priceEur": 145500,
        "typeLocal": "Maison",
        "surfaceM2": 87,
        "isVefa": false
      }
    ]
  },
  "42d02cd64cf7": {
    "id": "42d02cd64cf7",
    "label": "4 RUE DU CATELIER, Saint-Saëns",
    "lat": 49.678896,
    "lng": 1.290696,
    "transactions": [
      {
        "date": "2025-02-13",
        "priceEur": 240000,
        "typeLocal": "Maison",
        "surfaceM2": 133,
        "isVefa": false
      }
    ]
  }
}