{
  "46adf7083a1f": {
    "id": "46adf7083a1f",
    "label": "22 RUE DU TREMBLAY, Rocquemont",
    "lat": 49.59836,
    "lng": 1.291431,
    "transactions": [
      {
        "date": "2020-10-08",
        "priceEur": 186000,
        "typeLocal": "Maison",
        "surfaceM2": 90,
        "isVefa": false
      }
    ]
  },
  "eaab2f21e66e": {
    "id": "eaab2f21e66e",
    "label": "23 RUE DU TREMBLAY, Rocquemont",
    "lat": 49.598428,
    "lng": 1.291766,
    "transactions": [
      {
        "date": "2020-12-22",
        "priceEur": 207200,
        "typeLocal": "Maison",
        "surfaceM2": 102,
        "isVefa": false
      }
    ]
  },
  "1634208da8ca": {
    "id": "1634208da8ca",
    "label": "18 LOT DU FRESNEAU, Rocquemont",
    "lat": 49.599256,
    "lng": 1.291479,
    "transactions": [
      {
        "date": "2021-01-05",
        "priceEur": 224000,
        "typeLocal": "Maison",
        "surfaceM2": 97,
        "isVefa": false
      }
    ]
  },
  "68773093d4e4": {
    "id": "68773093d4e4",
    "label": "327 RUE DU TREMBLAY, Rocquemont",
    "lat": 49.59833,
    "lng": 1.295225,
    "transactions": [
      {
        "date": "2021-06-29",
        "priceEur": 203500,
        "typeLocal": "Maison",
        "surfaceM2": 130,
        "isVefa": false
      }
    ]
  },
  "17db830da8e6": {
    "id": "17db830da8e6",
    "label": "5034 LE BOURG, Rocquemont",
    "lat": 49.602348,
    "lng": 1.286549,
    "transactions": [
      {
        "date": "2022-01-13",
        "priceEur": 100000,
        "typeLocal": "Maison",
        "surfaceM2": 60,
        "isVefa": false
      }
    ]
  },
  "a6756ad65cb3": {
    "id": "a6756ad65cb3",
    "label": "5174 LA MISSION, Rocquemont",
    "lat": 49.601693,
    "lng": 1.291955,
    "transactions": [
      {
        "date": "2022-03-23",
        "priceEur": 237580,
        "typeLocal": "Maison",
        "surfaceM2": 172,
        "isVefa": false
      }
    ]
  },
  "4e7192a9f313": {
    "id": "4e7192a9f313",
    "label": "582 GRANDE RUE, Rocquemont",
    "lat": 49.603527,
    "lng": 1.285997,
    "transactions": [
      {
        "date": "2024-01-23",
        "priceEur": 264000,
        "typeLocal": "Maison",
        "surfaceM2": 119,
        "isVefa": false
      }
    ]
  },
  "378a01ca6427": {
    "id": "378a01ca6427",
    "label": "587 RTE DE ROUEN, Rocquemont",
    "lat": 49.601387,
    "lng": 1.291804,
    "transactions": [
      {
        "date": "2024-01-29",
        "priceEur": 125000,
        "typeLocal": "Maison",
        "surfaceM2": 74,
        "isVefa": false
      }
    ]
  },
  "0a170dc501b3": {
    "id": "0a170dc501b3",
    "label": "435 GRANDE RUE, Rocquemont",
    "lat": 49.603575,
    "lng": 1.287569,
    "transactions": [
      {
        "date": "2024-03-20",
        "priceEur": 196000,
        "typeLocal": "Maison",
        "surfaceM2": 77,
        "isVefa": false
      }
    ]
  },
  "10dc6a73b0c3": {
    "id": "10dc6a73b0c3",
    "label": "789 RTE DE ROUEN, Rocquemont",
    "lat": 49.602563,
    "lng": 1.293393,
    "transactions": [
      {
        "date": "2024-07-08",
        "priceEur": 127500,
        "typeLocal": "Maison",
        "surfaceM2": 119,
        "isVefa": false
      }
    ]
  }
}