{
  "7c7737acc10f": {
    "id": "7c7737acc10f",
    "label": "26 AV DES 13 VENTS, Hérépian",
    "lat": 43.597432,
    "lng": 3.109718,
    "transactions": [
      {
        "date": "2020-12-23",
        "priceEur": 135000,
        "typeLocal": "Maison",
        "surfaceM2": 85,
        "isVefa": false
      },
      {
        "date": "2020-12-23",
        "priceEur": 135000,
        "typeLocal": "Maison",
        "surfaceM2": 85,
        "isVefa": false
      }
    ]
  },
  "3ebe8da18466": {
    "id": "3ebe8da18466",
    "label": "8 CHEM DES VERGERS, Hérépian",
    "lat": 43.596791,
    "lng": 3.117143,
    "transactions": [
      {
        "date": "2021-11-03",
        "priceEur": 193000,
        "typeLocal": "Maison",
        "surfaceM2": 97,
        "isVefa": false
      }
    ]
  },
  "d93a14dd2564": {
    "id": "d93a14dd2564",
    "label": "12B AV RENE CASSIN, Hérépian",
    "lat": 43.596506,
    "lng": 3.116436,
    "transactions": [
      {
        "date": "2021-11-03",
        "priceEur": 240000,
        "typeLocal": "Maison",
        "surfaceM2": 80,
        "isVefa": false
      },
      {
        "date": "2021-11-03",
        "priceEur": 240000,
        "typeLocal": "Maison",
        "surfaceM2": 80,
        "isVefa": false
      }
    ]
  },
  "0241f673927d": {
    "id": "0241f673927d",
    "label": "3 CHE DE LA COUT, Hérépian",
    "lat": 43.596816,
    "lng": 3.110976,
    "transactions": [
      {
        "date": "2022-10-13",
        "priceEur": 170000,
        "typeLocal": "Maison",
        "surfaceM2": 87,
        "isVefa": false
      }
    ]
  },
  "5dfdc8830b22": {
    "id": "5dfdc8830b22",
    "label": "9B AV RENE CASSIN, Hérépian",
    "lat": 43.59684,
    "lng": 3.115837,
    "transactions": [
      {
        "date": "2023-06-01",
        "priceEur": 258000,
        "typeLocal": "Maison",
        "surfaceM2": 111,
        "isVefa": false
      }
    ]
  },
  "e3688500ec65": {
    "id": "e3688500ec65",
    "label": "28 AV DES 13 VENTS, Hérépian",
    "lat": 43.597449,
    "lng": 3.109507,
    "transactions": [
      {
        "date": "2023-12-05",
        "priceEur": 130000,
        "typeLocal": "Maison",
        "surfaceM2": 93,
        "isVefa": false
      },
      {
        "date": "2023-12-05",
        "priceEur": 130000,
        "typeLocal": "Maison",
        "surfaceM2": 93,
        "isVefa": false
      }
    ]
  },
  "58f1cdba33f3": {
    "id": "58f1cdba33f3",
    "label": "5821 LA PRADELE, Hérépian",
    "lat": 43.59755,
    "lng": 3.115195,
    "transactions": [
      {
        "date": "2023-12-21",
        "priceEur": 283510,
        "typeLocal": "Maison",
        "surfaceM2": 99,
        "isVefa": false
      }
    ]
  },
  "e6d00dd25792": {
    "id": "e6d00dd25792",
    "label": "10 CHE DES CERISIERS, Hérépian",
    "lat": 43.598344,
    "lng": 3.114033,
    "transactions": [
      {
        "date": "2024-01-05",
        "priceEur": 110000,
        "typeLocal": "Maison",
        "surfaceM2": 75,
        "isVefa": false
      }
    ]
  },
  "ad47243f3253": {
    "id": "ad47243f3253",
    "label": "14 CHE DES CERISIERS, Hérépian",
    "lat": 43.598014,
    "lng": 3.114176,
    "transactions": [
      {
        "date": "2024-06-25",
        "priceEur": 187000,
        "typeLocal": "Maison",
        "surfaceM2": 71,
        "isVefa": false
      }
    ]
  },
  "f3b17079ccbd": {
    "id": "f3b17079ccbd",
    "label": "5 CHE DES GENETS, Hérépian",
    "lat": 43.598291,
    "lng": 3.109495,
    "transactions": [
      {
        "date": "2024-10-29",
        "priceEur": 316000,
        "typeLocal": "Maison",
        "surfaceM2": 100,
        "isVefa": false
      }
    ]
  },
  "639a3d08e07f": {
    "id": "639a3d08e07f",
    "label": "7 LA COUT, Hérépian",
    "lat": 43.599023,
    "lng": 3.109403,
    "transactions": [
      {
        "date": "2024-12-16",
        "priceEur": 300000,
        "typeLocal": "Maison",
        "surfaceM2": 141,
        "isVefa": false
      }
    ]
  }
}