{
  "37966a37ccba": {
    "id": "37966a37ccba",
    "label": "12 LOT PRADES, Poussan",
    "lat": 43.490899,
    "lng": 3.680424,
    "transactions": [
      {
        "date": "2020-10-06",
        "priceEur": 190000,
        "typeLocal": "Maison",
        "surfaceM2": 80,
        "isVefa": false
      }
    ]
  },
  "029a710ef233": {
    "id": "029a710ef233",
    "label": "5535F CHE STE CATHERINE, Poussan",
    "lat": 43.489264,
    "lng": 3.684428,
    "transactions": [
      {
        "date": "2021-03-29",
        "priceEur": 390000,
        "typeLocal": "Maison",
        "surfaceM2": 104,
        "isVefa": false
      },
      {
        "date": "2021-03-29",
        "priceEur": 390000,
        "typeLocal": "Maison",
        "surfaceM2": 104,
        "isVefa": false
      }
    ]
  },
  "2e0f86e18075": {
    "id": "2e0f86e18075",
    "label": "115K CHE DE LA MOULINE, Poussan",
    "lat": 43.490853,
    "lng": 3.681412,
    "transactions": [
      {
        "date": "2021-06-30",
        "priceEur": 411000,
        "typeLocal": "Maison",
        "surfaceM2": 127,
        "isVefa": false
      }
    ]
  },
  "6245269c9e83": {
    "id": "6245269c9e83",
    "label": "5599F LE GAREL, Poussan",
    "lat": 43.489232,
    "lng": 3.690104,
    "transactions": [
      {
        "date": "2024-10-16",
        "priceEur": 403820,
        "typeLocal": "Maison",
        "surfaceM2": 85,
        "isVefa": false
      },
      {
        "date": "2024-10-16",
        "priceEur": 403820,
        "typeLocal": "Maison",
        "surfaceM2": 85,
        "isVefa": false
      },
      {
        "date": "2024-10-16",
        "priceEur": 403820,
        "typeLocal": "Maison",
        "surfaceM2": 85,
        "isVefa": false
      },
      {
        "date": "2022-06-08",
        "priceEur": 314500,
        "typeLocal": "Maison",
        "surfaceM2": 85,
        "isVefa": false
      },
      {
        "date": "2022-06-08",
        "priceEur": 314500,
        "typeLocal": "Maison",
        "surfaceM2": 85,
        "isVefa": false
      },
      {
        "date": "2022-06-08",
        "priceEur": 314500,
        "typeLocal": "Maison",
        "surfaceM2": 85,
        "isVefa": false
      }
    ]
  },
  "a2ade4e8b000": {
    "id": "a2ade4e8b000",
    "label": "6955F ZI LES TROUYAUX, Poussan",
    "lat": 43.487212,
    "lng": 3.686459,
    "transactions": [
      {
        "date": "2022-08-29",
        "priceEur": 384970,
        "typeLocal": "Appartement",
        "surfaceM2": 59,
        "isVefa": false
      }
    ]
  },
  "fbce3e6eca2a": {
    "id": "fbce3e6eca2a",
    "label": "15 CHE DE LA MOULINE, Poussan",
    "lat": 43.490176,
    "lng": 3.681491,
    "transactions": [
      {
        "date": "2022-09-08",
        "priceEur": 280000,
        "typeLocal": "Maison",
        "surfaceM2": 57,
        "isVefa": false
      }
    ]
  },
  "d67882753b92": {
    "id": "d67882753b92",
    "label": "49 CHE DE LA MOULINE, Poussan",
    "lat": 43.490094,
    "lng": 3.6828,
    "transactions": [
      {
        "date": "2023-08-21",
        "priceEur": 468600,
        "typeLocal": "Maison",
        "surfaceM2": 104,
        "isVefa": false
      }
    ]
  },
  "d287aa1a22cb": {
    "id": "d287aa1a22cb",
    "label": "5749 TARROUSSEL, Poussan",
    "lat": 43.49017,
    "lng": 3.686291,
    "transactions": [
      {
        "date": "2024-08-28",
        "priceEur": 384000,
        "typeLocal": "Maison",
        "surfaceM2": 119,
        "isVefa": false
      }
    ]
  },
  "53e143756c5d": {
    "id": "53e143756c5d",
    "label": "5751 SAINTE-CATHERINE, Poussan",
    "lat": 43.488667,
    "lng": 3.68228,
    "transactions": [
      {
        "date": "2024-11-08",
        "priceEur": 172900,
        "typeLocal": "Maison",
        "surfaceM2": 50,
        "isVefa": false
      }
    ]
  }
}