{
  "c6c40a26a67d": {
    "id": "c6c40a26a67d",
    "label": "36 RUE ARAGO, Loos",
    "lat": 50.617856,
    "lng": 3.012897,
    "transactions": [
      {
        "date": "2022-02-03",
        "priceEur": 300000,
        "typeLocal": "Maison",
        "surfaceM2": 83,
        "isVefa": false
      },
      {
        "date": "2020-07-09",
        "priceEur": 145000,
        "typeLocal": "Maison",
        "surfaceM2": 83,
        "isVefa": false
      }
    ]
  },
  "07f4a836c3d6": {
    "id": "07f4a836c3d6",
    "label": "3 CRS DECOTTIGNIES 48B FOCH, Loos",
    "lat": 50.615622,
    "lng": 3.018344,
    "transactions": [
      {
        "date": "2024-11-04",
        "priceEur": 113300,
        "typeLocal": "Maison",
        "surfaceM2": 39,
        "isVefa": false
      },
      {
        "date": "2020-07-09",
        "priceEur": 87000,
        "typeLocal": "Maison",
        "surfaceM2": 39,
        "isVefa": false
      }
    ]
  },
  "08e70cb0a20c": {
    "id": "08e70cb0a20c",
    "label": "2 CRS DORCHIES 6B MATTEOTI, Loos",
    "lat": 50.61373,
    "lng": 3.016338,
    "transactions": [
      {
        "date": "2020-07-21",
        "priceEur": 111000,
        "typeLocal": "Maison",
        "surfaceM2": 45,
        "isVefa": false
      }
    ]
  },
  "93be99edf48e": {
    "id": "93be99edf48e",
    "label": "28 RUE DU GENERAL LECLERC, Loos",
    "lat": 50.611706,
    "lng": 3.018937,
    "transactions": [
      {
        "date": "2022-02-11",
        "priceEur": 233140,
        "typeLocal": "Maison",
        "surfaceM2": 57,
        "isVefa": false
      },
      {
        "date": "2022-02-11",
        "priceEur": 233140,
        "typeLocal": "Maison",
        "surfaceM2": 45,
        "isVefa": false
      },
      {
        "date": "2020-07-24",
        "priceEur": 155000,
        "typeLocal": "Maison",
        "surfaceM2": 45,
        "isVefa": false
      },
      {
        "date": "2020-07-24",
        "priceEur": 155000,
        "typeLocal": "Maison",
        "surfaceM2": 57,
        "isVefa": false
      }
    ]
  },
  "86f340a360a1": {
    "id": "86f340a360a1",
    "label": "21 RUE LOUIS PASTEUR, Loos",
    "lat": 50.615411,
    "lng": 3.012644,
    "transactions": [
      {
        "date": "2020-07-16",
        "priceEur": 124000,
        "typeLocal": "Maison",
        "surfaceM2": 56,
        "isVefa": false
      }
    ]
  },
  "6cd9f330b7e2": {
    "id": "6cd9f330b7e2",
    "label": "190 RUE DU MARECHAL FOCH, Loos",
    "lat": 50.614641,
    "lng": 3.010412,
    "transactions": [
      {
        "date": "2023-04-25",
        "priceEur": 184000,
        "typeLocal": "Appartement",
        "surfaceM2": 95,
        "isVefa": false
      },
      {
        "date": "2023-03-14",
        "priceEur": 150000,
        "typeLocal": "Appartement",
        "surfaceM2": 183,
        "isVefa": false
      },
      {
        "date": "2022-07-29",
        "priceEur": 175000,
        "typeLocal": "Appartement",
        "surfaceM2": 84,
        "isVefa": false
      },
      {
        "date": "2020-07-10",
        "priceEur": 116000,
        "typeLocal": "Appartement",
        "surfaceM2": 75,
        "isVefa": false
      }
    ]
  },
  "774c601ee5c5": {
    "id": "774c601ee5c5",
    "label": "668 RUE DU BAZINGHIEN, Loos",
    "lat": 50.618009,
    "lng": 3.014175,
    "transactions": [
      {
        "date": "2023-12-04",
        "priceEur": 156850,
        "typeLocal": "Appartement",
        "surfaceM2": 60,
        "isVefa": false
      },
      {
        "date": "2021-08-06",
        "priceEur": 147000,
        "typeLocal": "Appartement",
        "surfaceM2": 56,
        "isVefa": false
      },
      {
        "date": "2020-12-29",
        "priceEur": 127000,
        "typeLocal": "Appartement",
        "surfaceM2": 60,
        "isVefa": false
      },
      {
        "date": "2020-12-23",
        "priceEur": 147000,
        "typeLocal": "Appartement",
        "surfaceM2": 66,
        "isVefa": false
      },
      {
        "date": "2020-10-26",
        "priceEur": 122000,
        "typeLocal": "Appartement",
        "surfaceM2": 48,
        "isVefa": false
      },
      {
        "date": "2020-07-24",
        "priceEur": 132000,
        "typeLocal": "Appartement",
        "surfaceM2": 62,
        "isVefa": false
      }
    ]
  },
  "4b30d059ee82": {
    "id": "4b30d059ee82",
    "label": "284 RUE COL COLONA D ORNANO, Loos",
    "lat": 50.613445,
    "lng": 3.016419,
    "transactions": [
      {
        "date": "2022-06-16",
        "priceEur": 229000,
        "typeLocal": "Maison",
        "surfaceM2": 75,
        "isVefa": false
      },
      {
        "date": "2020-08-06",
        "priceEur": 77500,
        "typeLocal": "Maison",
        "surfaceM2": 75,
        "isVefa": false
      }
    ]
  },
  "f79525990bae": {
    "id": "f79525990bae",
    "label": "2A RUE LEONARD DANEL, Loos",
    "lat": 50.614283,
    "lng": 3.013051,
    "transactions": [
      {
        "date": "2021-09-29",
        "priceEur": 193500,
        "typeLocal": "Maison",
        "surfaceM2": 98,
        "isVefa": false
      },
      {
        "date": "2020-07-24",
        "priceEur": 75000,
        "typeLocal": "Maison",
        "surfaceM2": 98,
        "isVefa": false
      }
    ]
  },
  "ed2bdfb95ab4": {
    "id": "ed2bdfb95ab4",
    "label": "56 RUE DU DOCTEUR CALMETTE, Loos",
    "lat": 50.614217,
    "lng": 3.015122,
    "transactions": [
      {
        "date": "2020-12-17",
        "priceEur": 115000,
        "typeLocal": "Appartement",
        "surfaceM2": 39,
        "isVefa": false
      },
      {
        "date": "2020-08-10",
        "priceEur": 90000,
        "typeLocal": "Appartement",
        "surfaceM2": 41,
        "isVefa": false
      }
    ]
  },
  "3e4bd094c69b": {
    "id": "3e4bd094c69b",
    "label": "17 RUE LOUIS PASTEUR, Loos",
    "lat": 50.61544,
    "lng": 3.012751,
    "transactions": [
      {
        "date": "2020-08-26",
        "priceEur": 175000,
        "typeLocal": "Maison",
        "surfaceM2": 53,
        "isVefa": false
      }
    ]
  },
  "055e205ea394": {
    "id": "055e205ea394",
    "label": "9001 RES CONDORCET, Loos",
    "lat": 50.612265,
    "lng": 3.017822,
    "transactions": [
      {
        "date": "2025-04-30",
        "priceEur": 104000,
        "typeLocal": "Appartement",
        "surfaceM2": 32,
        "isVefa": false
      },
      {
        "date": "2025-01-17",
        "priceEur": 120000,
        "typeLocal": "Appartement",
        "surfaceM2": 57,
        "isVefa": false
      },
      {
        "date": "2024-11-19",
        "priceEur": 125750,
        "typeLocal": "Appartement",
        "surfaceM2": 73,
        "isVefa": false
      },
      {
        "date": "2024-04-08",
        "priceEur": 158000,
        "typeLocal": "Appartement",
        "surfaceM2": 106,
        "isVefa": false
      },
      {
        "date": "2023-06-23",
        "priceEur": 158000,
        "typeLocal": "Appartement",
        "surfaceM2": 73,
        "isVefa": false
      },
      {
        "date": "2023-04-06",
        "priceEur": 70000,
        "typeLocal": "Appartement",
        "surfaceM2": 106,
        "isVefa": false
      },
      {
        "date": "2023-02-09",
        "priceEur": 107300,
        "typeLocal": "Appartement",
        "surfaceM2": 32,
        "isVefa": false
      },
      {
        "date": "2022-09-19",
        "priceEur": 157100,
        "typeLocal": "Appartement",
        "surfaceM2": 73,
        "isVefa": false
      },
      {
        "date": "2021-12-10",
        "priceEur": 153250,
        "typeLocal": "Appartement",
        "surfaceM2": 78,
        "isVefa": false
      },
      {
        "date": "2021-03-05",
        "priceEur": 139200,
        "typeLocal": "Appartement",
        "surfaceM2": 57,
        "isVefa": false
      },
      {
        "date": "2021-01-22",
        "priceEur": 165170,
        "typeLocal": "Appartement",
        "surfaceM2": 73,
        "isVefa": false
      },
      {
        "date": "2020-12-22",
        "priceEur": 93000,
        "typeLocal": "Appartement",
        "surfaceM2": 32,
        "isVefa": false
      },
      {
        "date": "2020-10-13",
        "priceEur": 101500,
        "typeLocal": "Appartement",
        "surfaceM2": 32,
        "isVefa": false
      },
      {
        "date": "2020-08-27",
        "priceEur": 60000,
        "typeLocal": "Appartement",
        "surfaceM2": 32,
        "isVefa": false
      }
    ]
  },
  "70098d26dd88": {
    "id": "70098d26dd88",
    "label": "39 RUE ROGER SALENGRO, Loos",
    "lat": 50.616196,
    "lng": 3.013618,
    "transactions": [
      {
        "date": "2022-11-10",
        "priceEur": 114550,
        "typeLocal": "Appartement",
        "surfaceM2": 33,
        "isVefa": false
      },
      {
        "date": "2021-04-15",
        "priceEur": 95000,
        "typeLocal": "Appartement",
        "surfaceM2": 35,
        "isVefa": false
      },
      {
        "date": "2020-09-04",
        "priceEur": 92000,
        "typeLocal": "Appartement",
        "surfaceM2": 41,
        "isVefa": false
      }
    ]
  },
  "4e939eadb567": {
    "id": "4e939eadb567",
    "label": "2 CRS REMY 1B RUE DANEL, Loos",
    "lat": 50.614329,
    "lng": 3.013558,
    "transactions": [
      {
        "date": "2020-09-07",
        "priceEur": 96500,
        "typeLocal": "Maison",
        "surfaceM2": 50,
        "isVefa": false
      }
    ]
  },
  "f693ad407b25": {
    "id": "f693ad407b25",
    "label": "37 RUE CONDORCET, Loos",
    "lat": 50.611646,
    "lng": 3.017497,
    "transactions": [
      {
        "date": "2020-08-31",
        "priceEur": 190500,
        "typeLocal": "Maison",
        "surfaceM2": 65,
        "isVefa": false
      }
    ]
  },
  "299038337477": {
    "id": "299038337477",
    "label": "22 CRS OLIVIER 77B R FOCH, Loos",
    "lat": 50.61482,
    "lng": 3.018954,
    "transactions": [
      {
        "date": "2020-09-11",
        "priceEur": 122000,
        "typeLocal": "Maison",
        "surfaceM2": 45,
        "isVefa": false
      }
    ]
  },
  "88c305438eaa": {
    "id": "88c305438eaa",
    "label": "55 RUE CONDORCET, Loos",
    "lat": 50.611515,
    "lng": 3.016958,
    "transactions": [
      {
        "date": "2020-09-23",
        "priceEur": 290000,
        "typeLocal": "Maison",
        "surfaceM2": 130,
        "isVefa": false
      }
    ]
  },
  "59f456398ede": {
    "id": "59f456398ede",
    "label": "26 CRS OLIVIER 77B R FOCH, Loos",
    "lat": 50.614967,
    "lng": 3.018897,
    "transactions": [
      {
        "date": "2020-10-01",
        "priceEur": 144500,
        "typeLocal": "Maison",
        "surfaceM2": 49,
        "isVefa": false
      }
    ]
  },
  "ad91125245af": {
    "id": "ad91125245af",
    "label": "121 RUE DU MARECHAL FOCH, Loos",
    "lat": 50.614817,
    "lng": 3.016101,
    "transactions": [
      {
        "date": "2020-09-30",
        "priceEur": 260000,
        "typeLocal": "Appartement",
        "surfaceM2": 25,
        "isVefa": false
      },
      {
        "date": "2020-09-30",
        "priceEur": 260000,
        "typeLocal": "Appartement",
        "surfaceM2": 22,
        "isVefa": false
      }
    ]
  },
  "7fb2c71b73e7": {
    "id": "7fb2c71b73e7",
    "label": "14 RUE NEUVE, Loos",
    "lat": 50.616702,
    "lng": 3.018018,
    "transactions": [
      {
        "date": "2020-10-07",
        "priceEur": 185000,
        "typeLocal": "Maison",
        "surfaceM2": 75,
        "isVefa": false
      }
    ]
  },
  "55c5c748b42e": {
    "id": "55c5c748b42e",
    "label": "33 RUE LOUIS PASTEUR, Loos",
    "lat": 50.615335,
    "lng": 3.012282,
    "transactions": [
      {
        "date": "2020-10-19",
        "priceEur": 218060,
        "typeLocal": "Maison",
        "surfaceM2": 70,
        "isVefa": false
      }
    ]
  },
  "8abb6e2067a3": {
    "id": "8abb6e2067a3",
    "label": "119 RUE DU MARECHAL FOCH, Loos",
    "lat": 50.614875,
    "lng": 3.016193,
    "transactions": [
      {
        "date": "2023-05-23",
        "priceEur": 165375,
        "typeLocal": "Appartement",
        "surfaceM2": 75,
        "isVefa": false
      },
      {
        "date": "2020-10-16",
        "priceEur": 150000,
        "typeLocal": "Appartement",
        "surfaceM2": 75,
        "isVefa": false
      }
    ]
  },
  "88b7ee541aca": {
    "id": "88b7ee541aca",
    "label": "27 RUE JULES GUESDE, Loos",
    "lat": 50.613632,
    "lng": 3.018185,
    "transactions": [
      {
        "date": "2025-04-28",
        "priceEur": 207500,
        "typeLocal": "Appartement",
        "surfaceM2": 69,
        "isVefa": false
      },
      {
        "date": "2024-12-27",
        "priceEur": 229500,
        "typeLocal": "Appartement",
        "surfaceM2": 69,
        "isVefa": false
      },
      {
        "date": "2024-12-27",
        "priceEur": 226500,
        "typeLocal": "Appartement",
        "surfaceM2": 69,
        "isVefa": false
      },
      {
        "date": "2024-12-18",
        "priceEur": 229000,
        "typeLocal": "Appartement",
        "surfaceM2": 67,
        "isVefa": false
      },
      {
        "date": "2024-07-12",
        "priceEur": 175000,
        "typeLocal": "Appartement",
        "surfaceM2": 58,
        "isVefa": false
      },
      {
        "date": "2024-06-27",
        "priceEur": 229500,
        "typeLocal": "Appartement",
        "surfaceM2": 67,
        "isVefa": false
      },
      {
        "date": "2023-12-29",
        "priceEur": 226287,
        "typeLocal": "Appartement",
        "surfaceM2": 69,
        "isVefa": false
      },
      {
        "date": "2021-10-13",
        "priceEur": 124000,
        "typeLocal": "Appartement",
        "surfaceM2": 48,
        "isVefa": false
      },
      {
        "date": "2021-09-22",
        "priceEur": 157000,
        "typeLocal": "Appartement",
        "surfaceM2": 69,
        "isVefa": false
      },
      {
        "date": "2020-09-30",
        "priceEur": 1750000,
        "typeLocal": "Appartement",
        "surfaceM2": 67,
        "isVefa": false
      },
      {
        "date": "2020-09-30",
        "priceEur": 1750000,
        "typeLocal": "Appartement",
        "surfaceM2": 48,
        "isVefa": false
      },
      {
        "date": "2020-09-30",
        "priceEur": 1750000,
        "typeLocal": "Appartement",
        "surfaceM2": 69,
        "isVefa": false
      },
      {
        "date": "2020-09-30",
        "priceEur": 1750000,
        "typeLocal": "Appartement",
        "surfaceM2": 58,
        "isVefa": false
      }
    ]
  },
  "a574c2399b49": {
    "id": "a574c2399b49",
    "label": "8 CITE LECOMTE 72B CALMETTE, Loos",
    "lat": 50.614046,
    "lng": 3.014047,
    "transactions": [
      {
        "date": "2020-10-20",
        "priceEur": 89000,
        "typeLocal": "Maison",
        "surfaceM2": 48,
        "isVefa": false
      }
    ]
  },
  "bd6fe1bb640f": {
    "id": "bd6fe1bb640f",
    "label": "62 BD DE LA REPUBLIQUE, Loos",
    "lat": 50.611371,
    "lng": 3.011863,
    "transactions": [
      {
        "date": "2020-10-09",
        "priceEur": 191000,
        "typeLocal": "Maison",
        "surfaceM2": 79,
        "isVefa": false
      }
    ]
  },
  "a2127fc9552f": {
    "id": "a2127fc9552f",
    "label": "2 RUE CALMETTE CR BLANQUART, Loos",
    "lat": 50.613597,
    "lng": 3.012344,
    "transactions": [
      {
        "date": "2023-09-20",
        "priceEur": 123500,
        "typeLocal": "Maison",
        "surfaceM2": 31,
        "isVefa": false
      },
      {
        "date": "2020-10-23",
        "priceEur": 40001,
        "typeLocal": "Maison",
        "surfaceM2": 31,
        "isVefa": false
      }
    ]
  },
  "d9d1a51e3cc7": {
    "id": "d9d1a51e3cc7",
    "label": "68 RUE LOUIS PASTEUR, Loos",
    "lat": 50.61532,
    "lng": 3.010735,
    "transactions": [
      {
        "date": "2021-07-20",
        "priceEur": 46000,
        "typeLocal": "Appartement",
        "surfaceM2": 31,
        "isVefa": false
      },
      {
        "date": "2021-07-12",
        "priceEur": 60000,
        "typeLocal": "Appartement",
        "surfaceM2": 35,
        "isVefa": false
      },
      {
        "date": "2021-03-29",
        "priceEur": 49000,
        "typeLocal": "Appartement",
        "surfaceM2": 30,
        "isVefa": false
      },
      {
        "date": "2021-01-15",
        "priceEur": 46000,
        "typeLocal": "Appartement",
        "surfaceM2": 32,
        "isVefa": false
      },
      {
        "date": "2021-01-07",
        "priceEur": 114000,
        "typeLocal": "Appartement",
        "surfaceM2": 87,
        "isVefa": false
      },
      {
        "date": "2021-01-04",
        "priceEur": 32000,
        "typeLocal": "Appartement",
        "surfaceM2": 27,
        "isVefa": false
      },
      {
        "date": "2020-12-30",
        "priceEur": 48000,
        "typeLocal": "Appartement",
        "surfaceM2": 22,
        "isVefa": false
      },
      {
        "date": "2020-12-02",
        "priceEur": 89000,
        "typeLocal": "Appartement",
        "surfaceM2": 40,
        "isVefa": false
      },
      {
        "date": "2020-12-02",
        "priceEur": 89000,
        "typeLocal": "Appartement",
        "surfaceM2": 32,
        "isVefa": false
      },
      {
        "date": "2020-11-09",
        "priceEur": 31800,
        "typeLocal": "Appartement",
        "surfaceM2": 24,
        "isVefa": false
      },
      {
        "date": "2020-10-15",
        "priceEur": 60000,
        "typeLocal": "Appartement",
        "surfaceM2": 35,
        "isVefa": false
      }
    ]
  },
  "8089942f6904": {
    "id": "8089942f6904",
    "label": "3 CRS TRACHEZ 1 RUE ZOLA, Loos",
    "lat": 50.614542,
    "lng": 3.014669,
    "transactions": [
      {
        "date": "2020-10-22",
        "priceEur": 111250,
        "typeLocal": "Maison",
        "surfaceM2": 57,
        "isVefa": false
      }
    ]
  },
  "940198fe4a6c": {
    "id": "940198fe4a6c",
    "label": "97 RUE DU DOCTEUR CALMETTE, Loos",
    "lat": 50.613079,
    "lng": 3.011444,
    "transactions": [
      {
        "date": "2020-10-29",
        "priceEur": 184000,
        "typeLocal": "Maison",
        "surfaceM2": 70,
        "isVefa": false
      }
    ]
  },
  "886542c98253": {
    "id": "886542c98253",
    "label": "60 RUE CHARLES DENIS PLATEL, Loos",
    "lat": 50.61123,
    "lng": 3.0169,
    "transactions": [
      {
        "date": "2020-11-06",
        "priceEur": 238500,
        "typeLocal": "Maison",
        "surfaceM2": 66,
        "isVefa": false
      }
    ]
  },
  "0aa460812689": {
    "id": "0aa460812689",
    "label": "5 CRS DECOTTIGNIES 48B FOCH, Loos",
    "lat": 50.615695,
    "lng": 3.018337,
    "transactions": [
      {
        "date": "2020-10-29",
        "priceEur": 95000,
        "typeLocal": "Maison",
        "surfaceM2": 39,
        "isVefa": false
      }
    ]
  },
  "8505989ed513": {
    "id": "8505989ed513",
    "label": "222 AV LELIEVRE, Loos",
    "lat": 50.617252,
    "lng": 3.017579,
    "transactions": [
      {
        "date": "2020-11-13",
        "priceEur": 203000,
        "typeLocal": "Maison",
        "surfaceM2": 76,
        "isVefa": false
      }
    ]
  },
  "38c668ffebee": {
    "id": "38c668ffebee",
    "label": "36 RUE LEON THIRIEZ, Loos",
    "lat": 50.616691,
    "lng": 3.01949,
    "transactions": [
      {
        "date": "2020-11-23",
        "priceEur": 143000,
        "typeLocal": "Maison",
        "surfaceM2": 48,
        "isVefa": false
      }
    ]
  },
  "a20e58488171": {
    "id": "a20e58488171",
    "label": "3 RUE DANTON, Loos",
    "lat": 50.612524,
    "lng": 3.018055,
    "transactions": [
      {
        "date": "2020-11-17",
        "priceEur": 102000,
        "typeLocal": "Maison",
        "surfaceM2": 57,
        "isVefa": false
      }
    ]
  },
  "588861131343": {
    "id": "588861131343",
    "label": "9001 PAV GERMINAL RUE LECLERC, Loos",
    "lat": 50.611784,
    "lng": 3.020249,
    "transactions": [
      {
        "date": "2025-04-17",
        "priceEur": 110000,
        "typeLocal": "Appartement",
        "surfaceM2": 55,
        "isVefa": false
      },
      {
        "date": "2023-12-26",
        "priceEur": 85000,
        "typeLocal": "Appartement",
        "surfaceM2": 55,
        "isVefa": false
      },
      {
        "date": "2023-08-21",
        "priceEur": 143500,
        "typeLocal": "Appartement",
        "surfaceM2": 55,
        "isVefa": false
      },
      {
        "date": "2022-12-14",
        "priceEur": 103700,
        "typeLocal": "Appartement",
        "surfaceM2": 55,
        "isVefa": false
      },
      {
        "date": "2021-09-15",
        "priceEur": 103000,
        "typeLocal": "Appartement",
        "surfaceM2": 55,
        "isVefa": false
      },
      {
        "date": "2021-09-02",
        "priceEur": 120100,
        "typeLocal": "Appartement",
        "surfaceM2": 55,
        "isVefa": false
      },
      {
        "date": "2021-05-18",
        "priceEur": 108000,
        "typeLocal": "Appartement",
        "surfaceM2": 55,
        "isVefa": false
      },
      {
        "date": "2020-12-11",
        "priceEur": 70000,
        "typeLocal": "Appartement",
        "surfaceM2": 44,
        "isVefa": false
      },
      {
        "date": "2020-12-04",
        "priceEur": 82000,
        "typeLocal": "Appartement",
        "surfaceM2": 55,
        "isVefa": false
      },
      {
        "date": "2020-11-19",
        "priceEur": 110500,
        "typeLocal": "Appartement",
        "surfaceM2": 44,
        "isVefa": false
      }
    ]
  },
  "82c99cd4b06d": {
    "id": "82c99cd4b06d",
    "label": "7 CRS DEMUYNCK 41B LECLERC, Loos",
    "lat": 50.612233,
    "lng": 3.02026,
    "transactions": [
      {
        "date": "2020-11-20",
        "priceEur": 197370,
        "typeLocal": "Maison",
        "surfaceM2": 80,
        "isVefa": false
      }
    ]
  },
  "094dd6104065": {
    "id": "094dd6104065",
    "label": "275 PAV CIL RUE LELIEVRE, Loos",
    "lat": 50.617708,
    "lng": 3.016813,
    "transactions": [
      {
        "date": "2024-12-30",
        "priceEur": 41500,
        "typeLocal": "Appartement",
        "surfaceM2": 53,
        "isVefa": false
      },
      {
        "date": "2024-03-08",
        "priceEur": 83000,
        "typeLocal": "Appartement",
        "surfaceM2": 53,
        "isVefa": false
      },
      {
        "date": "2022-03-04",
        "priceEur": 74000,
        "typeLocal": "Appartement",
        "surfaceM2": 42,
        "isVefa": false
      },
      {
        "date": "2020-11-09",
        "priceEur": 78200,
        "typeLocal": "Appartement",
        "surfaceM2": 53,
        "isVefa": false
      }
    ]
  },
  "9ca004f769ac": {
    "id": "9ca004f769ac",
    "label": "79 RUE DU MARECHAL FOCH, Loos",
    "lat": 50.615208,
    "lng": 3.018706,
    "transactions": [
      {
        "date": "2022-01-26",
        "priceEur": 159000,
        "typeLocal": "Appartement",
        "surfaceM2": 60,
        "isVefa": false
      },
      {
        "date": "2020-11-26",
        "priceEur": 100560,
        "typeLocal": "Appartement",
        "surfaceM2": 42,
        "isVefa": false
      }
    ]
  },
  "2624be6ef86a": {
    "id": "2624be6ef86a",
    "label": "14 RUE LEON GAMBETTA, Loos",
    "lat": 50.617502,
    "lng": 3.012413,
    "transactions": [
      {
        "date": "2020-12-11",
        "priceEur": 154000,
        "typeLocal": "Maison",
        "surfaceM2": 72,
        "isVefa": false
      }
    ]
  },
  "afcba0df610e": {
    "id": "afcba0df610e",
    "label": "16 RUE LEON THIRIEZ, Loos",
    "lat": 50.616317,
    "lng": 3.019676,
    "transactions": [
      {
        "date": "2023-05-25",
        "priceEur": 193157,
        "typeLocal": "Maison",
        "surfaceM2": 55,
        "isVefa": false
      },
      {
        "date": "2020-12-01",
        "priceEur": 120000,
        "typeLocal": "Maison",
        "surfaceM2": 55,
        "isVefa": false
      }
    ]
  },
  "5e486ae1ea75": {
    "id": "5e486ae1ea75",
    "label": "27 RUE DU GENERAL LECLERC, Loos",
    "lat": 50.612156,
    "lng": 3.019356,
    "transactions": [
      {
        "date": "2021-08-31",
        "priceEur": 135000,
        "typeLocal": "Maison",
        "surfaceM2": 58,
        "isVefa": false
      },
      {
        "date": "2020-11-26",
        "priceEur": 314300,
        "typeLocal": "Appartement",
        "surfaceM2": 27,
        "isVefa": false
      },
      {
        "date": "2020-11-26",
        "priceEur": 314300,
        "typeLocal": "Appartement",
        "surfaceM2": 36,
        "isVefa": false
      },
      {
        "date": "2020-11-26",
        "priceEur": 314300,
        "typeLocal": "Appartement",
        "surfaceM2": 25,
        "isVefa": false
      },
      {
        "date": "2020-11-26",
        "priceEur": 314300,
        "typeLocal": "Appartement",
        "surfaceM2": 30,
        "isVefa": false
      },
      {
        "date": "2020-11-26",
        "priceEur": 314300,
        "typeLocal": "Appartement",
        "surfaceM2": 35,
        "isVefa": false
      }
    ]
  },
  "b0e8a7239fa3": {
    "id": "b0e8a7239fa3",
    "label": "2 RUE WACQUEZ LALO, Loos",
    "lat": 50.615431,
    "lng": 3.017319,
    "transactions": [
      {
        "date": "2023-12-13",
        "priceEur": 88950,
        "typeLocal": "Appartement",
        "surfaceM2": 86,
        "isVefa": false
      },
      {
        "date": "2020-12-18",
        "priceEur": 189560,
        "typeLocal": "Appartement",
        "surfaceM2": 93,
        "isVefa": false
      }
    ]
  },
  "168a3e0fae03": {
    "id": "168a3e0fae03",
    "label": "1 RUE DANTON, Loos",
    "lat": 50.612544,
    "lng": 3.018096,
    "transactions": [
      {
        "date": "2020-12-23",
        "priceEur": 102000,
        "typeLocal": "Maison",
        "surfaceM2": 57,
        "isVefa": false
      }
    ]
  },
  "328c75f26ae1": {
    "id": "328c75f26ae1",
    "label": "319 AV GEORGES DUPONT, Loos",
    "lat": 50.613289,
    "lng": 3.019813,
    "transactions": [
      {
        "date": "2023-07-17",
        "priceEur": 124000,
        "typeLocal": "Appartement",
        "surfaceM2": 45,
        "isVefa": false
      },
      {
        "date": "2022-07-29",
        "priceEur": 140000,
        "typeLocal": "Appartement",
        "surfaceM2": 45,
        "isVefa": false
      },
      {
        "date": "2022-05-18",
        "priceEur": 146500,
        "typeLocal": "Appartement",
        "surfaceM2": 51,
        "isVefa": false
      },
      {
        "date": "2020-12-15",
        "priceEur": 140000,
        "typeLocal": "Appartement",
        "surfaceM2": 66,
        "isVefa": false
      },
      {
        "date": "2020-12-14",
        "priceEur": 182000,
        "typeLocal": "Appartement",
        "surfaceM2": 66,
        "isVefa": false
      }
    ]
  },
  "6462b4247ee7": {
    "id": "6462b4247ee7",
    "label": "29 RUE DU MARECHAL FOCH, Loos",
    "lat": 50.61548,
    "lng": 3.021186,
    "transactions": [
      {
        "date": "2020-12-30",
        "priceEur": 275000,
        "typeLocal": "Appartement",
        "surfaceM2": 112,
        "isVefa": false
      },
      {
        "date": "2020-12-30",
        "priceEur": 275000,
        "typeLocal": "Appartement",
        "surfaceM2": 62,
        "isVefa": false
      }
    ]
  },
  "5e1f00f6b1bc": {
    "id": "5e1f00f6b1bc",
    "label": "51 AV LELIEVRE, Loos",
    "lat": 50.615729,
    "lng": 3.017761,
    "transactions": [
      {
        "date": "2021-01-08",
        "priceEur": 158000,
        "typeLocal": "Maison",
        "surfaceM2": 88,
        "isVefa": false
      }
    ]
  },
  "6ccc15754d2e": {
    "id": "6ccc15754d2e",
    "label": "301 PAV CIL RUE LELIEVRE, Loos",
    "lat": 50.617708,
    "lng": 3.016813,
    "transactions": [
      {
        "date": "2021-09-10",
        "priceEur": 130000,
        "typeLocal": "Appartement",
        "surfaceM2": 53,
        "isVefa": false
      },
      {
        "date": "2021-01-13",
        "priceEur": 131500,
        "typeLocal": "Appartement",
        "surfaceM2": 53,
        "isVefa": false
      }
    ]
  },
  "62e0620eb813": {
    "id": "62e0620eb813",
    "label": "194 AV LELIEVRE, Loos",
    "lat": 50.616993,
    "lng": 3.017647,
    "transactions": [
      {
        "date": "2021-01-20",
        "priceEur": 216000,
        "typeLocal": "Maison",
        "surfaceM2": 80,
        "isVefa": false
      }
    ]
  },
  "2ad03d1c17d9": {
    "id": "2ad03d1c17d9",
    "label": "19 RUE LEON THIRIEZ, Loos",
    "lat": 50.616299,
    "lng": 3.019146,
    "transactions": [
      {
        "date": "2021-01-11",
        "priceEur": 157500,
        "typeLocal": "Maison",
        "surfaceM2": 83,
        "isVefa": false
      }
    ]
  },
  "8cdaa7506eca": {
    "id": "8cdaa7506eca",
    "label": "182 RUE DU MARECHAL FOCH, Loos",
    "lat": 50.614595,
    "lng": 3.011304,
    "transactions": [
      {
        "date": "2023-03-23",
        "priceEur": 889000,
        "typeLocal": "Maison",
        "surfaceM2": 86,
        "isVefa": false
      },
      {
        "date": "2021-01-18",
        "priceEur": 160000,
        "typeLocal": "Maison",
        "surfaceM2": 86,
        "isVefa": false
      }
    ]
  },
  "bedd0c74a68f": {
    "id": "bedd0c74a68f",
    "label": "31 RUE LEON THIRIEZ, Loos",
    "lat": 50.616524,
    "lng": 3.019036,
    "transactions": [
      {
        "date": "2021-01-22",
        "priceEur": 125200,
        "typeLocal": "Maison",
        "surfaceM2": 58,
        "isVefa": false
      }
    ]
  },
  "5478fca871ae": {
    "id": "5478fca871ae",
    "label": "7 CRS DECOTTIGNIES 48B FOCH, Loos",
    "lat": 50.615756,
    "lng": 3.01831,
    "transactions": [
      {
        "date": "2021-01-26",
        "priceEur": 86000,
        "typeLocal": "Maison",
        "surfaceM2": 39,
        "isVefa": false
      }
    ]
  },
  "5eb1900a887a": {
    "id": "5eb1900a887a",
    "label": "36 RUE LOUIS PASTEUR, Loos",
    "lat": 50.615643,
    "lng": 3.011909,
    "transactions": [
      {
        "date": "2024-11-21",
        "priceEur": 203000,
        "typeLocal": "Maison",
        "surfaceM2": 72,
        "isVefa": false
      },
      {
        "date": "2021-01-29",
        "priceEur": 192000,
        "typeLocal": "Maison",
        "surfaceM2": 72,
        "isVefa": false
      }
    ]
  },
  "189da98aabe6": {
    "id": "189da98aabe6",
    "label": "135 RUE DU MARECHAL FOCH, Loos",
    "lat": 50.614217,
    "lng": 3.015122,
    "transactions": [
      {
        "date": "2024-06-21",
        "priceEur": 253450,
        "typeLocal": "Appartement",
        "surfaceM2": 98,
        "isVefa": false
      },
      {
        "date": "2024-03-27",
        "priceEur": 155900,
        "typeLocal": "Appartement",
        "surfaceM2": 59,
        "isVefa": false
      },
      {
        "date": "2023-09-28",
        "priceEur": 7000,
        "typeLocal": "Appartement",
        "surfaceM2": 49,
        "isVefa": false
      },
      {
        "date": "2023-08-30",
        "priceEur": 7000,
        "typeLocal": "Appartement",
        "surfaceM2": 49,
        "isVefa": false
      },
      {
        "date": "2022-11-22",
        "priceEur": 215000,
        "typeLocal": "Appartement",
        "surfaceM2": 72,
        "isVefa": false
      },
      {
        "date": "2022-07-11",
        "priceEur": 257500,
        "typeLocal": "Appartement",
        "surfaceM2": 99,
        "isVefa": false
      },
      {
        "date": "2021-10-01",
        "priceEur": 203000,
        "typeLocal": "Appartement",
        "surfaceM2": 71,
        "isVefa": false
      },
      {
        "date": "2021-07-23",
        "priceEur": 229000,
        "typeLocal": "Appartement",
        "surfaceM2": 72,
        "isVefa": false
      },
      {
        "date": "2021-06-16",
        "priceEur": 227800,
        "typeLocal": "Appartement",
        "surfaceM2": 83,
        "isVefa": false
      },
      {
        "date": "2021-05-12",
        "priceEur": 162000,
        "typeLocal": "Appartement",
        "surfaceM2": 89,
        "isVefa": false
      },
      {
        "date": "2021-01-15",
        "priceEur": 155000,
        "typeLocal": "Appartement",
        "surfaceM2": 85,
        "isVefa": false
      },
      {
        "date": "2021-01-15",
        "priceEur": 155000,
        "typeLocal": "Appartement",
        "surfaceM2": 49,
        "isVefa": false
      }
    ]
  },
  "fde60b164100": {
    "id": "fde60b164100",
    "label": "209 RUE DU MARECHAL FOCH, Loos",
    "lat": 50.613935,
    "lng": 3.010574,
    "transactions": [
      {
        "date": "2021-01-29",
        "priceEur": 450000,
        "typeLocal": "Maison",
        "surfaceM2": 216,
        "isVefa": false
      }
    ]
  },
  "040bcda253f7": {
    "id": "040bcda253f7",
    "label": "202 AV LELIEVRE, Loos",
    "lat": 50.617062,
    "lng": 3.017599,
    "transactions": [
      {
        "date": "2021-02-25",
        "priceEur": 164800,
        "typeLocal": "Maison",
        "surfaceM2": 97,
        "isVefa": false
      }
    ]
  },
  "3a220de4224e": {
    "id": "3a220de4224e",
    "label": "10 RUE NEUVE, Loos",
    "lat": 50.616665,
    "lng": 3.017894,
    "transactions": [
      {
        "date": "2021-02-26",
        "priceEur": 246500,
        "typeLocal": "Maison",
        "surfaceM2": 76,
        "isVefa": false
      }
    ]
  },
  "cbefa23fb8b2": {
    "id": "cbefa23fb8b2",
    "label": "45 RUE GEORGES CLEMENCEAU, Loos",
    "lat": 50.614641,
    "lng": 3.010412,
    "transactions": [
      {
        "date": "2023-08-31",
        "priceEur": 178000,
        "typeLocal": "Appartement",
        "surfaceM2": 84,
        "isVefa": false
      },
      {
        "date": "2023-03-24",
        "priceEur": 143900,
        "typeLocal": "Appartement",
        "surfaceM2": 75,
        "isVefa": false
      },
      {
        "date": "2022-09-29",
        "priceEur": 135000,
        "typeLocal": "Appartement",
        "surfaceM2": 72,
        "isVefa": false
      },
      {
        "date": "2021-09-24",
        "priceEur": 140000,
        "typeLocal": "Appartement",
        "surfaceM2": 84,
        "isVefa": false
      },
      {
        "date": "2021-05-19",
        "priceEur": 130000,
        "typeLocal": "Appartement",
        "surfaceM2": 75,
        "isVefa": false
      },
      {
        "date": "2021-03-17",
        "priceEur": 115000,
        "typeLocal": "Appartement",
        "surfaceM2": 75,
        "isVefa": false
      }
    ]
  },
  "bab5605f17a8": {
    "id": "bab5605f17a8",
    "label": "18 RUE ERNEST COUTEAUX, Loos",
    "lat": 50.611357,
    "lng": 3.010793,
    "transactions": [
      {
        "date": "2021-03-08",
        "priceEur": 231000,
        "typeLocal": "Maison",
        "surfaceM2": 86,
        "isVefa": false
      }
    ]
  },
  "5717198a19ad": {
    "id": "5717198a19ad",
    "label": "66 RUE LOUIS PASTEUR, Loos",
    "lat": 50.615376,
    "lng": 3.010844,
    "transactions": [
      {
        "date": "2021-03-12",
        "priceEur": 90000,
        "typeLocal": "Maison",
        "surfaceM2": 68,
        "isVefa": false
      }
    ]
  },
  "22b63c06fa9a": {
    "id": "22b63c06fa9a",
    "label": "273 AV GEORGES DUPONT, Loos",
    "lat": 50.613289,
    "lng": 3.019813,
    "transactions": [
      {
        "date": "2024-11-08",
        "priceEur": 178000,
        "typeLocal": "Appartement",
        "surfaceM2": 62,
        "isVefa": false
      },
      {
        "date": "2024-05-29",
        "priceEur": 166000,
        "typeLocal": "Appartement",
        "surfaceM2": 69,
        "isVefa": false
      },
      {
        "date": "2022-02-11",
        "priceEur": 173500,
        "typeLocal": "Appartement",
        "surfaceM2": 62,
        "isVefa": false
      },
      {
        "date": "2021-12-02",
        "priceEur": 228850,
        "typeLocal": "Appartement",
        "surfaceM2": 96,
        "isVefa": false
      },
      {
        "date": "2021-07-26",
        "priceEur": 152500,
        "typeLocal": "Appartement",
        "surfaceM2": 65,
        "isVefa": false
      },
      {
        "date": "2021-05-10",
        "priceEur": 113000,
        "typeLocal": "Appartement",
        "surfaceM2": 44,
        "isVefa": false
      },
      {
        "date": "2021-03-15",
        "priceEur": 103000,
        "typeLocal": "Appartement",
        "surfaceM2": 42,
        "isVefa": false
      }
    ]
  },
  "72350efc01dc": {
    "id": "72350efc01dc",
    "label": "189B RES FOCH, Loos",
    "lat": 50.614231,
    "lng": 3.012763,
    "transactions": [
      {
        "date": "2025-04-11",
        "priceEur": 173000,
        "typeLocal": "Appartement",
        "surfaceM2": 80,
        "isVefa": false
      },
      {
        "date": "2024-01-09",
        "priceEur": 153500,
        "typeLocal": "Appartement",
        "surfaceM2": 63,
        "isVefa": false
      },
      {
        "date": "2022-11-15",
        "priceEur": 137500,
        "typeLocal": "Appartement",
        "surfaceM2": 90,
        "isVefa": false
      },
      {
        "date": "2022-09-08",
        "priceEur": 136000,
        "typeLocal": "Appartement",
        "surfaceM2": 80,
        "isVefa": false
      },
      {
        "date": "2022-08-12",
        "priceEur": 110000,
        "typeLocal": "Appartement",
        "surfaceM2": 63,
        "isVefa": false
      },
      {
        "date": "2022-05-20",
        "priceEur": 153000,
        "typeLocal": "Appartement",
        "surfaceM2": 80,
        "isVefa": false
      },
      {
        "date": "2021-03-18",
        "priceEur": 155000,
        "typeLocal": "Appartement",
        "surfaceM2": 63,
        "isVefa": false
      }
    ]
  },
  "9c3342639ca8": {
    "id": "9c3342639ca8",
    "label": "67 RUE DU DOCTEUR CALMETTE, Loos",
    "lat": 50.613688,
    "lng": 3.01492,
    "transactions": [
      {
        "date": "2021-04-27",
        "priceEur": 102000,
        "typeLocal": "Maison",
        "surfaceM2": 67,
        "isVefa": false
      }
    ]
  },
  "79ddc1fc755f": {
    "id": "79ddc1fc755f",
    "label": "50 RUE LEON THIRIEZ, Loos",
    "lat": 50.617556,
    "lng": 3.019102,
    "transactions": [
      {
        "date": "2021-04-28",
        "priceEur": 184000,
        "typeLocal": "Maison",
        "surfaceM2": 62,
        "isVefa": false
      }
    ]
  },
  "621c4a904a63": {
    "id": "621c4a904a63",
    "label": "4 CRS DECOTTIGNIES 48B FOCH, Loos",
    "lat": 50.615658,
    "lng": 3.018335,
    "transactions": [
      {
        "date": "2021-04-29",
        "priceEur": 58000,
        "typeLocal": "Maison",
        "surfaceM2": 39,
        "isVefa": false
      }
    ]
  },
  "536762695ca4": {
    "id": "536762695ca4",
    "label": "30 RUE NEUVE, Loos",
    "lat": 50.616819,
    "lng": 3.018664,
    "transactions": [
      {
        "date": "2021-05-04",
        "priceEur": 179000,
        "typeLocal": "Maison",
        "surfaceM2": 76,
        "isVefa": false
      }
    ]
  },
  "26dd6420fa29": {
    "id": "26dd6420fa29",
    "label": "23 RUE DU DOCTEUR CALMETTE, Loos",
    "lat": 50.61386,
    "lng": 3.016285,
    "transactions": [
      {
        "date": "2021-05-03",
        "priceEur": 185000,
        "typeLocal": "Maison",
        "surfaceM2": 80,
        "isVefa": false
      }
    ]
  },
  "2555ea341326": {
    "id": "2555ea341326",
    "label": "8 CRS DORCHIES 29B CALMETTE, Loos",
    "lat": 50.613617,
    "lng": 3.015949,
    "transactions": [
      {
        "date": "2021-04-16",
        "priceEur": 116000,
        "typeLocal": "Maison",
        "surfaceM2": 37,
        "isVefa": false
      }
    ]
  },
  "58ae0933bf94": {
    "id": "58ae0933bf94",
    "label": "304 RUE COL COLONA D ORNANO, Loos",
    "lat": 50.613503,
    "lng": 3.016168,
    "transactions": [
      {
        "date": "2021-05-12",
        "priceEur": 208000,
        "typeLocal": "Maison",
        "surfaceM2": 82,
        "isVefa": false
      }
    ]
  },
  "0c69384b4a4c": {
    "id": "0c69384b4a4c",
    "label": "9 RUE CHARLES DENIS PLATEL, Loos",
    "lat": 50.611262,
    "lng": 3.01842,
    "transactions": [
      {
        "date": "2021-05-07",
        "priceEur": 157000,
        "typeLocal": "Maison",
        "surfaceM2": 55,
        "isVefa": false
      }
    ]
  },
  "ea16f17e9afd": {
    "id": "ea16f17e9afd",
    "label": "4 CRS WOUTERS 5 R FERRER, Loos",
    "lat": 50.613643,
    "lng": 3.011786,
    "transactions": [
      {
        "date": "2021-05-11",
        "priceEur": 84000,
        "typeLocal": "Maison",
        "surfaceM2": 42,
        "isVefa": false
      }
    ]
  },
  "e3b0c24c3d0d": {
    "id": "e3b0c24c3d0d",
    "label": "2B RUE EMILE ZOLA, Loos",
    "lat": 50.614398,
    "lng": 3.01416,
    "transactions": [
      {
        "date": "2021-05-10",
        "priceEur": 341600,
        "typeLocal": "Maison",
        "surfaceM2": 129,
        "isVefa": false
      }
    ]
  },
  "8a5ca11263fd": {
    "id": "8a5ca11263fd",
    "label": "5 RUE SAINTE ANNE, Loos",
    "lat": 50.611428,
    "lng": 3.020602,
    "transactions": [
      {
        "date": "2024-01-18",
        "priceEur": 87400,
        "typeLocal": "Appartement",
        "surfaceM2": 48,
        "isVefa": false
      },
      {
        "date": "2023-03-22",
        "priceEur": 101200,
        "typeLocal": "Appartement",
        "surfaceM2": 40,
        "isVefa": false
      },
      {
        "date": "2022-09-19",
        "priceEur": 110000,
        "typeLocal": "Appartement",
        "surfaceM2": 48,
        "isVefa": false
      },
      {
        "date": "2022-08-24",
        "priceEur": 100000,
        "typeLocal": "Appartement",
        "surfaceM2": 48,
        "isVefa": false
      },
      {
        "date": "2022-08-18",
        "priceEur": 95000,
        "typeLocal": "Appartement",
        "surfaceM2": 48,
        "isVefa": false
      },
      {
        "date": "2021-10-26",
        "priceEur": 48000,
        "typeLocal": "Appartement",
        "surfaceM2": 25,
        "isVefa": false
      },
      {
        "date": "2021-09-13",
        "priceEur": 68000,
        "typeLocal": "Appartement",
        "surfaceM2": 25,
        "isVefa": false
      },
      {
        "date": "2021-05-19",
        "priceEur": 84000,
        "typeLocal": "Appartement",
        "surfaceM2": 40,
        "isVefa": false
      }
    ]
  },
  "8b19cbe11371": {
    "id": "8b19cbe11371",
    "label": "9001 RES CHAMPAGNE, Loos",
    "lat": 50.614939,
    "lng": 3.02106,
    "transactions": [
      {
        "date": "2024-06-14",
        "priceEur": 63000,
        "typeLocal": "Appartement",
        "surfaceM2": 48,
        "isVefa": false
      },
      {
        "date": "2024-06-05",
        "priceEur": 85000,
        "typeLocal": "Appartement",
        "surfaceM2": 28,
        "isVefa": false
      },
      {
        "date": "2023-01-05",
        "priceEur": 74000,
        "typeLocal": "Appartement",
        "surfaceM2": 28,
        "isVefa": false
      },
      {
        "date": "2022-02-02",
        "priceEur": 77250,
        "typeLocal": "Appartement",
        "surfaceM2": 27,
        "isVefa": false
      },
      {
        "date": "2021-05-18",
        "priceEur": 65500,
        "typeLocal": "Appartement",
        "surfaceM2": 28,
        "isVefa": false
      }
    ]
  },
  "e700ef234825": {
    "id": "e700ef234825",
    "label": "9002 RUE DENIS PAPIN, Loos",
    "lat": 50.613251,
    "lng": 3.017678,
    "transactions": [
      {
        "date": "2021-05-07",
        "priceEur": 118500,
        "typeLocal": "Appartement",
        "surfaceM2": 55,
        "isVefa": false
      }
    ]
  },
  "ead91fe59cae": {
    "id": "ead91fe59cae",
    "label": "286 AV LELIEVRE, Loos",
    "lat": 50.617825,
    "lng": 3.017363,
    "transactions": [
      {
        "date": "2021-05-31",
        "priceEur": 300000,
        "typeLocal": "Maison",
        "surfaceM2": 102,
        "isVefa": false
      }
    ]
  },
  "095db975cf79": {
    "id": "095db975cf79",
    "label": "15 RUE CHARLES DENIS PLATEL, Loos",
    "lat": 50.61122,
    "lng": 3.018275,
    "transactions": [
      {
        "date": "2021-06-24",
        "priceEur": 117000,
        "typeLocal": "Maison",
        "surfaceM2": 53,
        "isVefa": false
      }
    ]
  },
  "7c2eb649b6f8": {
    "id": "7c2eb649b6f8",
    "label": "307 AV GEORGES DUPONT, Loos",
    "lat": 50.613289,
    "lng": 3.019813,
    "transactions": [
      {
        "date": "2024-02-05",
        "priceEur": 123000,
        "typeLocal": "Appartement",
        "surfaceM2": 49,
        "isVefa": false
      },
      {
        "date": "2022-02-21",
        "priceEur": 213801.98,
        "typeLocal": "Appartement",
        "surfaceM2": 77,
        "isVefa": false
      },
      {
        "date": "2022-02-02",
        "priceEur": 134500,
        "typeLocal": "Appartement",
        "surfaceM2": 49,
        "isVefa": false
      },
      {
        "date": "2021-06-28",
        "priceEur": 158500,
        "typeLocal": "Appartement",
        "surfaceM2": 61,
        "isVefa": false
      }
    ]
  },
  "76fc595ba180": {
    "id": "76fc595ba180",
    "label": "289 PAV CIL RUE LELIEVRE, Loos",
    "lat": 50.617708,
    "lng": 3.016813,
    "transactions": [
      {
        "date": "2024-12-03",
        "priceEur": 89000,
        "typeLocal": "Appartement",
        "surfaceM2": 53,
        "isVefa": false
      },
      {
        "date": "2021-08-27",
        "priceEur": 111900,
        "typeLocal": "Appartement",
        "surfaceM2": 42,
        "isVefa": false
      },
      {
        "date": "2021-06-28",
        "priceEur": 118000,
        "typeLocal": "Appartement",
        "surfaceM2": 53,
        "isVefa": false
      }
    ]
  },
  "afe5878cad81": {
    "id": "afe5878cad81",
    "label": "43 RUE LOUIS PASTEUR, Loos",
    "lat": 50.615251,
    "lng": 3.01179,
    "transactions": [
      {
        "date": "2021-06-30",
        "priceEur": 223300,
        "typeLocal": "Maison",
        "surfaceM2": 72,
        "isVefa": false
      }
    ]
  },
  "a57c206fea4b": {
    "id": "a57c206fea4b",
    "label": "1 PL CARNOT, Loos",
    "lat": 50.616811,
    "lng": 3.013436,
    "transactions": [
      {
        "date": "2021-07-07",
        "priceEur": 385300,
        "typeLocal": "Maison",
        "surfaceM2": 124,
        "isVefa": false
      }
    ]
  },
  "a3c7beb91206": {
    "id": "a3c7beb91206",
    "label": "87 RUE DU MARECHAL FOCH, Loos",
    "lat": 50.614898,
    "lng": 3.017931,
    "transactions": [
      {
        "date": "2021-06-29",
        "priceEur": 376800,
        "typeLocal": "Maison",
        "surfaceM2": 84,
        "isVefa": false
      }
    ]
  },
  "768ec6f24a8a": {
    "id": "768ec6f24a8a",
    "label": "205 RUE DU MARECHAL FOCH, Loos",
    "lat": 50.613904,
    "lng": 3.010849,
    "transactions": [
      {
        "date": "2022-02-02",
        "priceEur": 107000,
        "typeLocal": "Appartement",
        "surfaceM2": 50,
        "isVefa": false
      },
      {
        "date": "2021-06-24",
        "priceEur": 130000,
        "typeLocal": "Appartement",
        "surfaceM2": 100,
        "isVefa": false
      }
    ]
  },
  "1d32f0ea3704": {
    "id": "1d32f0ea3704",
    "label": "199 RUE COL COLONA D ORNANO, Loos",
    "lat": 50.613251,
    "lng": 3.017678,
    "transactions": [
      {
        "date": "2021-07-22",
        "priceEur": 71000,
        "typeLocal": "Appartement",
        "surfaceM2": 37,
        "isVefa": false
      }
    ]
  },
  "ba94688cdd7f": {
    "id": "ba94688cdd7f",
    "label": "15 RUE DU DOCTEUR CALMETTE, Loos",
    "lat": 50.613961,
    "lng": 3.016697,
    "transactions": [
      {
        "date": "2021-07-20",
        "priceEur": 229000,
        "typeLocal": "Maison",
        "surfaceM2": 74,
        "isVefa": false
      }
    ]
  },
  "d72fee40ee1e": {
    "id": "d72fee40ee1e",
    "label": "28 RUE CHARLES DENIS PLATEL, Loos",
    "lat": 50.611522,
    "lng": 3.017975,
    "transactions": [
      {
        "date": "2022-01-21",
        "priceEur": 165000,
        "typeLocal": "Maison",
        "surfaceM2": 85,
        "isVefa": false
      },
      {
        "date": "2021-07-13",
        "priceEur": 100000,
        "typeLocal": "Maison",
        "surfaceM2": 85,
        "isVefa": false
      }
    ]
  },
  "95c546766764": {
    "id": "95c546766764",
    "label": "18 RUE CONDORCET, Loos",
    "lat": 50.611792,
    "lng": 3.016393,
    "transactions": [
      {
        "date": "2021-07-15",
        "priceEur": 222000,
        "typeLocal": "Maison",
        "surfaceM2": 75,
        "isVefa": false
      }
    ]
  },
  "5de9e6d340df": {
    "id": "5de9e6d340df",
    "label": "29 RUE LEON THIRIEZ, Loos",
    "lat": 50.616493,
    "lng": 3.019048,
    "transactions": [
      {
        "date": "2021-07-23",
        "priceEur": 184000,
        "typeLocal": "Maison",
        "surfaceM2": 48,
        "isVefa": false
      }
    ]
  },
  "974badf029d4": {
    "id": "974badf029d4",
    "label": "123 RUE DU MARECHAL FOCH, Loos",
    "lat": 50.614788,
    "lng": 3.01603,
    "transactions": [
      {
        "date": "2021-07-09",
        "priceEur": 188000,
        "typeLocal": "Maison",
        "surfaceM2": 78,
        "isVefa": false
      }
    ]
  },
  "d64b19e25e70": {
    "id": "d64b19e25e70",
    "label": "47 RUE DU GENERAL LECLERC, Loos",
    "lat": 50.611567,
    "lng": 3.019317,
    "transactions": [
      {
        "date": "2021-07-02",
        "priceEur": 78000,
        "typeLocal": "Appartement",
        "surfaceM2": 35,
        "isVefa": false
      }
    ]
  },
  "3313754f4a0c": {
    "id": "3313754f4a0c",
    "label": "24 RUE DU DOCTEUR CALMETTE, Loos",
    "lat": 50.614249,
    "lng": 3.016305,
    "transactions": [
      {
        "date": "2021-07-20",
        "priceEur": 250000,
        "typeLocal": "Maison",
        "surfaceM2": 108,
        "isVefa": false
      }
    ]
  },
  "b1ec0490ee08": {
    "id": "b1ec0490ee08",
    "label": "8 RUE JULES GUESDE, Loos",
    "lat": 50.61453,
    "lng": 3.017034,
    "transactions": [
      {
        "date": "2021-07-20",
        "priceEur": 152450,
        "typeLocal": "Maison",
        "surfaceM2": 58,
        "isVefa": false
      }
    ]
  },
  "94e6cf1e3680": {
    "id": "94e6cf1e3680",
    "label": "138 RUE DU MARECHAL FOCH, Loos",
    "lat": 50.614748,
    "lng": 3.012804,
    "transactions": [
      {
        "date": "2021-07-19",
        "priceEur": 348750,
        "typeLocal": "Appartement",
        "surfaceM2": 142,
        "isVefa": false
      }
    ]
  },
  "4f8edcccd46e": {
    "id": "4f8edcccd46e",
    "label": "60 RUE DU DOCTEUR CALMETTE, Loos",
    "lat": 50.613988,
    "lng": 3.015002,
    "transactions": [
      {
        "date": "2021-07-15",
        "priceEur": 172000,
        "typeLocal": "Maison",
        "surfaceM2": 74,
        "isVefa": false
      }
    ]
  },
  "1870da55e39e": {
    "id": "1870da55e39e",
    "label": "577 RUE DU BAZINGHIEN, Loos",
    "lat": 50.617901,
    "lng": 3.015604,
    "transactions": [
      {
        "date": "2021-07-19",
        "priceEur": 197000,
        "typeLocal": "Maison",
        "surfaceM2": 64,
        "isVefa": false
      }
    ]
  },
  "fe0e1bbd2289": {
    "id": "fe0e1bbd2289",
    "label": "420 RUE FAIDHERBE, Loos",
    "lat": 50.614511,
    "lng": 3.019704,
    "transactions": [
      {
        "date": "2021-07-30",
        "priceEur": 140000,
        "typeLocal": "Maison",
        "surfaceM2": 38,
        "isVefa": false
      }
    ]
  },
  "2df75cbc2981": {
    "id": "2df75cbc2981",
    "label": "23 CITE LECOMTE 72B CALMETTE, Loos",
    "lat": 50.614153,
    "lng": 3.014136,
    "transactions": [
      {
        "date": "2022-11-07",
        "priceEur": 123000,
        "typeLocal": "Maison",
        "surfaceM2": 48,
        "isVefa": false
      },
      {
        "date": "2021-08-13",
        "priceEur": 56500,
        "typeLocal": "Maison",
        "surfaceM2": 48,
        "isVefa": false
      }
    ]
  },
  "18b90a8a68c8": {
    "id": "18b90a8a68c8",
    "label": "3 CRS RICHARD 17B LECLERC, Loos",
    "lat": 50.612435,
    "lng": 3.019906,
    "transactions": [
      {
        "date": "2021-07-29",
        "priceEur": 85000,
        "typeLocal": "Maison",
        "surfaceM2": 41,
        "isVefa": false
      }
    ]
  },
  "8be91f82bb06": {
    "id": "8be91f82bb06",
    "label": "141 RUE DU MARECHAL FOCH, Loos",
    "lat": 50.614551,
    "lng": 3.014896,
    "transactions": [
      {
        "date": "2021-08-11",
        "priceEur": 147000,
        "typeLocal": "Appartement",
        "surfaceM2": 79,
        "isVefa": false
      }
    ]
  },
  "7d16b6c95721": {
    "id": "7d16b6c95721",
    "label": "59 RUE DU DOCTEUR CALMETTE, Loos",
    "lat": 50.613611,
    "lng": 3.015207,
    "transactions": [
      {
        "date": "2021-08-27",
        "priceEur": 157700,
        "typeLocal": "Maison",
        "surfaceM2": 64,
        "isVefa": false
      }
    ]
  },
  "58fcdc2422ed": {
    "id": "58fcdc2422ed",
    "label": "607 RUE DU BAZINGHIEN, Loos",
    "lat": 50.617792,
    "lng": 3.015244,
    "transactions": [
      {
        "date": "2023-06-30",
        "priceEur": 208000,
        "typeLocal": "Maison",
        "surfaceM2": 83,
        "isVefa": false
      },
      {
        "date": "2021-08-30",
        "priceEur": 155000,
        "typeLocal": "Maison",
        "surfaceM2": 83,
        "isVefa": false
      }
    ]
  },
  "d25a0449b3a5": {
    "id": "d25a0449b3a5",
    "label": "49 RUE DU MARECHAL FOCH, Loos",
    "lat": 50.615435,
    "lng": 3.02026,
    "transactions": [
      {
        "date": "2021-08-25",
        "priceEur": 263000,
        "typeLocal": "Appartement",
        "surfaceM2": 75,
        "isVefa": false
      },
      {
        "date": "2021-08-25",
        "priceEur": 263000,
        "typeLocal": "Appartement",
        "surfaceM2": 51,
        "isVefa": false
      },
      {
        "date": "2021-08-25",
        "priceEur": 263000,
        "typeLocal": "Appartement",
        "surfaceM2": 27,
        "isVefa": false
      }
    ]
  },
  "734c1424f986": {
    "id": "734c1424f986",
    "label": "295 AV GEORGES DUPONT, Loos",
    "lat": 50.613289,
    "lng": 3.019813,
    "transactions": [
      {
        "date": "2024-05-17",
        "priceEur": 257000,
        "typeLocal": "Appartement",
        "surfaceM2": 121,
        "isVefa": false
      },
      {
        "date": "2023-10-20",
        "priceEur": 172500,
        "typeLocal": "Appartement",
        "surfaceM2": 65,
        "isVefa": false
      },
      {
        "date": "2023-06-23",
        "priceEur": 151000,
        "typeLocal": "Appartement",
        "surfaceM2": 51,
        "isVefa": false
      },
      {
        "date": "2022-03-04",
        "priceEur": 176100,
        "typeLocal": "Appartement",
        "surfaceM2": 63,
        "isVefa": false
      },
      {
        "date": "2021-09-08",
        "priceEur": 136500,
        "typeLocal": "Appartement",
        "surfaceM2": 51,
        "isVefa": false
      }
    ]
  },
  "243577e90e43": {
    "id": "243577e90e43",
    "label": "589 RUE DU BAZINGHIEN, Loos",
    "lat": 50.617834,
    "lng": 3.015507,
    "transactions": [
      {
        "date": "2022-03-24",
        "priceEur": 84600,
        "typeLocal": "Maison",
        "surfaceM2": 64,
        "isVefa": false
      },
      {
        "date": "2021-09-16",
        "priceEur": 78000,
        "typeLocal": "Maison",
        "surfaceM2": 64,
        "isVefa": false
      }
    ]
  },
  "c951b6a1c57e": {
    "id": "c951b6a1c57e",
    "label": "66 RUE GEORGES CLEMENCEAU, Loos",
    "lat": 50.614937,
    "lng": 3.01095,
    "transactions": [
      {
        "date": "2021-09-13",
        "priceEur": 219000,
        "typeLocal": "Maison",
        "surfaceM2": 99,
        "isVefa": false
      }
    ]
  },
  "2608cef606f5": {
    "id": "2608cef606f5",
    "label": "24 RUE NEUVE, Loos",
    "lat": 50.616763,
    "lng": 3.01849,
    "transactions": [
      {
        "date": "2021-09-28",
        "priceEur": 229000,
        "typeLocal": "Maison",
        "surfaceM2": 76,
        "isVefa": false
      }
    ]
  },
  "7fbe601069a5": {
    "id": "7fbe601069a5",
    "label": "99 RUE MARCELLIN BERTHELOT, Loos",
    "lat": 50.617781,
    "lng": 3.010305,
    "transactions": [
      {
        "date": "2023-04-03",
        "priceEur": 311000,
        "typeLocal": "Appartement",
        "surfaceM2": 99,
        "isVefa": true
      },
      {
        "date": "2022-12-30",
        "priceEur": 299000,
        "typeLocal": "Appartement",
        "surfaceM2": 93,
        "isVefa": true
      },
      {
        "date": "2022-10-27",
        "priceEur": 265000,
        "typeLocal": "Appartement",
        "surfaceM2": 69,
        "isVefa": true
      },
      {
        "date": "2022-04-06",
        "priceEur": 253000,
        "typeLocal": "Appartement",
        "surfaceM2": 69,
        "isVefa": true
      },
      {
        "date": "2021-10-01",
        "priceEur": 189000,
        "typeLocal": "Appartement",
        "surfaceM2": 50,
        "isVefa": true
      }
    ]
  },
  "37e4424387f8": {
    "id": "37e4424387f8",
    "label": "40 RUE DU GENERAL LECLERC, Loos",
    "lat": 50.611347,
    "lng": 3.019006,
    "transactions": [
      {
        "date": "2021-09-14",
        "priceEur": 160000,
        "typeLocal": "Appartement",
        "surfaceM2": 78,
        "isVefa": false
      },
      {
        "date": "2021-09-14",
        "priceEur": 160000,
        "typeLocal": "Appartement",
        "surfaceM2": 58,
        "isVefa": false
      }
    ]
  },
  "688540528ca6": {
    "id": "688540528ca6",
    "label": "23 RUE DES FLEURS, Loos",
    "lat": 50.617975,
    "lng": 3.01935,
    "transactions": [
      {
        "date": "2021-09-17",
        "priceEur": 153550,
        "typeLocal": "Maison",
        "surfaceM2": 58,
        "isVefa": false
      }
    ]
  },
  "387d462f1dcf": {
    "id": "387d462f1dcf",
    "label": "52 RUE JULES GUESDE, Loos",
    "lat": 50.613221,
    "lng": 3.017907,
    "transactions": [
      {
        "date": "2021-09-14",
        "priceEur": 385000,
        "typeLocal": "Appartement",
        "surfaceM2": 20,
        "isVefa": false
      },
      {
        "date": "2021-09-14",
        "priceEur": 385000,
        "typeLocal": "Appartement",
        "surfaceM2": 24,
        "isVefa": false
      },
      {
        "date": "2021-09-14",
        "priceEur": 385000,
        "typeLocal": "Appartement",
        "surfaceM2": 23,
        "isVefa": false
      },
      {
        "date": "2021-09-14",
        "priceEur": 385000,
        "typeLocal": "Appartement",
        "surfaceM2": 32,
        "isVefa": false
      },
      {
        "date": "2021-09-14",
        "priceEur": 385000,
        "typeLocal": "Appartement",
        "surfaceM2": 35,
        "isVefa": false
      },
      {
        "date": "2021-09-14",
        "priceEur": 385000,
        "typeLocal": "Appartement",
        "surfaceM2": 21,
        "isVefa": false
      }
    ]
  },
  "6a677ff62f82": {
    "id": "6a677ff62f82",
    "label": "581 RUE DU BAZINGHIEN, Loos",
    "lat": 50.617863,
    "lng": 3.01554,
    "transactions": [
      {
        "date": "2024-07-16",
        "priceEur": 195500,
        "typeLocal": "Maison",
        "surfaceM2": 56,
        "isVefa": false
      },
      {
        "date": "2021-09-20",
        "priceEur": 105000,
        "typeLocal": "Maison",
        "surfaceM2": 56,
        "isVefa": false
      }
    ]
  },
  "6cf922243485": {
    "id": "6cf922243485",
    "label": "1 CRS TRACHEZ 1 RUE ZOLA, Loos",
    "lat": 50.614519,
    "lng": 3.014565,
    "transactions": [
      {
        "date": "2021-10-11",
        "priceEur": 99000,
        "typeLocal": "Maison",
        "surfaceM2": 54,
        "isVefa": false
      }
    ]
  },
  "de4b299c8903": {
    "id": "de4b299c8903",
    "label": "4 RUE WACQUEZ LALO, Loos",
    "lat": 50.615431,
    "lng": 3.017319,
    "transactions": [
      {
        "date": "2021-10-11",
        "priceEur": 135000,
        "typeLocal": "Appartement",
        "surfaceM2": 69,
        "isVefa": false
      }
    ]
  },
  "859883bf374f": {
    "id": "859883bf374f",
    "label": "6 CRS DORCHIES 29B CALMETTE, Loos",
    "lat": 50.613676,
    "lng": 3.015978,
    "transactions": [
      {
        "date": "2021-09-27",
        "priceEur": 106500,
        "typeLocal": "Maison",
        "surfaceM2": 37,
        "isVefa": false
      }
    ]
  },
  "634974f708d1": {
    "id": "634974f708d1",
    "label": "105 RUE DU MARECHAL FOCH, Loos",
    "lat": 50.614846,
    "lng": 3.016898,
    "transactions": [
      {
        "date": "2021-10-11",
        "priceEur": 470000,
        "typeLocal": "Maison",
        "surfaceM2": 246,
        "isVefa": false
      }
    ]
  },
  "665034524173": {
    "id": "665034524173",
    "label": "103 RUE DU MARECHAL FOCH, Loos",
    "lat": 50.614929,
    "lng": 3.016977,
    "transactions": [
      {
        "date": "2021-10-11",
        "priceEur": 470000,
        "typeLocal": "Appartement",
        "surfaceM2": 8,
        "isVefa": false
      },
      {
        "date": "2021-10-11",
        "priceEur": 470000,
        "typeLocal": "Appartement",
        "surfaceM2": 15,
        "isVefa": false
      },
      {
        "date": "2021-10-11",
        "priceEur": 470000,
        "typeLocal": "Appartement",
        "surfaceM2": 20,
        "isVefa": false
      }
    ]
  },
  "1edcfa094b64": {
    "id": "1edcfa094b64",
    "label": "342 RUE FAIDHERBE, Loos",
    "lat": 50.614767,
    "lng": 3.02072,
    "transactions": [
      {
        "date": "2021-10-25",
        "priceEur": 171000,
        "typeLocal": "Maison",
        "surfaceM2": 42,
        "isVefa": false
      }
    ]
  },
  "664f2362457f": {
    "id": "664f2362457f",
    "label": "133 AV LELIEVRE, Loos",
    "lat": 50.616403,
    "lng": 3.017417,
    "transactions": [
      {
        "date": "2021-10-08",
        "priceEur": 148000,
        "typeLocal": "Maison",
        "surfaceM2": 52,
        "isVefa": false
      }
    ]
  },
  "ee8cc02aa8e6": {
    "id": "ee8cc02aa8e6",
    "label": "32 RUE VICTOR HUGO, Loos",
    "lat": 50.614541,
    "lng": 3.019852,
    "transactions": [
      {
        "date": "2021-10-07",
        "priceEur": 240000,
        "typeLocal": "Appartement",
        "surfaceM2": 23,
        "isVefa": false
      },
      {
        "date": "2021-10-07",
        "priceEur": 240000,
        "typeLocal": "Appartement",
        "surfaceM2": 36,
        "isVefa": false
      },
      {
        "date": "2021-10-07",
        "priceEur": 240000,
        "typeLocal": "Appartement",
        "surfaceM2": 35,
        "isVefa": false
      },
      {
        "date": "2021-10-07",
        "priceEur": 240000,
        "typeLocal": "Appartement",
        "surfaceM2": 60,
        "isVefa": false
      }
    ]
  },
  "7a09f59535d5": {
    "id": "7a09f59535d5",
    "label": "6 CRS WOUTERS 5 R FERRER, Loos",
    "lat": 50.613679,
    "lng": 3.011903,
    "transactions": [
      {
        "date": "2021-10-20",
        "priceEur": 154200,
        "typeLocal": "Maison",
        "surfaceM2": 42,
        "isVefa": false
      }
    ]
  },
  "2d19299d730d": {
    "id": "2d19299d730d",
    "label": "10 RUE LEON GAMBETTA, Loos",
    "lat": 50.617543,
    "lng": 3.012509,
    "transactions": [
      {
        "date": "2021-10-29",
        "priceEur": 175000,
        "typeLocal": "Maison",
        "surfaceM2": 72,
        "isVefa": false
      }
    ]
  },
  "0bdcbcc915d0": {
    "id": "0bdcbcc915d0",
    "label": "2B RUE LEONARD DANEL, Loos",
    "lat": 50.614212,
    "lng": 3.013093,
    "transactions": [
      {
        "date": "2021-10-28",
        "priceEur": 160000,
        "typeLocal": "Maison",
        "surfaceM2": 34,
        "isVefa": false
      }
    ]
  },
  "2fc682e3f942": {
    "id": "2fc682e3f942",
    "label": "66 RUE DU DOCTEUR CALMETTE, Loos",
    "lat": 50.613893,
    "lng": 3.014851,
    "transactions": [
      {
        "date": "2021-11-10",
        "priceEur": 180000,
        "typeLocal": "Appartement",
        "surfaceM2": 21,
        "isVefa": false
      },
      {
        "date": "2021-11-10",
        "priceEur": 180000,
        "typeLocal": "Appartement",
        "surfaceM2": 29,
        "isVefa": false
      }
    ]
  },
  "8b162329024a": {
    "id": "8b162329024a",
    "label": "142 RUE DU MARECHAL FOCH, Loos",
    "lat": 50.614681,
    "lng": 3.012741,
    "transactions": [
      {
        "date": "2021-11-10",
        "priceEur": 96000,
        "typeLocal": "Maison",
        "surfaceM2": 48,
        "isVefa": false
      }
    ]
  },
  "3605a405c6c8": {
    "id": "3605a405c6c8",
    "label": "286 RUE COL COLONA D ORNANO, Loos",
    "lat": 50.613449,
    "lng": 3.016351,
    "transactions": [
      {
        "date": "2023-06-23",
        "priceEur": 226000,
        "typeLocal": "Maison",
        "surfaceM2": 81,
        "isVefa": false
      },
      {
        "date": "2021-11-05",
        "priceEur": 65000,
        "typeLocal": "Maison",
        "surfaceM2": 81,
        "isVefa": false
      }
    ]
  },
  "3aeac276157c": {
    "id": "3aeac276157c",
    "label": "57 RUE DU GENERAL LECLERC, Loos",
    "lat": 50.611416,
    "lng": 3.019596,
    "transactions": [
      {
        "date": "2021-11-04",
        "priceEur": 157000,
        "typeLocal": "Maison",
        "surfaceM2": 64,
        "isVefa": false
      }
    ]
  },
  "408305157e8f": {
    "id": "408305157e8f",
    "label": "5 SEN LECLERCQ, Loos",
    "lat": 50.616413,
    "lng": 3.01185,
    "transactions": [
      {
        "date": "2021-10-28",
        "priceEur": 150000,
        "typeLocal": "Maison",
        "surfaceM2": 42,
        "isVefa": false
      }
    ]
  },
  "fa074751859d": {
    "id": "fa074751859d",
    "label": "10 RUE JULES GUESDE, Loos",
    "lat": 50.61449,
    "lng": 3.017032,
    "transactions": [
      {
        "date": "2021-11-09",
        "priceEur": 68000,
        "typeLocal": "Maison",
        "surfaceM2": 87,
        "isVefa": false
      }
    ]
  },
  "b539dc434b4e": {
    "id": "b539dc434b4e",
    "label": "9001 RES FAIDHERBE, Loos",
    "lat": 50.614816,
    "lng": 3.020231,
    "transactions": [
      {
        "date": "2025-01-31",
        "priceEur": 93000,
        "typeLocal": "Appartement",
        "surfaceM2": 40,
        "isVefa": false
      },
      {
        "date": "2021-11-25",
        "priceEur": 242200,
        "typeLocal": "Appartement",
        "surfaceM2": 115,
        "isVefa": false
      }
    ]
  },
  "e46a96e2313f": {
    "id": "e46a96e2313f",
    "label": "56 RUE CHARLES DENIS PLATEL, Loos",
    "lat": 50.611305,
    "lng": 3.017113,
    "transactions": [
      {
        "date": "2021-12-01",
        "priceEur": 148350,
        "typeLocal": "Appartement",
        "surfaceM2": 44,
        "isVefa": false
      }
    ]
  },
  "a693f999e474": {
    "id": "a693f999e474",
    "label": "26 RUE JULES GUESDE, Loos",
    "lat": 50.613986,
    "lng": 3.017377,
    "transactions": [
      {
        "date": "2021-12-20",
        "priceEur": 237500,
        "typeLocal": "Maison",
        "surfaceM2": 142,
        "isVefa": false
      }
    ]
  },
  "93ec65769332": {
    "id": "93ec65769332",
    "label": "12 RUE DU DOCTEUR LESNE, Loos",
    "lat": 50.611714,
    "lng": 3.010707,
    "transactions": [
      {
        "date": "2021-12-20",
        "priceEur": 180000,
        "typeLocal": "Maison",
        "surfaceM2": 77,
        "isVefa": false
      }
    ]
  },
  "5a7521a8dd2c": {
    "id": "5a7521a8dd2c",
    "label": "33 RUE LEON THIRIEZ, Loos",
    "lat": 50.616568,
    "lng": 3.019031,
    "transactions": [
      {
        "date": "2021-12-29",
        "priceEur": 158220,
        "typeLocal": "Maison",
        "surfaceM2": 48,
        "isVefa": false
      }
    ]
  },
  "5280a03fd6c9": {
    "id": "5280a03fd6c9",
    "label": "48 RUE JULES GUESDE, Loos",
    "lat": 50.613507,
    "lng": 3.017617,
    "transactions": [
      {
        "date": "2022-01-12",
        "priceEur": 196550,
        "typeLocal": "Maison",
        "surfaceM2": 83,
        "isVefa": false
      }
    ]
  },
  "0fa9942ffbd2": {
    "id": "0fa9942ffbd2",
    "label": "8 RES RESIDENCE DE LA POSTE, Loos",
    "lat": 50.614885,
    "lng": 3.012628,
    "transactions": [
      {
        "date": "2022-09-26",
        "priceEur": 108000,
        "typeLocal": "Appartement",
        "surfaceM2": 46,
        "isVefa": false
      },
      {
        "date": "2022-07-13",
        "priceEur": 132000,
        "typeLocal": "Appartement",
        "surfaceM2": 46,
        "isVefa": false
      },
      {
        "date": "2022-01-03",
        "priceEur": 75000,
        "typeLocal": "Appartement",
        "surfaceM2": 30,
        "isVefa": false
      }
    ]
  },
  "48bc6b7b75ce": {
    "id": "48bc6b7b75ce",
    "label": "1 CRS RICHARD 17B LECLERC, Loos",
    "lat": 50.612486,
    "lng": 3.019876,
    "transactions": [
      {
        "date": "2022-01-10",
        "priceEur": 139000,
        "typeLocal": "Maison",
        "surfaceM2": 78,
        "isVefa": false
      }
    ]
  },
  "2912e79d2765": {
    "id": "2912e79d2765",
    "label": "9 RUE DES FLEURS, Loos",
    "lat": 50.617707,
    "lng": 3.019453,
    "transactions": [
      {
        "date": "2022-01-07",
        "priceEur": 105000,
        "typeLocal": "Maison",
        "surfaceM2": 60,
        "isVefa": false
      }
    ]
  },
  "06348a2d3905": {
    "id": "06348a2d3905",
    "label": "1A SQ JEAN MONNET, Loos",
    "lat": 50.615176,
    "lng": 3.01366,
    "transactions": [
      {
        "date": "2022-01-06",
        "priceEur": 165000,
        "typeLocal": "Maison",
        "surfaceM2": 71,
        "isVefa": false
      }
    ]
  },
  "ec85d36fadb0": {
    "id": "ec85d36fadb0",
    "label": "20 RUE VICTOR HUGO, Loos",
    "lat": 50.614762,
    "lng": 3.019598,
    "transactions": [
      {
        "date": "2022-01-27",
        "priceEur": 157000,
        "typeLocal": "Maison",
        "surfaceM2": 60,
        "isVefa": false
      }
    ]
  },
  "130dd9d43e19": {
    "id": "130dd9d43e19",
    "label": "8 RUE ROGER SALENGRO, Loos",
    "lat": 50.615256,
    "lng": 3.014373,
    "transactions": [
      {
        "date": "2022-02-23",
        "priceEur": 227480,
        "typeLocal": "Maison",
        "surfaceM2": 116,
        "isVefa": false
      }
    ]
  },
  "e037b006ba6c": {
    "id": "e037b006ba6c",
    "label": "35 RUE WACQUEZ LALO, Loos",
    "lat": 50.616747,
    "lng": 3.016647,
    "transactions": [
      {
        "date": "2022-02-28",
        "priceEur": 180000,
        "typeLocal": "Maison",
        "surfaceM2": 112,
        "isVefa": false
      }
    ]
  },
  "b1cc74840131": {
    "id": "b1cc74840131",
    "label": "406 RUE COL COLONA D ORNANO, Loos",
    "lat": 50.613364,
    "lng": 3.01513,
    "transactions": [
      {
        "date": "2022-02-25",
        "priceEur": 202150,
        "typeLocal": "Maison",
        "surfaceM2": 102,
        "isVefa": false
      }
    ]
  },
  "92fb16447c08": {
    "id": "92fb16447c08",
    "label": "553 RUE FAIDHERBE, Loos",
    "lat": 50.614194,
    "lng": 3.017949,
    "transactions": [
      {
        "date": "2022-02-07",
        "priceEur": 210000,
        "typeLocal": "Appartement",
        "surfaceM2": 32,
        "isVefa": false
      },
      {
        "date": "2022-02-07",
        "priceEur": 210000,
        "typeLocal": "Appartement",
        "surfaceM2": 54,
        "isVefa": false
      },
      {
        "date": "2022-02-07",
        "priceEur": 210000,
        "typeLocal": "Appartement",
        "surfaceM2": 48,
        "isVefa": false
      }
    ]
  },
  "a77a5063b5e7": {
    "id": "a77a5063b5e7",
    "label": "22 RUE LOUIS PASTEUR, Loos",
    "lat": 50.615697,
    "lng": 3.012606,
    "transactions": [
      {
        "date": "2022-03-04",
        "priceEur": 232250,
        "typeLocal": "Maison",
        "surfaceM2": 101,
        "isVefa": false
      }
    ]
  },
  "dfa4c6040d8b": {
    "id": "dfa4c6040d8b",
    "label": "9 RUE ROGER SALENGRO, Loos",
    "lat": 50.615128,
    "lng": 3.013995,
    "transactions": [
      {
        "date": "2022-08-05",
        "priceEur": 153567,
        "typeLocal": "Maison",
        "surfaceM2": 87,
        "isVefa": false
      },
      {
        "date": "2022-02-23",
        "priceEur": 207800,
        "typeLocal": "Maison",
        "surfaceM2": 75,
        "isVefa": false
      }
    ]
  },
  "04d190cbc9ae": {
    "id": "04d190cbc9ae",
    "label": "34 BD DE LA REPUBLIQUE, Loos",
    "lat": 50.612711,
    "lng": 3.010383,
    "transactions": [
      {
        "date": "2022-02-22",
        "priceEur": 214500,
        "typeLocal": "Maison",
        "surfaceM2": 77,
        "isVefa": false
      }
    ]
  },
  "fb0b99e6cacd": {
    "id": "fb0b99e6cacd",
    "label": "11 RUE EMILE ZOLA, Loos",
    "lat": 50.614288,
    "lng": 3.014787,
    "transactions": [
      {
        "date": "2022-02-25",
        "priceEur": 220000,
        "typeLocal": "Maison",
        "surfaceM2": 90,
        "isVefa": false
      }
    ]
  },
  "2958a39187c7": {
    "id": "2958a39187c7",
    "label": "1 CRS DORCHIES 6B MATTEOTI, Loos",
    "lat": 50.613748,
    "lng": 3.016387,
    "transactions": [
      {
        "date": "2022-03-02",
        "priceEur": 123500,
        "typeLocal": "Maison",
        "surfaceM2": 45,
        "isVefa": false
      }
    ]
  },
  "4f041ea204c3": {
    "id": "4f041ea204c3",
    "label": "4 RUE CALMETTE CR BLANQUART, Loos",
    "lat": 50.61368,
    "lng": 3.012157,
    "transactions": [
      {
        "date": "2022-03-09",
        "priceEur": 154500,
        "typeLocal": "Maison",
        "surfaceM2": 31,
        "isVefa": false
      }
    ]
  },
  "ecc9ccacf117": {
    "id": "ecc9ccacf117",
    "label": "326 RUE FAIDHERBE, Loos",
    "lat": 50.614797,
    "lng": 3.020932,
    "transactions": [
      {
        "date": "2022-10-07",
        "priceEur": 118000,
        "typeLocal": "Maison",
        "surfaceM2": 42,
        "isVefa": false
      },
      {
        "date": "2022-03-15",
        "priceEur": 83000,
        "typeLocal": "Maison",
        "surfaceM2": 42,
        "isVefa": false
      }
    ]
  },
  "b1c8226fdb21": {
    "id": "b1c8226fdb21",
    "label": "16 RUE NEUVE, Loos",
    "lat": 50.616708,
    "lng": 3.01808,
    "transactions": [
      {
        "date": "2022-04-20",
        "priceEur": 192000,
        "typeLocal": "Maison",
        "surfaceM2": 75,
        "isVefa": false
      }
    ]
  },
  "d38847e132d6": {
    "id": "d38847e132d6",
    "label": "68 RUE DU DOCTEUR CALMETTE, Loos",
    "lat": 50.613858,
    "lng": 3.014772,
    "transactions": [
      {
        "date": "2022-04-12",
        "priceEur": 215000,
        "typeLocal": "Maison",
        "surfaceM2": 98,
        "isVefa": false
      }
    ]
  },
  "707cfa2dab96": {
    "id": "707cfa2dab96",
    "label": "20 RUE DU GENERAL LECLERC, Loos",
    "lat": 50.611862,
    "lng": 3.018743,
    "transactions": [
      {
        "date": "2022-04-22",
        "priceEur": 147500,
        "typeLocal": "Maison",
        "surfaceM2": 94,
        "isVefa": false
      }
    ]
  },
  "019ae1b2cb7f": {
    "id": "019ae1b2cb7f",
    "label": "93 RUE DU MARECHAL FOCH, Loos",
    "lat": 50.614758,
    "lng": 3.017618,
    "transactions": [
      {
        "date": "2022-04-11",
        "priceEur": 378200,
        "typeLocal": "Maison",
        "surfaceM2": 96,
        "isVefa": false
      }
    ]
  },
  "03ce3529889f": {
    "id": "03ce3529889f",
    "label": "4 CRS DORCHIES 29B CALMETTE, Loos",
    "lat": 50.613736,
    "lng": 3.016015,
    "transactions": [
      {
        "date": "2022-05-12",
        "priceEur": 116000,
        "typeLocal": "Maison",
        "surfaceM2": 37,
        "isVefa": false
      }
    ]
  },
  "be3d94a30419": {
    "id": "be3d94a30419",
    "label": "15 RUE SAINTE MARIE, Loos",
    "lat": 50.616418,
    "lng": 3.018755,
    "transactions": [
      {
        "date": "2022-05-13",
        "priceEur": 235450,
        "typeLocal": "Maison",
        "surfaceM2": 81,
        "isVefa": false
      }
    ]
  },
  "465127844ffe": {
    "id": "465127844ffe",
    "label": "40 RUE ROGER SALENGRO, Loos",
    "lat": 50.615962,
    "lng": 3.013964,
    "transactions": [
      {
        "date": "2022-04-25",
        "priceEur": 151500,
        "typeLocal": "Appartement",
        "surfaceM2": 60,
        "isVefa": false
      }
    ]
  },
  "5885704c20a5": {
    "id": "5885704c20a5",
    "label": "49 RUE LEON THIRIEZ, Loos",
    "lat": 50.617461,
    "lng": 3.018677,
    "transactions": [
      {
        "date": "2022-04-25",
        "priceEur": 176000,
        "typeLocal": "Maison",
        "surfaceM2": 58,
        "isVefa": false
      }
    ]
  },
  "9a86eef72ad5": {
    "id": "9a86eef72ad5",
    "label": "28 RUE VICTOR HUGO, Loos",
    "lat": 50.614636,
    "lng": 3.019786,
    "transactions": [
      {
        "date": "2022-05-23",
        "priceEur": 110000,
        "typeLocal": "Maison",
        "surfaceM2": 60,
        "isVefa": false
      }
    ]
  },
  "0598c1ce8a6b": {
    "id": "0598c1ce8a6b",
    "label": "63 RUE DU MARECHAL FOCH, Loos",
    "lat": 50.615238,
    "lng": 3.019392,
    "transactions": [
      {
        "date": "2022-05-04",
        "priceEur": 222000,
        "typeLocal": "Maison",
        "surfaceM2": 82,
        "isVefa": false
      }
    ]
  },
  "527dca3f6ffb": {
    "id": "527dca3f6ffb",
    "label": "18 RUE DU DOCTEUR CALMETTE, Loos",
    "lat": 50.614205,
    "lng": 3.016569,
    "transactions": [
      {
        "date": "2022-05-23",
        "priceEur": 179000,
        "typeLocal": "Maison",
        "surfaceM2": 76,
        "isVefa": false
      }
    ]
  },
  "bba14bfb5961": {
    "id": "bba14bfb5961",
    "label": "40 RUE LEON THIRIEZ, Loos",
    "lat": 50.616764,
    "lng": 3.019458,
    "transactions": [
      {
        "date": "2023-12-01",
        "priceEur": 189500,
        "typeLocal": "Maison",
        "surfaceM2": 64,
        "isVefa": false
      },
      {
        "date": "2022-05-20",
        "priceEur": 190000,
        "typeLocal": "Maison",
        "surfaceM2": 64,
        "isVefa": false
      }
    ]
  },
  "d8a10afaa62b": {
    "id": "d8a10afaa62b",
    "label": "17 CRS OLIVIER 77B R FOCH, Loos",
    "lat": 50.614873,
    "lng": 3.01919,
    "transactions": [
      {
        "date": "2022-06-03",
        "priceEur": 153200,
        "typeLocal": "Maison",
        "surfaceM2": 61,
        "isVefa": false
      }
    ]
  },
  "d5eddd2beea2": {
    "id": "d5eddd2beea2",
    "label": "44 RUE LOUIS PASTEUR, Loos",
    "lat": 50.615585,
    "lng": 3.011546,
    "transactions": [
      {
        "date": "2022-05-31",
        "priceEur": 365000,
        "typeLocal": "Maison",
        "surfaceM2": 136,
        "isVefa": false
      }
    ]
  },
  "72406d53fda4": {
    "id": "72406d53fda4",
    "label": "38 RUE DU MARECHAL FOCH, Loos",
    "lat": 50.61554,
    "lng": 3.018698,
    "transactions": [
      {
        "date": "2022-05-18",
        "priceEur": 290000,
        "typeLocal": "Appartement",
        "surfaceM2": 48,
        "isVefa": false
      },
      {
        "date": "2022-05-18",
        "priceEur": 290000,
        "typeLocal": "Appartement",
        "surfaceM2": 56,
        "isVefa": false
      },
      {
        "date": "2022-05-18",
        "priceEur": 290000,
        "typeLocal": "Appartement",
        "surfaceM2": 30,
        "isVefa": false
      }
    ]
  },
  "2832020e885a": {
    "id": "2832020e885a",
    "label": "2 RUE JEAN JACQUES ROUSSEAU, Loos",
    "lat": 50.611689,
    "lng": 3.013981,
    "transactions": [
      {
        "date": "2022-06-07",
        "priceEur": 6225940,
        "typeLocal": "Appartement",
        "surfaceM2": 76,
        "isVefa": false
      },
      {
        "date": "2022-06-07",
        "priceEur": 6225940,
        "typeLocal": "Maison",
        "surfaceM2": 56,
        "isVefa": false
      }
    ]
  },
  "c77196a5ec40": {
    "id": "c77196a5ec40",
    "label": "5 CRS ROVERS 18B CALMETTE, Loos",
    "lat": 50.614426,
    "lng": 3.0165,
    "transactions": [
      {
        "date": "2022-06-23",
        "priceEur": 65600,
        "typeLocal": "Maison",
        "surfaceM2": 33,
        "isVefa": false
      }
    ]
  },
  "a11f745f3f4d": {
    "id": "a11f745f3f4d",
    "label": "5 CRS OLIVIER 77B R FOCH, Loos",
    "lat": 50.615036,
    "lng": 3.01883,
    "transactions": [
      {
        "date": "2022-06-23",
        "priceEur": 64000,
        "typeLocal": "Maison",
        "surfaceM2": 35,
        "isVefa": false
      }
    ]
  },
  "4ff25c955f3f": {
    "id": "4ff25c955f3f",
    "label": "603 RUE DU BAZINGHIEN, Loos",
    "lat": 50.617806,
    "lng": 3.015291,
    "transactions": [
      {
        "date": "2022-06-24",
        "priceEur": 156900,
        "typeLocal": "Maison",
        "surfaceM2": 60,
        "isVefa": false
      }
    ]
  },
  "015ab9400e1c": {
    "id": "015ab9400e1c",
    "label": "13 RUE DES JARDINS, Loos",
    "lat": 50.617492,
    "lng": 3.018007,
    "transactions": [
      {
        "date": "2022-06-30",
        "priceEur": 80600,
        "typeLocal": "Maison",
        "surfaceM2": 75,
        "isVefa": false
      }
    ]
  },
  "d6301bb2a68b": {
    "id": "d6301bb2a68b",
    "label": "2 CRS WOUTERS 5 R FERRER, Loos",
    "lat": 50.613626,
    "lng": 3.011662,
    "transactions": [
      {
        "date": "2022-07-05",
        "priceEur": 165000,
        "typeLocal": "Maison",
        "surfaceM2": 42,
        "isVefa": false
      }
    ]
  },
  "57f8e523f554": {
    "id": "57f8e523f554",
    "label": "27 RUE DU MARECHAL FOCH, Loos",
    "lat": 50.615551,
    "lng": 3.021228,
    "transactions": [
      {
        "date": "2022-06-30",
        "priceEur": 210000,
        "typeLocal": "Maison",
        "surfaceM2": 105,
        "isVefa": false
      }
    ]
  },
  "35405b20f356": {
    "id": "35405b20f356",
    "label": "8 CRS DORCHIES 6B MATTEOTI, Loos",
    "lat": 50.613611,
    "lng": 3.016097,
    "transactions": [
      {
        "date": "2022-07-06",
        "priceEur": 80000,
        "typeLocal": "Maison",
        "surfaceM2": 44,
        "isVefa": false
      }
    ]
  },
  "0fe9e661a875": {
    "id": "0fe9e661a875",
    "label": "3 RUE DES LILAS, Loos",
    "lat": 50.618022,
    "lng": 3.018323,
    "transactions": [
      {
        "date": "2022-06-27",
        "priceEur": 245120,
        "typeLocal": "Maison",
        "surfaceM2": 115,
        "isVefa": false
      }
    ]
  },
  "4c73bd5e22e8": {
    "id": "4c73bd5e22e8",
    "label": "17 RUE DES JARDINS, Loos",
    "lat": 50.617567,
    "lng": 3.017968,
    "transactions": [
      {
        "date": "2022-06-29",
        "priceEur": 190000,
        "typeLocal": "Maison",
        "surfaceM2": 70,
        "isVefa": false
      }
    ]
  },
  "1a131d745ead": {
    "id": "1a131d745ead",
    "label": "7 CITE LECOMTE 72B CALMETTE, Loos",
    "lat": 50.614008,
    "lng": 3.014056,
    "transactions": [
      {
        "date": "2022-07-25",
        "priceEur": 83000,
        "typeLocal": "Maison",
        "surfaceM2": 48,
        "isVefa": false
      }
    ]
  },
  "bde766cf8025": {
    "id": "bde766cf8025",
    "label": "39 BD DE LA REPUBLIQUE, Loos",
    "lat": 50.611654,
    "lng": 3.012507,
    "transactions": [
      {
        "date": "2022-07-26",
        "priceEur": 193750,
        "typeLocal": "Maison",
        "surfaceM2": 93,
        "isVefa": false
      }
    ]
  },
  "9e77e9a2635f": {
    "id": "9e77e9a2635f",
    "label": "12 RUE EMILE ZOLA, Loos",
    "lat": 50.613992,
    "lng": 3.014409,
    "transactions": [
      {
        "date": "2022-07-22",
        "priceEur": 110000,
        "typeLocal": "Maison",
        "surfaceM2": 73,
        "isVefa": false
      }
    ]
  },
  "df8b24d5f72e": {
    "id": "df8b24d5f72e",
    "label": "106 RUE DU MARECHAL FOCH, Loos",
    "lat": 50.615106,
    "lng": 3.014509,
    "transactions": [
      {
        "date": "2022-07-12",
        "priceEur": 195000,
        "typeLocal": "Appartement",
        "surfaceM2": 90,
        "isVefa": false
      }
    ]
  },
  "510c86596225": {
    "id": "510c86596225",
    "label": "8 AV LELIEVRE, Loos",
    "lat": 50.615451,
    "lng": 3.018212,
    "transactions": [
      {
        "date": "2023-08-25",
        "priceEur": 126140,
        "typeLocal": "Appartement",
        "surfaceM2": 42,
        "isVefa": false
      },
      {
        "date": "2022-08-16",
        "priceEur": 173015,
        "typeLocal": "Appartement",
        "surfaceM2": 76,
        "isVefa": false
      }
    ]
  },
  "77d59f0568af": {
    "id": "77d59f0568af",
    "label": "41 RUE LEON GAMBETTA, Loos",
    "lat": 50.616446,
    "lng": 3.011346,
    "transactions": [
      {
        "date": "2022-08-16",
        "priceEur": 248820,
        "typeLocal": "Maison",
        "surfaceM2": 76,
        "isVefa": false
      }
    ]
  },
  "d098cc15dd4f": {
    "id": "d098cc15dd4f",
    "label": "8 RUE DU DOCTEUR CALMETTE, Loos",
    "lat": 50.61427,
    "lng": 3.01686,
    "transactions": [
      {
        "date": "2023-01-10",
        "priceEur": 180000,
        "typeLocal": "Maison",
        "surfaceM2": 60,
        "isVefa": false
      },
      {
        "date": "2022-09-02",
        "priceEur": 140000,
        "typeLocal": "Maison",
        "surfaceM2": 60,
        "isVefa": false
      }
    ]
  },
  "db9a50b7c960": {
    "id": "db9a50b7c960",
    "label": "39B RUE ROGER SALENGRO, Loos",
    "lat": 50.616032,
    "lng": 3.013087,
    "transactions": [
      {
        "date": "2024-06-12",
        "priceEur": 161150,
        "typeLocal": "Appartement",
        "surfaceM2": 63,
        "isVefa": false
      },
      {
        "date": "2023-03-23",
        "priceEur": 189500,
        "typeLocal": "Appartement",
        "surfaceM2": 63,
        "isVefa": false
      },
      {
        "date": "2022-12-16",
        "priceEur": 92600,
        "typeLocal": "Appartement",
        "surfaceM2": 37,
        "isVefa": false
      },
      {
        "date": "2022-09-29",
        "priceEur": 117000,
        "typeLocal": "Appartement",
        "surfaceM2": 65,
        "isVefa": false
      },
      {
        "date": "2022-09-02",
        "priceEur": 178000,
        "typeLocal": "Appartement",
        "surfaceM2": 63,
        "isVefa": false
      }
    ]
  },
  "ede2f95f0dda": {
    "id": "ede2f95f0dda",
    "label": "78 RUE DU DOCTEUR CALMETTE, Loos",
    "lat": 50.613832,
    "lng": 3.01405,
    "transactions": [
      {
        "date": "2022-09-14",
        "priceEur": 323700,
        "typeLocal": "Appartement",
        "surfaceM2": 26,
        "isVefa": false
      },
      {
        "date": "2022-09-14",
        "priceEur": 323700,
        "typeLocal": "Appartement",
        "surfaceM2": 48,
        "isVefa": false
      },
      {
        "date": "2022-09-14",
        "priceEur": 323700,
        "typeLocal": "Appartement",
        "surfaceM2": 60,
        "isVefa": false
      }
    ]
  },
  "9098bee18cce": {
    "id": "9098bee18cce",
    "label": "545 RUE DU BAZINGHIEN, Loos",
    "lat": 50.618041,
    "lng": 3.015974,
    "transactions": [
      {
        "date": "2022-09-16",
        "priceEur": 315080,
        "typeLocal": "Appartement",
        "surfaceM2": 150,
        "isVefa": false
      }
    ]
  },
  "f43957ca63ed": {
    "id": "f43957ca63ed",
    "label": "13 CRS OLIVIER 77B R FOCH, Loos",
    "lat": 50.615004,
    "lng": 3.019105,
    "transactions": [
      {
        "date": "2022-09-15",
        "priceEur": 79000,
        "typeLocal": "Maison",
        "surfaceM2": 42,
        "isVefa": false
      }
    ]
  },
  "32a70b30a872": {
    "id": "32a70b30a872",
    "label": "12 RUE ERNEST COUTEAUX, Loos",
    "lat": 50.611211,
    "lng": 3.010919,
    "transactions": [
      {
        "date": "2022-09-09",
        "priceEur": 187000,
        "typeLocal": "Maison",
        "surfaceM2": 80,
        "isVefa": false
      }
    ]
  },
  "db071adf8642": {
    "id": "db071adf8642",
    "label": "10 SEN LECLERCQ, Loos",
    "lat": 50.616267,
    "lng": 3.012582,
    "transactions": [
      {
        "date": "2022-09-21",
        "priceEur": 155700,
        "typeLocal": "Appartement",
        "surfaceM2": 44,
        "isVefa": false
      }
    ]
  },
  "0dcfba740d27": {
    "id": "0dcfba740d27",
    "label": "5 RUE LOUIS PASTEUR, Loos",
    "lat": 50.615537,
    "lng": 3.013279,
    "transactions": [
      {
        "date": "2022-10-03",
        "priceEur": 181370,
        "typeLocal": "Maison",
        "surfaceM2": 58,
        "isVefa": false
      }
    ]
  },
  "f0cf5b4a90df": {
    "id": "f0cf5b4a90df",
    "label": "33 RUE LAMARTINE, Loos",
    "lat": 50.617462,
    "lng": 3.01669,
    "transactions": [
      {
        "date": "2022-10-24",
        "priceEur": 251230,
        "typeLocal": "Maison",
        "surfaceM2": 116,
        "isVefa": false
      }
    ]
  },
  "09cb42d3f20e": {
    "id": "09cb42d3f20e",
    "label": "611 RUE DU BAZINGHIEN, Loos",
    "lat": 50.617737,
    "lng": 3.015204,
    "transactions": [
      {
        "date": "2022-11-15",
        "priceEur": 183100,
        "typeLocal": "Maison",
        "surfaceM2": 62,
        "isVefa": false
      }
    ]
  },
  "f2626119b6ec": {
    "id": "f2626119b6ec",
    "label": "93 RUE DU DOCTEUR CALMETTE, Loos",
    "lat": 50.613136,
    "lng": 3.01157,
    "transactions": [
      {
        "date": "2022-11-15",
        "priceEur": 245000,
        "typeLocal": "Maison",
        "surfaceM2": 93,
        "isVefa": false
      }
    ]
  },
  "313870749f8e": {
    "id": "313870749f8e",
    "label": "415 RUE FAIDHERBE, Loos",
    "lat": 50.614211,
    "lng": 3.019866,
    "transactions": [
      {
        "date": "2022-11-14",
        "priceEur": 121215,
        "typeLocal": "Maison",
        "surfaceM2": 126,
        "isVefa": false
      }
    ]
  },
  "ab83d08eef8b": {
    "id": "ab83d08eef8b",
    "label": "161 RUE DU MARECHAL FOCH, Loos",
    "lat": 50.614413,
    "lng": 3.013928,
    "transactions": [
      {
        "date": "2024-06-11",
        "priceEur": 237000,
        "typeLocal": "Maison",
        "surfaceM2": 190,
        "isVefa": false
      },
      {
        "date": "2022-11-03",
        "priceEur": 190300,
        "typeLocal": "Maison",
        "surfaceM2": 190,
        "isVefa": false
      }
    ]
  },
  "5e2da7d010f4": {
    "id": "5e2da7d010f4",
    "label": "35 RUE LOUIS PASTEUR, Loos",
    "lat": 50.615311,
    "lng": 3.012067,
    "transactions": [
      {
        "date": "2022-11-17",
        "priceEur": 226000,
        "typeLocal": "Maison",
        "surfaceM2": 68,
        "isVefa": false
      }
    ]
  },
  "58ee2f0d92a6": {
    "id": "58ee2f0d92a6",
    "label": "4 RUE JULES GUESDE, Loos",
    "lat": 50.61469,
    "lng": 3.016994,
    "transactions": [
      {
        "date": "2022-10-06",
        "priceEur": 265000,
        "typeLocal": "Maison",
        "surfaceM2": 98,
        "isVefa": false
      }
    ]
  },
  "4f50f99e0b37": {
    "id": "4f50f99e0b37",
    "label": "513 RUE FAIDHERBE, Loos",
    "lat": 50.614088,
    "lng": 3.018421,
    "transactions": [
      {
        "date": "2022-12-08",
        "priceEur": 1745753,
        "typeLocal": "Appartement",
        "surfaceM2": 55,
        "isVefa": false
      },
      {
        "date": "2022-12-08",
        "priceEur": 1745753,
        "typeLocal": "Appartement",
        "surfaceM2": 57,
        "isVefa": false
      },
      {
        "date": "2022-12-08",
        "priceEur": 1745753,
        "typeLocal": "Appartement",
        "surfaceM2": 74,
        "isVefa": false
      },
      {
        "date": "2022-12-08",
        "priceEur": 1745753,
        "typeLocal": "Appartement",
        "surfaceM2": 51,
        "isVefa": false
      },
      {
        "date": "2022-12-08",
        "priceEur": 1745753,
        "typeLocal": "Appartement",
        "surfaceM2": 73,
        "isVefa": false
      },
      {
        "date": "2022-12-08",
        "priceEur": 1745753,
        "typeLocal": "Appartement",
        "surfaceM2": 68,
        "isVefa": false
      },
      {
        "date": "2022-12-08",
        "priceEur": 1745753,
        "typeLocal": "Appartement",
        "surfaceM2": 90,
        "isVefa": false
      }
    ]
  },
  "1117dd2d4f4c": {
    "id": "1117dd2d4f4c",
    "label": "559 RUE FAIDHERBE, Loos",
    "lat": 50.614158,
    "lng": 3.017835,
    "transactions": [
      {
        "date": "2022-12-20",
        "priceEur": 193000,
        "typeLocal": "Appartement",
        "surfaceM2": 30,
        "isVefa": false
      },
      {
        "date": "2022-12-20",
        "priceEur": 193000,
        "typeLocal": "Appartement",
        "surfaceM2": 60,
        "isVefa": false
      }
    ]
  },
  "4463108d6b79": {
    "id": "4463108d6b79",
    "label": "162 RUE GEORGES CLEMENCEAU, Loos",
    "lat": 50.615778,
    "lng": 3.010592,
    "transactions": [
      {
        "date": "2022-12-16",
        "priceEur": 143000,
        "typeLocal": "Maison",
        "surfaceM2": 68,
        "isVefa": false
      }
    ]
  },
  "edb6bb32af5d": {
    "id": "edb6bb32af5d",
    "label": "4 RUE DU DOCTEUR LESNE, Loos",
    "lat": 50.611747,
    "lng": 3.011049,
    "transactions": [
      {
        "date": "2022-12-29",
        "priceEur": 180000,
        "typeLocal": "Maison",
        "surfaceM2": 68,
        "isVefa": false
      }
    ]
  },
  "66c063e0e8aa": {
    "id": "66c063e0e8aa",
    "label": "100 RUE DU DOCTEUR CALMETTE, Loos",
    "lat": 50.613541,
    "lng": 3.012258,
    "transactions": [
      {
        "date": "2022-12-16",
        "priceEur": 92367,
        "typeLocal": "Appartement",
        "surfaceM2": 60,
        "isVefa": false
      },
      {
        "date": "2022-12-16",
        "priceEur": 68000,
        "typeLocal": "Appartement",
        "surfaceM2": 44,
        "isVefa": false
      },
      {
        "date": "2022-12-16",
        "priceEur": 125367,
        "typeLocal": "Appartement",
        "surfaceM2": 36,
        "isVefa": false
      }
    ]
  },
  "75f74a7eb626": {
    "id": "75f74a7eb626",
    "label": "8 RUE MATTEOTTI, Loos",
    "lat": 50.613643,
    "lng": 3.016341,
    "transactions": [
      {
        "date": "2022-12-28",
        "priceEur": 134500,
        "typeLocal": "Maison",
        "surfaceM2": 76,
        "isVefa": false
      }
    ]
  },
  "dded50f9433f": {
    "id": "dded50f9433f",
    "label": "440 AV GEORGES DUPONT, Loos",
    "lat": 50.613632,
    "lng": 3.018185,
    "transactions": [
      {
        "date": "2022-12-29",
        "priceEur": 190000,
        "typeLocal": "Appartement",
        "surfaceM2": 48,
        "isVefa": false
      }
    ]
  },
  "f8ce6391040f": {
    "id": "f8ce6391040f",
    "label": "25 RUE ROGER SALENGRO, Loos",
    "lat": 50.615566,
    "lng": 3.013621,
    "transactions": [
      {
        "date": "2022-12-19",
        "priceEur": 380250,
        "typeLocal": "Maison",
        "surfaceM2": 143,
        "isVefa": false
      }
    ]
  },
  "dae5f67527b1": {
    "id": "dae5f67527b1",
    "label": "23 RUE LEON GAMBETTA, Loos",
    "lat": 50.617078,
    "lng": 3.012194,
    "transactions": [
      {
        "date": "2023-01-09",
        "priceEur": 245000,
        "typeLocal": "Appartement",
        "surfaceM2": 35,
        "isVefa": false
      },
      {
        "date": "2023-01-09",
        "priceEur": 245000,
        "typeLocal": "Appartement",
        "surfaceM2": 57,
        "isVefa": false
      }
    ]
  },
  "b4b1168a014c": {
    "id": "b4b1168a014c",
    "label": "60 RUE LEON THIRIEZ, Loos",
    "lat": 50.617732,
    "lng": 3.018967,
    "transactions": [
      {
        "date": "2023-01-03",
        "priceEur": 188500,
        "typeLocal": "Maison",
        "surfaceM2": 104,
        "isVefa": false
      }
    ]
  },
  "01e1375bfb97": {
    "id": "01e1375bfb97",
    "label": "338 RUE COL COLONA D ORNANO, Loos",
    "lat": 50.613421,
    "lng": 3.015699,
    "transactions": [
      {
        "date": "2023-01-05",
        "priceEur": 227000,
        "typeLocal": "Maison",
        "surfaceM2": 78,
        "isVefa": false
      }
    ]
  },
  "f3c56b634e85": {
    "id": "f3c56b634e85",
    "label": "52 BD DE LA REPUBLIQUE, Loos",
    "lat": 50.61169,
    "lng": 3.011566,
    "transactions": [
      {
        "date": "2023-01-21",
        "priceEur": 269680,
        "typeLocal": "Maison",
        "surfaceM2": 79,
        "isVefa": false
      }
    ]
  },
  "8cb58a9064cb": {
    "id": "8cb58a9064cb",
    "label": "9 CRS TRACHEZ 1 RUE ZOLA, Loos",
    "lat": 50.614413,
    "lng": 3.014696,
    "transactions": [
      {
        "date": "2023-01-19",
        "priceEur": 109000,
        "typeLocal": "Maison",
        "surfaceM2": 37,
        "isVefa": false
      }
    ]
  },
  "e2a2ab8eddf6": {
    "id": "e2a2ab8eddf6",
    "label": "16 CRS BULTEEL 442 FAIDHERBE, Loos",
    "lat": 50.614604,
    "lng": 3.019369,
    "transactions": [
      {
        "date": "2023-02-03",
        "priceEur": 112000,
        "typeLocal": "Maison",
        "surfaceM2": 76,
        "isVefa": false
      }
    ]
  },
  "d8451763ecb5": {
    "id": "d8451763ecb5",
    "label": "46 RUE JULES GUESDE, Loos",
    "lat": 50.613558,
    "lng": 3.01761,
    "transactions": [
      {
        "date": "2023-02-03",
        "priceEur": 227000,
        "typeLocal": "Maison",
        "surfaceM2": 104,
        "isVefa": false
      }
    ]
  },
  "1c7e0a7f7696": {
    "id": "1c7e0a7f7696",
    "label": "3 RUE DU DOCTEUR LESNE, Loos",
    "lat": 50.611142,
    "lng": 3.011384,
    "transactions": [
      {
        "date": "2023-02-08",
        "priceEur": 245000,
        "typeLocal": "Maison",
        "surfaceM2": 86,
        "isVefa": false
      }
    ]
  },
  "7cad56545998": {
    "id": "7cad56545998",
    "label": "5 RUE CALMETTE CR BLANQUART, Loos",
    "lat": 50.613643,
    "lng": 3.012117,
    "transactions": [
      {
        "date": "2023-02-16",
        "priceEur": 165000,
        "typeLocal": "Appartement",
        "surfaceM2": 34,
        "isVefa": false
      },
      {
        "date": "2023-02-16",
        "priceEur": 165000,
        "typeLocal": "Appartement",
        "surfaceM2": 36,
        "isVefa": false
      }
    ]
  },
  "1fc2b76d4342": {
    "id": "1fc2b76d4342",
    "label": "42 RUE ARAGO, Loos",
    "lat": 50.617915,
    "lng": 3.012761,
    "transactions": [
      {
        "date": "2023-02-24",
        "priceEur": 191500,
        "typeLocal": "Maison",
        "surfaceM2": 73,
        "isVefa": false
      }
    ]
  },
  "2343f0e50b0c": {
    "id": "2343f0e50b0c",
    "label": "12 RUE JULES GUESDE, Loos",
    "lat": 50.614456,
    "lng": 3.017034,
    "transactions": [
      {
        "date": "2023-02-24",
        "priceEur": 200000,
        "typeLocal": "Maison",
        "surfaceM2": 91,
        "isVefa": false
      }
    ]
  },
  "431375ae3055": {
    "id": "431375ae3055",
    "label": "48 RUE LOUIS PASTEUR, Loos",
    "lat": 50.615528,
    "lng": 3.011358,
    "transactions": [
      {
        "date": "2023-02-28",
        "priceEur": 538000,
        "typeLocal": "Appartement",
        "surfaceM2": 39,
        "isVefa": false
      },
      {
        "date": "2023-02-28",
        "priceEur": 538000,
        "typeLocal": "Appartement",
        "surfaceM2": 37,
        "isVefa": false
      },
      {
        "date": "2023-02-28",
        "priceEur": 538000,
        "typeLocal": "Appartement",
        "surfaceM2": 18,
        "isVefa": false
      },
      {
        "date": "2023-02-28",
        "priceEur": 538000,
        "typeLocal": "Appartement",
        "surfaceM2": 14,
        "isVefa": false
      },