{
  "41f9ccd06bce": {
    "id": "41f9ccd06bce",
    "label": "170 RUE DE LA TOSSEE, Tourcoing",
    "lat": 50.709975,
    "lng": 3.166504,
    "transactions": [
      {
        "date": "2020-12-30",
        "priceEur": 165137,
        "typeLocal": "Appartement",
        "surfaceM2": 66,
        "isVefa": false
      },
      {
        "date": "2020-10-01",
        "priceEur": 119431,
        "typeLocal": "Appartement",
        "surfaceM2": 40,
        "isVefa": false
      },
      {
        "date": "2020-09-29",
        "priceEur": 120607,
        "typeLocal": "Appartement",
        "surfaceM2": 39,
        "isVefa": false
      },
      {
        "date": "2020-09-25",
        "priceEur": 146750,
        "typeLocal": "Appartement",
        "surfaceM2": 57,
        "isVefa": false
      },
      {
        "date": "2020-09-24",
        "priceEur": 169308,
        "typeLocal": "Appartement",
        "surfaceM2": 58,
        "isVefa": false
      },
      {
        "date": "2020-09-24",
        "priceEur": 126255,
        "typeLocal": "Appartement",
        "surfaceM2": 58,
        "isVefa": false
      },
      {
        "date": "2020-07-24",
        "priceEur": 137449,
        "typeLocal": "Appartement",
        "surfaceM2": 58,
        "isVefa": false
      },
      {
        "date": "2020-07-01",
        "priceEur": 176303,
        "typeLocal": "Appartement",
        "surfaceM2": 66,
        "isVefa": false
      }
    ]
  },
  "27c1bf831854": {
    "id": "27c1bf831854",
    "label": "114 RUE DE ROUBAIX, Tourcoing",
    "lat": 50.71194,
    "lng": 3.165738,
    "transactions": [
      {
        "date": "2020-07-09",
        "priceEur": 180000,
        "typeLocal": "Maison",
        "surfaceM2": 148,
        "isVefa": false
      }
    ]
  },
  "97ae87df2e21": {
    "id": "97ae87df2e21",
    "label": "77 RUE DU MOULIN TONTON, Tourcoing",
    "lat": 50.715194,
    "lng": 3.169145,
    "transactions": [
      {
        "date": "2020-08-10",
        "priceEur": 79000,
        "typeLocal": "Maison",
        "surfaceM2": 84,
        "isVefa": false
      }
    ]
  },
  "52358743eebb": {
    "id": "52358743eebb",
    "label": "12 RUE DU HAUT VINAGE, Tourcoing",
    "lat": 50.71523,
    "lng": 3.173617,
    "transactions": [
      {
        "date": "2025-03-07",
        "priceEur": 91400,
        "typeLocal": "Appartement",
        "surfaceM2": 66,
        "isVefa": false
      },
      {
        "date": "2024-02-22",
        "priceEur": 78400,
        "typeLocal": "Appartement",
        "surfaceM2": 66,
        "isVefa": false
      },
      {
        "date": "2023-09-26",
        "priceEur": 55000,
        "typeLocal": "Appartement",
        "surfaceM2": 42,
        "isVefa": false
      },
      {
        "date": "2022-03-23",
        "priceEur": 82600,
        "typeLocal": "Appartement",
        "surfaceM2": 66,
        "isVefa": false
      },
      {
        "date": "2021-09-06",
        "priceEur": 80100,
        "typeLocal": "Appartement",
        "surfaceM2": 66,
        "isVefa": false
      },
      {
        "date": "2021-06-18",
        "priceEur": 110000,
        "typeLocal": "Appartement",
        "surfaceM2": 66,
        "isVefa": false
      },
      {
        "date": "2021-02-05",
        "priceEur": 74400,
        "typeLocal": "Appartement",
        "surfaceM2": 66,
        "isVefa": false
      },
      {
        "date": "2020-10-19",
        "priceEur": 74000,
        "typeLocal": "Appartement",
        "surfaceM2": 66,
        "isVefa": false
      },
      {
        "date": "2020-09-15",
        "priceEur": 50690,
        "typeLocal": "Appartement",
        "surfaceM2": 42,
        "isVefa": false
      }
    ]
  },
  "51495de97b49": {
    "id": "51495de97b49",
    "label": "14 RUE DU HAUT VINAGE, Tourcoing",
    "lat": 50.71523,
    "lng": 3.173617,
    "transactions": [
      {
        "date": "2025-04-30",
        "priceEur": 55000,
        "typeLocal": "Appartement",
        "surfaceM2": 42,
        "isVefa": false
      },
      {
        "date": "2023-11-14",
        "priceEur": 74000,
        "typeLocal": "Appartement",
        "surfaceM2": 66,
        "isVefa": false
      },
      {
        "date": "2023-09-20",
        "priceEur": 86500,
        "typeLocal": "Appartement",
        "surfaceM2": 66,
        "isVefa": false
      },
      {
        "date": "2023-03-29",
        "priceEur": 48000,
        "typeLocal": "Appartement",
        "surfaceM2": 42,
        "isVefa": false
      },
      {
        "date": "2022-09-05",
        "priceEur": 61000,
        "typeLocal": "Appartement",
        "surfaceM2": 42,
        "isVefa": false
      },
      {
        "date": "2022-03-14",
        "priceEur": 61000,
        "typeLocal": "Appartement",
        "surfaceM2": 42,
        "isVefa": false
      },
      {
        "date": "2021-03-01",
        "priceEur": 52000,
        "typeLocal": "Appartement",
        "surfaceM2": 42,
        "isVefa": false
      },
      {
        "date": "2020-12-02",
        "priceEur": 51000,
        "typeLocal": "Appartement",
        "surfaceM2": 42,
        "isVefa": false
      },
      {
        "date": "2020-09-17",
        "priceEur": 74260,
        "typeLocal": "Appartement",
        "surfaceM2": 66,
        "isVefa": false
      }
    ]
  },
  "70a2e24f74a6": {
    "id": "70a2e24f74a6",
    "label": "28 RUE ERCKMANN CHATRIAN, Tourcoing",
    "lat": 50.714636,
    "lng": 3.171406,
    "transactions": [
      {
        "date": "2020-09-28",
        "priceEur": 141000,
        "typeLocal": "Maison",
        "surfaceM2": 64,
        "isVefa": false
      }
    ]
  },
  "593adda84b60": {
    "id": "593adda84b60",
    "label": "23 RUE DE TOULOUSE, Tourcoing",
    "lat": 50.714405,
    "lng": 3.168002,
    "transactions": [
      {
        "date": "2020-09-23",
        "priceEur": 140000,
        "typeLocal": "Maison",
        "surfaceM2": 76,
        "isVefa": false
      }
    ]
  },
  "2dde1f69294f": {
    "id": "2dde1f69294f",
    "label": "15 RUE DE SECLIN, Tourcoing",
    "lat": 50.712487,
    "lng": 3.168585,
    "transactions": [
      {
        "date": "2020-10-02",
        "priceEur": 140000,
        "typeLocal": "Maison",
        "surfaceM2": 72,
        "isVefa": false
      }
    ]
  },
  "7eae836b57b0": {
    "id": "7eae836b57b0",
    "label": "11 RUE DES PEIGNEURS, Tourcoing",
    "lat": 50.713842,
    "lng": 3.165179,
    "transactions": [
      {
        "date": "2025-05-26",
        "priceEur": 115000,
        "typeLocal": "Appartement",
        "surfaceM2": 103,
        "isVefa": false
      },
      {
        "date": "2023-07-26",
        "priceEur": 70000,
        "typeLocal": "Appartement",
        "surfaceM2": 50,
        "isVefa": false
      },
      {
        "date": "2022-01-13",
        "priceEur": 53300,
        "typeLocal": "Appartement",
        "surfaceM2": 48,
        "isVefa": false
      },
      {
        "date": "2021-05-11",
        "priceEur": 68000,
        "typeLocal": "Appartement",
        "surfaceM2": 50,
        "isVefa": false
      },
      {
        "date": "2021-03-12",
        "priceEur": 85000,
        "typeLocal": "Appartement",
        "surfaceM2": 50,
        "isVefa": false
      },
      {
        "date": "2020-10-02",
        "priceEur": 66000,
        "typeLocal": "Appartement",
        "surfaceM2": 50,
        "isVefa": false
      }
    ]
  },
  "267313736d69": {
    "id": "267313736d69",
    "label": "10 RUE DU HAUT VINAGE, Tourcoing",
    "lat": 50.71523,
    "lng": 3.173617,
    "transactions": [
      {
        "date": "2024-11-06",
        "priceEur": 57000,
        "typeLocal": "Appartement",
        "surfaceM2": 42,
        "isVefa": false
      },
      {
        "date": "2024-10-28",
        "priceEur": 84700,
        "typeLocal": "Appartement",
        "surfaceM2": 66,
        "isVefa": false
      },
      {
        "date": "2024-06-26",
        "priceEur": 56800,
        "typeLocal": "Appartement",
        "surfaceM2": 42,
        "isVefa": false
      },
      {
        "date": "2022-07-05",
        "priceEur": 62000,
        "typeLocal": "Appartement",
        "surfaceM2": 42,
        "isVefa": false
      },
      {
        "date": "2021-02-12",
        "priceEur": 49000,
        "typeLocal": "Appartement",
        "surfaceM2": 42,
        "isVefa": false
      },
      {
        "date": "2020-10-27",
        "priceEur": 78000,
        "typeLocal": "Appartement",
        "surfaceM2": 66,
        "isVefa": false
      }
    ]
  },
  "1547f548246f": {
    "id": "1547f548246f",
    "label": "12B RUE DU MOULIN TONTON, Tourcoing",
    "lat": 50.715212,
    "lng": 3.168066,
    "transactions": [
      {
        "date": "2020-10-27",
        "priceEur": 193500,
        "typeLocal": "Maison",
        "surfaceM2": 131,
        "isVefa": false
      }
    ]
  },
  "e9e595ea2aae": {
    "id": "e9e595ea2aae",
    "label": "14 COUR DELCROIX239B RUE CINQ VOIE, Tourcoing",
    "lat": 50.710586,
    "lng": 3.171302,
    "transactions": [
      {
        "date": "2024-09-17",
        "priceEur": 143600,
        "typeLocal": "Maison",
        "surfaceM2": 66,
        "isVefa": false
      },
      {
        "date": "2020-10-23",
        "priceEur": 138000,
        "typeLocal": "Maison",
        "surfaceM2": 66,
        "isVefa": false
      }
    ]
  },
  "ed1ff44124d1": {
    "id": "ed1ff44124d1",
    "label": "8 RUE DU HAUT VINAGE, Tourcoing",
    "lat": 50.71523,
    "lng": 3.173617,
    "transactions": [
      {
        "date": "2025-02-25",
        "priceEur": 45000,
        "typeLocal": "Appartement",
        "surfaceM2": 31,
        "isVefa": false
      },
      {
        "date": "2024-07-16",
        "priceEur": 63000,
        "typeLocal": "Appartement",
        "surfaceM2": 42,
        "isVefa": false
      },
      {
        "date": "2024-07-10",
        "priceEur": 54460,
        "typeLocal": "Appartement",
        "surfaceM2": 42,
        "isVefa": false
      },
      {
        "date": "2020-10-28",
        "priceEur": 49000,
        "typeLocal": "Appartement",
        "surfaceM2": 42,
        "isVefa": false
      }
    ]
  },
  "8c25c9df1a26": {
    "id": "8c25c9df1a26",
    "label": "52 AV DU MARECHAL JOFFRE, Tourcoing",
    "lat": 50.71523,
    "lng": 3.173617,
    "transactions": [
      {
        "date": "2024-06-18",
        "priceEur": 50000,
        "typeLocal": "Appartement",
        "surfaceM2": 42,
        "isVefa": false
      },
      {
        "date": "2024-05-22",
        "priceEur": 73500,
        "typeLocal": "Appartement",
        "surfaceM2": 66,
        "isVefa": false
      },
      {
        "date": "2024-01-12",
        "priceEur": 75700,
        "typeLocal": "Appartement",
        "surfaceM2": 66,
        "isVefa": false
      },
      {
        "date": "2021-02-19",
        "priceEur": 51500,
        "typeLocal": "Appartement",
        "surfaceM2": 42,
        "isVefa": false
      },
      {
        "date": "2020-11-25",
        "priceEur": 49000,
        "typeLocal": "Appartement",
        "surfaceM2": 42,
        "isVefa": false
      }
    ]
  },
  "0027d38de7aa": {
    "id": "0027d38de7aa",
    "label": "27 RUE STEPHENSON, Tourcoing",
    "lat": 50.710011,
    "lng": 3.165781,
    "transactions": [
      {
        "date": "2020-12-01",
        "priceEur": 169323,
        "typeLocal": "Maison",
        "surfaceM2": 80,
        "isVefa": false
      }
    ]
  },
  "bc642007692f": {
    "id": "bc642007692f",
    "label": "29 RUE BALZAC, Tourcoing",
    "lat": 50.711056,
    "lng": 3.168154,
    "transactions": [
      {
        "date": "2022-02-14",
        "priceEur": 280000,
        "typeLocal": "Appartement",
        "surfaceM2": 68,
        "isVefa": false
      },
      {
        "date": "2022-02-14",
        "priceEur": 280000,
        "typeLocal": "Appartement",
        "surfaceM2": 62,
        "isVefa": false
      },
      {
        "date": "2022-02-14",
        "priceEur": 280000,
        "typeLocal": "Appartement",
        "surfaceM2": 22,
        "isVefa": false
      },
      {
        "date": "2020-12-28",
        "priceEur": 175000,
        "typeLocal": "Appartement",
        "surfaceM2": 22,
        "isVefa": false
      },
      {
        "date": "2020-12-28",
        "priceEur": 175000,
        "typeLocal": "Appartement",
        "surfaceM2": 62,
        "isVefa": false
      },
      {
        "date": "2020-12-28",
        "priceEur": 175000,
        "typeLocal": "Appartement",
        "surfaceM2": 68,
        "isVefa": false
      }
    ]
  },
  "5ee5aef5257f": {
    "id": "5ee5aef5257f",
    "label": "88 RUE DE L EPIDEME, Tourcoing",
    "lat": 50.714708,
    "lng": 3.170229,
    "transactions": [
      {
        "date": "2020-12-29",
        "priceEur": 110000,
        "typeLocal": "Maison",
        "surfaceM2": 66,
        "isVefa": false
      }
    ]
  },
  "fe624a383a8b": {
    "id": "fe624a383a8b",
    "label": "254 RUE DE L UNION, Wattrelos",
    "lat": 50.710577,
    "lng": 3.174537,
    "transactions": [
      {
        "date": "2025-01-20",
        "priceEur": 158000,
        "typeLocal": "Maison",
        "surfaceM2": 80,
        "isVefa": false
      },
      {
        "date": "2021-03-04",
        "priceEur": 159800,
        "typeLocal": "Maison",
        "surfaceM2": 80,
        "isVefa": false
      }
    ]
  },
  "f4d6cdf964ee": {
    "id": "f4d6cdf964ee",
    "label": "35 RUE EUGENE DELACROIX, Wattrelos",
    "lat": 50.710984,
    "lng": 3.173728,
    "transactions": [
      {
        "date": "2021-04-29",
        "priceEur": 143000,
        "typeLocal": "Maison",
        "surfaceM2": 78,
        "isVefa": false
      }
    ]
  },
  "7d6028fc5ef8": {
    "id": "7d6028fc5ef8",
    "label": "286 RUE DE L UNION, Wattrelos",
    "lat": 50.710107,
    "lng": 3.173581,
    "transactions": [
      {
        "date": "2021-04-30",
        "priceEur": 229000,
        "typeLocal": "Maison",
        "surfaceM2": 65,
        "isVefa": false
      },
      {
        "date": "2021-04-30",
        "priceEur": 229000,
        "typeLocal": "Maison",
        "surfaceM2": 120,
        "isVefa": false
      }
    ]
  },
  "381da763656b": {
    "id": "381da763656b",
    "label": "49 RUE D ORCHIES, Tourcoing",
    "lat": 50.712816,
    "lng": 3.170248,
    "transactions": [
      {
        "date": "2021-01-13",
        "priceEur": 150000,
        "typeLocal": "Maison",
        "surfaceM2": 102,
        "isVefa": false
      }
    ]
  },
  "962961555c9b": {
    "id": "962961555c9b",
    "label": "40 RUE DES CINQ VOIES, Tourcoing",
    "lat": 50.71438,
    "lng": 3.167016,
    "transactions": [
      {
        "date": "2021-02-08",
        "priceEur": 160000,
        "typeLocal": "Maison",
        "surfaceM2": 96,
        "isVefa": false
      }
    ]
  },
  "f7438df8ad19": {
    "id": "f7438df8ad19",
    "label": "95 RUE DU MOULIN TONTON, Tourcoing",
    "lat": 50.715016,
    "lng": 3.169555,
    "transactions": [
      {
        "date": "2024-01-31",
        "priceEur": 146000,
        "typeLocal": "Maison",
        "surfaceM2": 92,
        "isVefa": false
      },
      {
        "date": "2021-02-25",
        "priceEur": 124000,
        "typeLocal": "Maison",
        "surfaceM2": 92,
        "isVefa": false
      }
    ]
  },
  "f0323ae75fb2": {
    "id": "f0323ae75fb2",
    "label": "6 RUE DU HAUT VINAGE, Tourcoing",
    "lat": 50.71523,
    "lng": 3.173617,
    "transactions": [
      {
        "date": "2025-03-05",
        "priceEur": 45000,
        "typeLocal": "Appartement",
        "surfaceM2": 31,
        "isVefa": false
      },
      {
        "date": "2025-01-13",
        "priceEur": 55000,
        "typeLocal": "Appartement",
        "surfaceM2": 42,
        "isVefa": false
      },
      {
        "date": "2024-02-02",
        "priceEur": 55000,
        "typeLocal": "Appartement",
        "surfaceM2": 42,
        "isVefa": false
      },
      {
        "date": "2023-01-19",
        "priceEur": 75000,
        "typeLocal": "Appartement",
        "surfaceM2": 65,
        "isVefa": false
      },
      {
        "date": "2021-02-26",
        "priceEur": 74500,
        "typeLocal": "Appartement",
        "surfaceM2": 66,
        "isVefa": false
      }
    ]
  },
  "68906ef7a666": {
    "id": "68906ef7a666",
    "label": "126 RUE DE ROUBAIX, Tourcoing",
    "lat": 50.711548,
    "lng": 3.166071,
    "transactions": [
      {
        "date": "2021-03-18",
        "priceEur": 113750,
        "typeLocal": "Maison",
        "surfaceM2": 95,
        "isVefa": false
      }
    ]
  },
  "d3a456bdb59f": {
    "id": "d3a456bdb59f",
    "label": "45 RUE DES OMNIBUS, Tourcoing",
    "lat": 50.712711,
    "lng": 3.167503,
    "transactions": [
      {
        "date": "2024-07-22",
        "priceEur": 105000,
        "typeLocal": "Maison",
        "surfaceM2": 79,
        "isVefa": false
      },
      {
        "date": "2021-04-26",
        "priceEur": 124000,
        "typeLocal": "Maison",
        "surfaceM2": 79,
        "isVefa": false
      }
    ]
  },
  "cfdbb393afe7": {
    "id": "cfdbb393afe7",
    "label": "7 RUE DES PEIGNEURS, Tourcoing",
    "lat": 50.713842,
    "lng": 3.165179,
    "transactions": [
      {
        "date": "2025-05-30",
        "priceEur": 97500,
        "typeLocal": "Appartement",
        "surfaceM2": 50,
        "isVefa": false
      },
      {
        "date": "2023-05-04",
        "priceEur": 50000,
        "typeLocal": "Appartement",
        "surfaceM2": 46,
        "isVefa": false
      },
      {
        "date": "2022-10-31",
        "priceEur": 67900,
        "typeLocal": "Appartement",
        "surfaceM2": 50,
        "isVefa": false
      },
      {
        "date": "2022-02-03",
        "priceEur": 64300,
        "typeLocal": "Appartement",
        "surfaceM2": 64,
        "isVefa": false
      },
      {
        "date": "2022-01-06",
        "priceEur": 69900,
        "typeLocal": "Appartement",
        "surfaceM2": 47,
        "isVefa": false
      },
      {
        "date": "2021-06-10",
        "priceEur": 62400,
        "typeLocal": "Appartement",
        "surfaceM2": 47,
        "isVefa": false
      }
    ]
  },
  "7ee632513e8b": {
    "id": "7ee632513e8b",
    "label": "5 RUE BOILLY, Tourcoing",
    "lat": 50.713842,
    "lng": 3.165179,
    "transactions": [
      {
        "date": "2023-04-06",
        "priceEur": 85000,
        "typeLocal": "Appartement",
        "surfaceM2": 69,
        "isVefa": false
      },
      {
        "date": "2022-05-20",
        "priceEur": 62000,
        "typeLocal": "Appartement",
        "surfaceM2": 50,
        "isVefa": false
      },
      {
        "date": "2022-05-02",
        "priceEur": 66000,
        "typeLocal": "Appartement",
        "surfaceM2": 50,
        "isVefa": false
      },
      {
        "date": "2021-06-29",
        "priceEur": 92000,
        "typeLocal": "Appartement",
        "surfaceM2": 50,
        "isVefa": false
      }
    ]
  },
  "690e9dd601be": {
    "id": "690e9dd601be",
    "label": "233B RUE DES CINQ VOIES, Tourcoing",
    "lat": 50.710669,
    "lng": 3.170612,
    "transactions": [
      {
        "date": "2021-07-05",
        "priceEur": 136875,
        "typeLocal": "Maison",
        "surfaceM2": 88,
        "isVefa": false
      }
    ]
  },
  "eab91a14b8bc": {
    "id": "eab91a14b8bc",
    "label": "4 COUR DELCROIX239B RUE CINQ VOIE, Tourcoing",
    "lat": 50.710541,
    "lng": 3.170999,
    "transactions": [
      {
        "date": "2021-07-01",
        "priceEur": 70000,
        "typeLocal": "Maison",
        "surfaceM2": 62,
        "isVefa": false
      }
    ]
  },
  "f98c3343db4a": {
    "id": "f98c3343db4a",
    "label": "74 RUE DE LA TOSSEE, Tourcoing",
    "lat": 50.710947,
    "lng": 3.164603,
    "transactions": [
      {
        "date": "2021-07-20",
        "priceEur": 165000,
        "typeLocal": "Maison",
        "surfaceM2": 145,
        "isVefa": false
      }
    ]
  },
  "c6276643efde": {
    "id": "c6276643efde",
    "label": "35 RUE DES PEIGNEURS, Tourcoing",
    "lat": 50.713842,
    "lng": 3.165179,
    "transactions": [
      {
        "date": "2025-01-03",
        "priceEur": 90000,
        "typeLocal": "Appartement",
        "surfaceM2": 68,
        "isVefa": false
      },
      {
        "date": "2022-10-31",
        "priceEur": 120000,
        "typeLocal": "Appartement",
        "surfaceM2": 64,
        "isVefa": false
      },
      {
        "date": "2022-07-08",
        "priceEur": 98000,
        "typeLocal": "Appartement",
        "surfaceM2": 47,
        "isVefa": false
      },
      {
        "date": "2022-05-18",
        "priceEur": 82550,
        "typeLocal": "Appartement",
        "surfaceM2": 47,
        "isVefa": false
      },
      {
        "date": "2021-07-29",
        "priceEur": 92500,
        "typeLocal": "Appartement",
        "surfaceM2": 68,
        "isVefa": false
      }
    ]
  },
  "cd565eb4666e": {
    "id": "cd565eb4666e",
    "label": "33 RUE DE SECLIN, Tourcoing",
    "lat": 50.712973,
    "lng": 3.169151,
    "transactions": [
      {
        "date": "2021-07-30",
        "priceEur": 227000,
        "typeLocal": "Maison",
        "surfaceM2": 145,
        "isVefa": false
      }
    ]
  },
  "d0c0656c67f5": {
    "id": "d0c0656c67f5",
    "label": "23 RUE DES OMNIBUS, Tourcoing",
    "lat": 50.712254,
    "lng": 3.166915,
    "transactions": [
      {
        "date": "2021-07-28",
        "priceEur": 112350,
        "typeLocal": "Maison",
        "surfaceM2": 76,
        "isVefa": false
      }
    ]
  },
  "ee3453e9ccbd": {
    "id": "ee3453e9ccbd",
    "label": "16 RUE DE TOULOUSE, Tourcoing",
    "lat": 50.713893,
    "lng": 3.168097,
    "transactions": [
      {
        "date": "2021-07-23",
        "priceEur": 129000,
        "typeLocal": "Maison",
        "surfaceM2": 110,
        "isVefa": false
      }
    ]
  },
  "1e6a9159735c": {
    "id": "1e6a9159735c",
    "label": "1 VC DELCROIX RUE 5 VOIES, Tourcoing",
    "lat": 50.710824,
    "lng": 3.170522,
    "transactions": [
      {
        "date": "2021-08-20",
        "priceEur": 130000,
        "typeLocal": "Maison",
        "surfaceM2": 75,
        "isVefa": false
      }
    ]
  },
  "ee6c75f410b6": {
    "id": "ee6c75f410b6",
    "label": "21 RUE D ORCHIES, Tourcoing",
    "lat": 50.713215,
    "lng": 3.169457,
    "transactions": [
      {
        "date": "2021-10-01",
        "priceEur": 172500,
        "typeLocal": "Maison",
        "surfaceM2": 85,
        "isVefa": false
      }
    ]
  },
  "c2dcb81b579f": {
    "id": "c2dcb81b579f",
    "label": "70 RUE DE ROUBAIX, Tourcoing",
    "lat": 50.713397,
    "lng": 3.164825,
    "transactions": [
      {
        "date": "2021-09-27",
        "priceEur": 375810,
        "typeLocal": "Maison",
        "surfaceM2": 190,
        "isVefa": false
      }
    ]
  },
  "d5620f535d35": {
    "id": "d5620f535d35",
    "label": "17 RUE ERCKMANN CHATRIAN, Tourcoing",
    "lat": 50.714912,
    "lng": 3.171624,
    "transactions": [
      {
        "date": "2021-09-27",
        "priceEur": 171000,
        "typeLocal": "Maison",
        "surfaceM2": 90,
        "isVefa": false
      }
    ]
  },
  "81f68adc5015": {
    "id": "81f68adc5015",
    "label": "121 RUE DE ROUBAIX, Tourcoing",
    "lat": 50.710548,
    "lng": 3.167278,
    "transactions": [
      {
        "date": "2021-10-01",
        "priceEur": 383000,
        "typeLocal": "Appartement",
        "surfaceM2": 20,
        "isVefa": false
      },
      {
        "date": "2021-10-01",
        "priceEur": 383000,
        "typeLocal": "Appartement",
        "surfaceM2": 40,
        "isVefa": false
      },
      {
        "date": "2021-10-01",
        "priceEur": 383000,
        "typeLocal": "Appartement",
        "surfaceM2": 30,
        "isVefa": false
      },
      {
        "date": "2021-10-01",
        "priceEur": 383000,
        "typeLocal": "Appartement",
        "surfaceM2": 25,
        "isVefa": false
      },
      {
        "date": "2021-10-01",
        "priceEur": 383000,
        "typeLocal": "Appartement",
        "surfaceM2": 28,
        "isVefa": false
      }
    ]
  },
  "38dee7d6feb1": {
    "id": "38dee7d6feb1",
    "label": "76 RUE DE ROUBAIX, Tourcoing",
    "lat": 50.712983,
    "lng": 3.164648,
    "transactions": [
      {
        "date": "2022-01-18",
        "priceEur": 192000,
        "typeLocal": "Appartement",
        "surfaceM2": 127,
        "isVefa": false
      },
      {
        "date": "2021-10-29",
        "priceEur": 119550,
        "typeLocal": "Appartement",
        "surfaceM2": 57,
        "isVefa": false
      }
    ]
  },
  "8cb98e284dae": {
    "id": "8cb98e284dae",
    "label": "13 RUE BOILLY, Tourcoing",
    "lat": 50.713842,
    "lng": 3.165179,
    "transactions": [
      {
        "date": "2023-08-29",
        "priceEur": 102000,
        "typeLocal": "Appartement",
        "surfaceM2": 69,
        "isVefa": false
      },
      {
        "date": "2022-09-08",
        "priceEur": 69350,
        "typeLocal": "Appartement",
        "surfaceM2": 49,
        "isVefa": false
      },
      {
        "date": "2022-06-14",
        "priceEur": 137500,
        "typeLocal": "Appartement",
        "surfaceM2": 82,
        "isVefa": false
      },
      {
        "date": "2021-11-15",
        "priceEur": 73750,
        "typeLocal": "Appartement",
        "surfaceM2": 50,
        "isVefa": false
      }
    ]
  },
  "1cd87eb2fcb8": {
    "id": "1cd87eb2fcb8",
    "label": "250 RUE DE L UNION, Wattrelos",
    "lat": 50.710729,
    "lng": 3.174707,
    "transactions": [
      {
        "date": "2024-11-14",
        "priceEur": 144000,
        "typeLocal": "Maison",
        "surfaceM2": 64,
        "isVefa": false
      },
      {
        "date": "2021-11-22",
        "priceEur": 175270,
        "typeLocal": "Maison",
        "surfaceM2": 64,
        "isVefa": false
      }
    ]
  },
  "5613d730ad51": {
    "id": "5613d730ad51",
    "label": "35 RUE DE TOULOUSE, Tourcoing",
    "lat": 50.714634,
    "lng": 3.168232,
    "transactions": [
      {
        "date": "2022-04-15",
        "priceEur": 85000,
        "typeLocal": "Maison",
        "surfaceM2": 96,
        "isVefa": false
      },
      {
        "date": "2021-12-10",
        "priceEur": 55000,
        "typeLocal": "Maison",
        "surfaceM2": 96,
        "isVefa": false
      }
    ]
  },
  "37e74fc93e42": {
    "id": "37e74fc93e42",
    "label": "4 RUE D ORCHIES, Tourcoing",
    "lat": 50.713047,
    "lng": 3.168987,
    "transactions": [
      {
        "date": "2021-11-30",
        "priceEur": 110000,
        "typeLocal": "Maison",
        "surfaceM2": 99,
        "isVefa": false
      }
    ]
  },
  "68f673d3916c": {
    "id": "68f673d3916c",
    "label": "9 RUE BOILLY, Tourcoing",
    "lat": 50.713842,
    "lng": 3.165179,
    "transactions": [
      {
        "date": "2024-04-22",
        "priceEur": 91000,
        "typeLocal": "Appartement",
        "surfaceM2": 72,
        "isVefa": false
      },
      {
        "date": "2021-12-14",
        "priceEur": 87600,
        "typeLocal": "Appartement",
        "surfaceM2": 72,
        "isVefa": false
      }
    ]
  },
  "a05b631cce3d": {
    "id": "a05b631cce3d",
    "label": "1 RUE DE SECLIN, Tourcoing",
    "lat": 50.712342,
    "lng": 3.168513,
    "transactions": [
      {
        "date": "2021-12-13",
        "priceEur": 224480,
        "typeLocal": "Maison",
        "surfaceM2": 100,
        "isVefa": false
      }
    ]
  },
  "c07f6b67146e": {
    "id": "c07f6b67146e",
    "label": "39 RUE DES OMNIBUS, Tourcoing",
    "lat": 50.71267,
    "lng": 3.166923,
    "transactions": [
      {
        "date": "2021-12-29",
        "priceEur": 215600,
        "typeLocal": "Maison",
        "surfaceM2": 133,
        "isVefa": false
      }
    ]
  },
  "677ddcff35f9": {
    "id": "677ddcff35f9",
    "label": "7 RUE DES CINQ VOIES, Tourcoing",
    "lat": 50.715375,
    "lng": 3.167153,
    "transactions": [
      {
        "date": "2021-12-28",
        "priceEur": 70000,
        "typeLocal": "Appartement",
        "surfaceM2": 35,
        "isVefa": false
      }
    ]
  },
  "c3731bf6729d": {
    "id": "c3731bf6729d",
    "label": "47 RUE BOILLY, Tourcoing",
    "lat": 50.713071,
    "lng": 3.167262,
    "transactions": [
      {
        "date": "2022-12-29",
        "priceEur": 117000,
        "typeLocal": "Maison",
        "surfaceM2": 70,
        "isVefa": false
      },
      {
        "date": "2021-12-29",
        "priceEur": 108000,
        "typeLocal": "Maison",
        "surfaceM2": 70,
        "isVefa": false
      }
    ]
  },
  "7249c9f7cf46": {
    "id": "7249c9f7cf46",
    "label": "61 RUE DE ROUBAIX, Tourcoing",
    "lat": 50.713842,
    "lng": 3.165179,
    "transactions": [
      {
        "date": "2024-12-23",
        "priceEur": 123690,
        "typeLocal": "Appartement",
        "surfaceM2": 76,
        "isVefa": false
      },
      {
        "date": "2022-07-29",
        "priceEur": 111000,
        "typeLocal": "Appartement",
        "surfaceM2": 102,
        "isVefa": false
      },
      {
        "date": "2022-02-17",
        "priceEur": 67300,
        "typeLocal": "Appartement",
        "surfaceM2": 50,
        "isVefa": false
      }
    ]
  },
  "c2890e472d23": {
    "id": "c2890e472d23",
    "label": "219 RUE DES CINQ VOIES, Tourcoing",
    "lat": 50.710939,
    "lng": 3.170167,
    "transactions": [
      {
        "date": "2022-02-24",
        "priceEur": 99000,
        "typeLocal": "Maison",
        "surfaceM2": 74,
        "isVefa": false
      }
    ]
  },
  "27079dc1a3fb": {
    "id": "27079dc1a3fb",
    "label": "180 RUE DE ROUBAIX, Tourcoing",
    "lat": 50.710117,
    "lng": 3.16705,
    "transactions": [
      {
        "date": "2022-03-02",
        "priceEur": 70000,
        "typeLocal": "Maison",
        "surfaceM2": 72,
        "isVefa": false
      }
    ]
  },
  "db550666467e": {
    "id": "db550666467e",
    "label": "29 RUE D ORCHIES, Tourcoing",
    "lat": 50.713113,
    "lng": 3.169751,
    "transactions": [
      {
        "date": "2022-02-25",
        "priceEur": 161000,
        "typeLocal": "Maison",
        "surfaceM2": 94,
        "isVefa": false
      }
    ]
  },
  "5401ccb4537e": {
    "id": "5401ccb4537e",
    "label": "67 RUE DES CINQ VOIES, Tourcoing",
    "lat": 50.713621,
    "lng": 3.167829,
    "transactions": [
      {
        "date": "2022-02-23",
        "priceEur": 183572,
        "typeLocal": "Maison",
        "surfaceM2": 93,
        "isVefa": false
      }
    ]
  },
  "d20673344214": {
    "id": "d20673344214",
    "label": "104 RUE DE L EPIDEME, Tourcoing",
    "lat": 50.715055,
    "lng": 3.170752,
    "transactions": [
      {
        "date": "2022-03-25",
        "priceEur": 152700,
        "typeLocal": "Maison",
        "surfaceM2": 80,
        "isVefa": false
      }
    ]
  },
  "5f75574dd127": {
    "id": "5f75574dd127",
    "label": "119 RUE DE ROUBAIX, Tourcoing",
    "lat": 50.710596,
    "lng": 3.16723,
    "transactions": [
      {
        "date": "2022-04-08",
        "priceEur": 220000,
        "typeLocal": "Maison",
        "surfaceM2": 100,
        "isVefa": false
      }
    ]
  },
  "5deb436c6918": {
    "id": "5deb436c6918",
    "label": "7 RUE DE L EPIDEME, Tourcoing",
    "lat": 50.713861,
    "lng": 3.168315,
    "transactions": [
      {
        "date": "2022-03-24",
        "priceEur": 362150,
        "typeLocal": "Maison",
        "surfaceM2": 172,
        "isVefa": false
      }
    ]
  },
  "d3bdbad5df89": {
    "id": "d3bdbad5df89",
    "label": "125 RUE DE ROUBAIX, Tourcoing",
    "lat": 50.71034,
    "lng": 3.167438,
    "transactions": [
      {
        "date": "2022-04-12",
        "priceEur": 142000,
        "typeLocal": "Maison",
        "surfaceM2": 150,
        "isVefa": false
      }
    ]
  },
  "4902f245d513": {
    "id": "4902f245d513",
    "label": "293 RUE DES CINQ VOIES, Tourcoing",
    "lat": 50.709571,
    "lng": 3.172118,
    "transactions": [
      {
        "date": "2022-06-01",
        "priceEur": 163500,
        "typeLocal": "Maison",
        "surfaceM2": 68,
        "isVefa": false
      }
    ]
  },
  "986990b677db": {
    "id": "986990b677db",
    "label": "30 RUE NUNGESSER ET COLI, Wattrelos",
    "lat": 50.71332,
    "lng": 3.174013,
    "transactions": [
      {
        "date": "2022-05-18",
        "priceEur": 80000,
        "typeLocal": "Maison",
        "surfaceM2": 76,
        "isVefa": false
      }
    ]
  },
  "8950c733ef11": {
    "id": "8950c733ef11",
    "label": "6 RUE RAOUL FOLLEREAU, Tourcoing",
    "lat": 50.714217,
    "lng": 3.16659,
    "transactions": [
      {
        "date": "2024-09-20",
        "priceEur": 205000,
        "typeLocal": "Maison",
        "surfaceM2": 96,
        "isVefa": false
      },
      {
        "date": "2022-06-16",
        "priceEur": 135400,
        "typeLocal": "Maison",
        "surfaceM2": 96,
        "isVefa": false
      }
    ]
  },
  "2b8dc4b11fd7": {
    "id": "2b8dc4b11fd7",
    "label": "270 RUE DE L UNION, Wattrelos",
    "lat": 50.710262,
    "lng": 3.173958,
    "transactions": [
      {
        "date": "2022-07-18",
        "priceEur": 305000,
        "typeLocal": "Maison",
        "surfaceM2": 127,
        "isVefa": false
      }
    ]
  },
  "dfc89d6e98d6": {
    "id": "dfc89d6e98d6",
    "label": "7 IMP LUMIERE, Wattrelos",
    "lat": 50.710316,
    "lng": 3.17383,
    "transactions": [
      {
        "date": "2022-07-18",
        "priceEur": 305000,
        "typeLocal": "Maison",
        "surfaceM2": 28,
        "isVefa": false
      }
    ]
  },
  "637db69c6f34": {
    "id": "637db69c6f34",
    "label": "22 RUE JULES VERNE, Tourcoing",
    "lat": 50.714474,
    "lng": 3.171059,
    "transactions": [
      {
        "date": "2022-08-09",
        "priceEur": 156000,
        "typeLocal": "Maison",
        "surfaceM2": 70,
        "isVefa": false
      }
    ]
  },
  "030df125bcb7": {
    "id": "030df125bcb7",
    "label": "37 RUE DE TOULOUSE, Tourcoing",
    "lat": 50.714656,
    "lng": 3.168286,
    "transactions": [
      {
        "date": "2022-08-16",
        "priceEur": 146800,
        "typeLocal": "Maison",
        "surfaceM2": 82,
        "isVefa": false
      }
    ]
  },
  "45db65b6017e": {
    "id": "45db65b6017e",
    "label": "295 RUE DES CINQ VOIES, Tourcoing",
    "lat": 50.709506,
    "lng": 3.172143,
    "transactions": [
      {
        "date": "2022-09-01",
        "priceEur": 190000,
        "typeLocal": "Maison",
        "surfaceM2": 67,
        "isVefa": false
      }
    ]
  },
  "353278cdcbf3": {
    "id": "353278cdcbf3",
    "label": "54 AV DU MARECHAL JOFFRE, Tourcoing",
    "lat": 50.71523,
    "lng": 3.173617,
    "transactions": [
      {
        "date": "2025-02-28",
        "priceEur": 85800,
        "typeLocal": "Appartement",
        "surfaceM2": 66,
        "isVefa": false
      },
      {
        "date": "2024-10-11",
        "priceEur": 97200,
        "typeLocal": "Appartement",
        "surfaceM2": 66,
        "isVefa": false
      },
      {
        "date": "2024-01-22",
        "priceEur": 76000,
        "typeLocal": "Appartement",
        "surfaceM2": 66,
        "isVefa": false
      },
      {
        "date": "2022-09-23",
        "priceEur": 79500,
        "typeLocal": "Appartement",
        "surfaceM2": 42,
        "isVefa": false
      }
    ]
  },
  "8e32d9977f60": {
    "id": "8e32d9977f60",
    "label": "166 RUE DE ROUBAIX, Tourcoing",
    "lat": 50.710341,
    "lng": 3.16685,
    "transactions": [
      {
        "date": "2022-08-26",
        "priceEur": 32000,
        "typeLocal": "Maison",
        "surfaceM2": 70,
        "isVefa": false
      }
    ]
  },
  "ea1cb0570188": {
    "id": "ea1cb0570188",
    "label": "95 RUE DE LA TOSSEE, Tourcoing",
    "lat": 50.710379,
    "lng": 3.166441,
    "transactions": [
      {
        "date": "2022-09-20",
        "priceEur": 70000,
        "typeLocal": "Maison",
        "surfaceM2": 52,
        "isVefa": false
      }
    ]
  },
  "58a188293449": {
    "id": "58a188293449",
    "label": "17 RUE DES OMNIBUS, Tourcoing",
    "lat": 50.712176,
    "lng": 3.166793,
    "transactions": [
      {
        "date": "2022-09-09",
        "priceEur": 73000,
        "typeLocal": "Maison",
        "surfaceM2": 50,
        "isVefa": false
      }
    ]
  },
  "53dd4d72e9cf": {
    "id": "53dd4d72e9cf",
    "label": "60 RUE BOILLY, Tourcoing",
    "lat": 50.712746,
    "lng": 3.16736,
    "transactions": [
      {
        "date": "2022-09-29",
        "priceEur": 134000,
        "typeLocal": "Maison",
        "surfaceM2": 67,
        "isVefa": false
      }
    ]
  },
  "a63c0a7e9382": {
    "id": "a63c0a7e9382",
    "label": "9 RUE DES CINQ VOIES, Tourcoing",
    "lat": 50.715331,
    "lng": 3.16721,
    "transactions": [
      {
        "date": "2022-10-24",
        "priceEur": 98225,
        "typeLocal": "Maison",
        "surfaceM2": 100,
        "isVefa": false
      }
    ]
  },
  "bad992d85233": {
    "id": "bad992d85233",
    "label": "233 RUE DES CINQ VOIES, Tourcoing",
    "lat": 50.710706,
    "lng": 3.170556,
    "transactions": [
      {
        "date": "2024-05-31",
        "priceEur": 88000,
        "typeLocal": "Maison",
        "surfaceM2": 71,
        "isVefa": false
      },
      {
        "date": "2022-10-13",
        "priceEur": 83000,
        "typeLocal": "Maison",
        "surfaceM2": 71,
        "isVefa": false
      }
    ]
  },
  "583b51b9ae5d": {
    "id": "583b51b9ae5d",
    "label": "108 RUE DE ROUBAIX, Tourcoing",
    "lat": 50.712034,
    "lng": 3.16549,
    "transactions": [
      {
        "date": "2022-10-24",
        "priceEur": 170000,
        "typeLocal": "Maison",
        "surfaceM2": 123,
        "isVefa": false
      }
    ]
  },
  "dbf63b19327f": {
    "id": "dbf63b19327f",
    "label": "35 RUE DES OMNIBUS, Tourcoing",
    "lat": 50.712524,
    "lng": 3.167024,
    "transactions": [
      {
        "date": "2022-11-15",
        "priceEur": 306000,
        "typeLocal": "Maison",
        "surfaceM2": 112,
        "isVefa": false
      }
    ]
  },
  "aff1d0f8248b": {
    "id": "aff1d0f8248b",
    "label": "68 RUE DE ROUBAIX, Tourcoing",
    "lat": 50.713423,
    "lng": 3.164685,
    "transactions": [
      {
        "date": "2022-11-15",
        "priceEur": 120000,
        "typeLocal": "Maison",
        "surfaceM2": 107,
        "isVefa": false
      }
    ]
  },
  "62a6d78f0b54": {
    "id": "62a6d78f0b54",
    "label": "140 RUE DE LA TOSSEE, Tourcoing",
    "lat": 50.709975,
    "lng": 3.166504,
    "transactions": [
      {
        "date": "2025-04-30",
        "priceEur": 175000,
        "typeLocal": "Appartement",
        "surfaceM2": 58,
        "isVefa": false
      },
      {
        "date": "2022-12-01",
        "priceEur": 150000,
        "typeLocal": "Appartement",
        "surfaceM2": 8,
        "isVefa": false
      }
    ]
  },
  "2da7ba7633d4": {
    "id": "2da7ba7633d4",
    "label": "52 RUE BOILLY, Tourcoing",
    "lat": 50.712835,
    "lng": 3.167144,
    "transactions": [
      {
        "date": "2022-12-07",
        "priceEur": 125000,
        "typeLocal": "Maison",
        "surfaceM2": 64,
        "isVefa": false
      }
    ]
  },
  "72ee91ddc9b7": {
    "id": "72ee91ddc9b7",
    "label": "158 RUE DE ROUBAIX, Tourcoing",
    "lat": 50.710558,
    "lng": 3.16676,
    "transactions": [
      {
        "date": "2022-12-09",
        "priceEur": 132600,
        "typeLocal": "Maison",
        "surfaceM2": 91,
        "isVefa": false
      }
    ]
  },
  "5b35981989c8": {
    "id": "5b35981989c8",
    "label": "122 RUE DE LA TOSSEE, Tourcoing",
    "lat": 50.710422,
    "lng": 3.16577,
    "transactions": [
      {
        "date": "2022-12-23",
        "priceEur": 195830.02,
        "typeLocal": "Maison",
        "surfaceM2": 92,
        "isVefa": false
      }
    ]
  },
  "b8d061b2df42": {
    "id": "b8d061b2df42",
    "label": "2 RUE D HONDSCHOOTE, Tourcoing",
    "lat": 50.714938,
    "lng": 3.164654,
    "transactions": [
      {
        "date": "2022-12-30",
        "priceEur": 1135000,
        "typeLocal": "Maison",
        "surfaceM2": 70,
        "isVefa": false
      }
    ]
  },
  "3946def1a93b": {
    "id": "3946def1a93b",
    "label": "101B RUE DE ROUBAIX, Tourcoing",
    "lat": 50.712073,
    "lng": 3.166299,
    "transactions": [
      {
        "date": "2023-01-05",
        "priceEur": 106200,
        "typeLocal": "Maison",
        "surfaceM2": 36,
        "isVefa": false
      }
    ]
  },
  "f024865ce7e4": {
    "id": "f024865ce7e4",
    "label": "18 RUE STEPHENSON, Tourcoing",
    "lat": 50.70977,
    "lng": 3.165329,
    "transactions": [
      {
        "date": "2023-02-02",
        "priceEur": 206000,
        "typeLocal": "Maison",
        "surfaceM2": 71,
        "isVefa": false
      }
    ]
  },
  "62e63b9876a9": {
    "id": "62e63b9876a9",
    "label": "30 RUE DES CINQ VOIES, Tourcoing",
    "lat": 50.71448,
    "lng": 3.166332,
    "transactions": [
      {
        "date": "2023-02-16",
        "priceEur": 185000,
        "typeLocal": "Maison",
        "surfaceM2": 96,
        "isVefa": false
      }
    ]
  },
  "fe6b0edc613e": {
    "id": "fe6b0edc613e",
    "label": "5 RUE DES OMNIBUS, Tourcoing",
    "lat": 50.712047,
    "lng": 3.166456,
    "transactions": [
      {
        "date": "2023-02-14",
        "priceEur": 88500,
        "typeLocal": "Maison",
        "surfaceM2": 51,
        "isVefa": false
      }
    ]
  },
  "067e4819d17e": {
    "id": "067e4819d17e",
    "label": "1 RUE DES OMNIBUS, Tourcoing",
    "lat": 50.711955,
    "lng": 3.166412,
    "transactions": [
      {
        "date": "2023-03-09",
        "priceEur": 85000,
        "typeLocal": "Maison",
        "surfaceM2": 77,
        "isVefa": false
      }
    ]
  },
  "b90723a709f1": {
    "id": "b90723a709f1",
    "label": "4B RUE DE SECLIN, Tourcoing",
    "lat": 50.712249,
    "lng": 3.16918,
    "transactions": [
      {
        "date": "2023-02-28",
        "priceEur": 600000,
        "typeLocal": "Maison",
        "surfaceM2": 65,
        "isVefa": false
      }
    ]
  },
  "63a12365152f": {
    "id": "63a12365152f",
    "label": "2 COUR DELCROIX239B RUE CINQ VOIE, Tourcoing",
    "lat": 50.710516,
    "lng": 3.170943,
    "transactions": [
      {
        "date": "2023-03-17",
        "priceEur": 15000,
        "typeLocal": "Maison",
        "surfaceM2": 54,
        "isVefa": false
      }
    ]
  },
  "b9792d4dd293": {
    "id": "b9792d4dd293",
    "label": "18 RUE DES VILLAS, Wattrelos",
    "lat": 50.711035,
    "lng": 3.174283,
    "transactions": [
      {
        "date": "2023-03-24",
        "priceEur": 133050,
        "typeLocal": "Maison",
        "surfaceM2": 67,
        "isVefa": false
      }
    ]
  },
  "600bf117d1b9": {
    "id": "600bf117d1b9",
    "label": "285 RUE DES CINQ VOIES, Tourcoing",
    "lat": 50.709677,
    "lng": 3.171966,
    "transactions": [
      {
        "date": "2023-03-30",
        "priceEur": 124000,
        "typeLocal": "Maison",
        "surfaceM2": 56,
        "isVefa": false
      }
    ]
  },
  "72890732a7cb": {
    "id": "72890732a7cb",
    "label": "19 RUE NUNGESSER ET COLI, Wattrelos",
    "lat": 50.712503,
    "lng": 3.174337,
    "transactions": [
      {
        "date": "2023-03-21",
        "priceEur": 189000,
        "typeLocal": "Maison",
        "surfaceM2": 80,
        "isVefa": false
      }
    ]
  },
  "49462e2434e9": {
    "id": "49462e2434e9",
    "label": "57 RUE DU MOULIN TONTON, Tourcoing",
    "lat": 50.715405,
    "lng": 3.168651,
    "transactions": [
      {
        "date": "2023-05-04",
        "priceEur": 224000,
        "typeLocal": "Maison",
        "surfaceM2": 167,
        "isVefa": false
      }
    ]
  },
  "1f33ea209574": {
    "id": "1f33ea209574",
    "label": "61 RUE DE NANTES, Tourcoing",
    "lat": 50.709629,
    "lng": 3.165036,
    "transactions": [
      {
        "date": "2024-11-06",
        "priceEur": 264400,
        "typeLocal": "Appartement",
        "surfaceM2": 83,
        "isVefa": true
      },
      {
        "date": "2024-07-19",
        "priceEur": 231500,
        "typeLocal": "Appartement",
        "surfaceM2": 62,
        "isVefa": true
      },
      {
        "date": "2024-05-28",
        "priceEur": 178200,
        "typeLocal": "Appartement",
        "surfaceM2": 44,
        "isVefa": true
      },
      {
        "date": "2024-03-11",
        "priceEur": 217900,
        "typeLocal": "Appartement",
        "surfaceM2": 59,
        "isVefa": true
      },
      {
        "date": "2023-12-27",
        "priceEur": 178600,
        "typeLocal": "Appartement",
        "surfaceM2": 44,
        "isVefa": true
      },
      {
        "date": "2023-12-20",
        "priceEur": 182500,
        "typeLocal": "Appartement",
        "surfaceM2": 44,
        "isVefa": true
      },
      {
        "date": "2023-12-14",
        "priceEur": 164900,
        "typeLocal": "Appartement",
        "surfaceM2": 41,
        "isVefa": true
      },
      {
        "date": "2023-12-07",
        "priceEur": 166900,
        "typeLocal": "Appartement",
        "surfaceM2": 50,
        "isVefa": true
      },
      {
        "date": "2023-11-10",
        "priceEur": 171000,
        "typeLocal": "Appartement",
        "surfaceM2": 40,
        "isVefa": true
      },
      {
        "date": "2023-10-09",
        "priceEur": 151600,
        "typeLocal": "Appartement",
        "surfaceM2": 31,
        "isVefa": true
      },
      {
        "date": "2023-08-07",
        "priceEur": 178400,
        "typeLocal": "Appartement",
        "surfaceM2": 44,
        "isVefa": true
      },
      {
        "date": "2023-07-21",
        "priceEur": 218900,
        "typeLocal": "Appartement",
        "surfaceM2": 58,
        "isVefa": true
      },
      {
        "date": "2023-06-28",
        "priceEur": 189200,
        "typeLocal": "Appartement",
        "surfaceM2": 48,
        "isVefa": true
      },
      {
        "date": "2023-06-28",
        "priceEur": 175000,
        "typeLocal": "Appartement",
        "surfaceM2": 42,
        "isVefa": true
      },
      {
        "date": "2023-06-27",
        "priceEur": 175500,
        "typeLocal": "Appartement",
        "surfaceM2": 43,
        "isVefa": true
      },
      {
        "date": "2023-06-27",
        "priceEur": 168000,
        "typeLocal": "Appartement",
        "surfaceM2": 41,
        "isVefa": true
      },
      {
        "date": "2023-06-27",
        "priceEur": 178400,
        "typeLocal": "Appartement",
        "surfaceM2": 44,
        "isVefa": true
      },
      {
        "date": "2023-06-20",
        "priceEur": 237120,
        "typeLocal": "Appartement",
        "surfaceM2": 64,
        "isVefa": true
      },
      {
        "date": "2023-06-20",
        "priceEur": 218400,
        "typeLocal": "Appartement",
        "surfaceM2": 60,
        "isVefa": true
      },
      {
        "date": "2023-06-19",
        "priceEur": 176900,
        "typeLocal": "Appartement",
        "surfaceM2": 42,
        "isVefa": true
      },
      {
        "date": "2023-06-12",
        "priceEur": 171500,
        "typeLocal": "Appartement",
        "surfaceM2": 40,
        "isVefa": true
      },
      {
        "date": "2023-06-08",
        "priceEur": 182400,
        "typeLocal": "Appartement",
        "surfaceM2": 44,
        "isVefa": true
      },
      {
        "date": "2023-05-12",
        "priceEur": 218800,
        "typeLocal": "Appartement",
        "surfaceM2": 59,
        "isVefa": true
      }
    ]
  },
  "3e1ad8cc93a5": {
    "id": "3e1ad8cc93a5",
    "label": "23 RUE NUNGESSER ET COLI, Wattrelos",
    "lat": 50.712584,
    "lng": 3.174265,
    "transactions": [
      {
        "date": "2023-06-15",
        "priceEur": 186000,
        "typeLocal": "Maison",
        "surfaceM2": 76,
        "isVefa": false
      }
    ]
  },
  "702c55a24468": {
    "id": "702c55a24468",
    "label": "129 RUE DE ROUBAIX, Tourcoing",
    "lat": 50.710263,
    "lng": 3.167583,
    "transactions": [
      {
        "date": "2023-06-21",
        "priceEur": 208600,
        "typeLocal": "Maison",
        "surfaceM2": 127,
        "isVefa": false
      }
    ]
  },
  "237e48b683f2": {
    "id": "237e48b683f2",
    "label": "15 VC ST LOUIS215RUE CINQ VOIES, Tourcoing",
    "lat": 50.7113,
    "lng": 3.170764,
    "transactions": [
      {
        "date": "2023-06-27",
        "priceEur": 64500,
        "typeLocal": "Maison",
        "surfaceM2": 51,
        "isVefa": false
      }
    ]
  },
  "6a50cf1c9b94": {
    "id": "6a50cf1c9b94",
    "label": "124 RUE DE LA TOSSEE, Tourcoing",
    "lat": 50.710391,
    "lng": 3.165823,
    "transactions": [
      {
        "date": "2023-08-04",
        "priceEur": 192000,
        "typeLocal": "Maison",
        "surfaceM2": 87,
        "isVefa": false
      }
    ]
  },
  "fb3e3b902d44": {
    "id": "fb3e3b902d44",
    "label": "13 VC ST LOUIS215RUE CINQ VOIES, Tourcoing",
    "lat": 50.711284,
    "lng": 3.170659,
    "transactions": [
      {
        "date": "2023-08-11",
        "priceEur": 60000,
        "typeLocal": "Maison",
        "surfaceM2": 104,
        "isVefa": false
      }
    ]
  },
  "dbe362f0a773": {
    "id": "dbe362f0a773",
    "label": "67 AV DE L UNION, Tourcoing",
    "lat": 50.709527,
    "lng": 3.172167,
    "transactions": [
      {
        "date": "2023-09-01",
        "priceEur": 123700,
        "typeLocal": "Maison",
        "surfaceM2": 111,
        "isVefa": false
      }
    ]
  },
  "4893d261bd80": {
    "id": "4893d261bd80",
    "label": "136 RUE DE LA TOSSEE, Tourcoing",
    "lat": 50.71012,
    "lng": 3.166166,
    "transactions": [
      {
        "date": "2023-09-21",
        "priceEur": 54600,
        "typeLocal": "Maison",
        "surfaceM2": 72,
        "isVefa": false
      }
    ]
  },
  "616aef520246": {
    "id": "616aef520246",
    "label": "22 RUE NUNGESSER ET COLI, Wattrelos",
    "lat": 50.7132,
    "lng": 3.174221,
    "transactions": [
      {
        "date": "2023-10-26",
        "priceEur": 147000,
        "typeLocal": "Maison",
        "surfaceM2": 76,
        "isVefa": false
      }
    ]
  },
  "3f4e357dd8b1": {
    "id": "3f4e357dd8b1",
    "label": "1 RUE NUNGESSER ET COLI, Wattrelos",
    "lat": 50.712184,
    "lng": 3.174768,
    "transactions": [
      {
        "date": "2023-11-08",
        "priceEur": 210000,
        "typeLocal": "Maison",
        "surfaceM2": 68,
        "isVefa": false
      }
    ]
  },
  "57374bc31189": {
    "id": "57374bc31189",
    "label": "21 RUE DE SECLIN, Tourcoing",
    "lat": 50.712656,
    "lng": 3.168623,
    "transactions": [
      {
        "date": "2023-11-03",
        "priceEur": 219200,
        "typeLocal": "Maison",
        "surfaceM2": 111,
        "isVefa": false
      }
    ]
  },
  "e57c4c26b907": {
    "id": "e57c4c26b907",
    "label": "20 IMP LUMIERE, Wattrelos",
    "lat": 50.710759,
    "lng": 3.173837,
    "transactions": [
      {
        "date": "2023-11-10",
        "priceEur": 167000,
        "typeLocal": "Maison",
        "surfaceM2": 68,
        "isVefa": false
      }
    ]
  },
  "f80aadc0907f": {
    "id": "f80aadc0907f",
    "label": "61 RUE DES CINQ VOIES, Tourcoing",
    "lat": 50.714076,
    "lng": 3.167736,
    "transactions": [
      {
        "date": "2024-11-06",
        "priceEur": 71000,
        "typeLocal": "Maison",
        "surfaceM2": 149,
        "isVefa": false
      },
      {
        "date": "2023-11-20",
        "priceEur": 126000,
        "typeLocal": "Maison",
        "surfaceM2": 149,
        "isVefa": false
      }
    ]
  },
  "8a7b2cdd4e17": {
    "id": "8a7b2cdd4e17",
    "label": "279 RUE DES CINQ VOIES, Tourcoing",
    "lat": 50.709768,
    "lng": 3.171889,
    "transactions": [
      {
        "date": "2023-12-19",
        "priceEur": 55000,
        "typeLocal": "Maison",
        "surfaceM2": 45,
        "isVefa": false
      }
    ]
  },
  "5ddc6fc4b501": {
    "id": "5ddc6fc4b501",
    "label": "11 RUE DE LA FONDERIE, Tourcoing",
    "lat": 50.711348,
    "lng": 3.165666,
    "transactions": [
      {
        "date": "2024-03-22",
        "priceEur": 384000,
        "typeLocal": "Maison",
        "surfaceM2": 147,
        "isVefa": false
      }
    ]
  },
  "f1a747e92c7b": {
    "id": "f1a747e92c7b",
    "label": "24 RUE JULES VERNE, Tourcoing",
    "lat": 50.714441,
    "lng": 3.171116,
    "transactions": [
      {
        "date": "2024-04-11",
        "priceEur": 70000,
        "typeLocal": "Maison",
        "surfaceM2": 68,
        "isVefa": false
      }
    ]
  },
  "cd148d0fd52a": {
    "id": "cd148d0fd52a",
    "label": "15 RUE DE LA FONDERIE, Tourcoing",
    "lat": 50.71132,
    "lng": 3.165491,
    "transactions": [
      {
        "date": "2024-05-06",
        "priceEur": 180000,
        "typeLocal": "Appartement",
        "surfaceM2": 52,
        "isVefa": false
      },
      {
        "date": "2024-05-06",
        "priceEur": 180000,
        "typeLocal": "Appartement",
        "surfaceM2": 38,
        "isVefa": false
      }
    ]
  },
  "9555d5ab50a7": {
    "id": "9555d5ab50a7",
    "label": "3 RUE STEPHENSON, Tourcoing",
    "lat": 50.71033,
    "lng": 3.165699,
    "transactions": [
      {
        "date": "2024-05-27",
        "priceEur": 123000,
        "typeLocal": "Maison",
        "surfaceM2": 84,
        "isVefa": false
      }
    ]
  },
  "339753d57e93": {
    "id": "339753d57e93",
    "label": "3 VC DELCROIX RUE 5 VOIES, Tourcoing",
    "lat": 50.710855,
    "lng": 3.170644,
    "transactions": [
      {
        "date": "2024-05-24",
        "priceEur": 140000,
        "typeLocal": "Maison",
        "surfaceM2": 70,
        "isVefa": false
      }
    ]
  },
  "694cfe43c028": {
    "id": "694cfe43c028",
    "label": "20 RUE DE L EPIDEME, Tourcoing",
    "lat": 50.713033,
    "lng": 3.168538,
    "transactions": [
      {
        "date": "2024-06-19",
        "priceEur": 190000,
        "typeLocal": "Maison",
        "surfaceM2": 90,
        "isVefa": false
      }
    ]
  },
  "94277db83109": {
    "id": "94277db83109",
    "label": "16 VC ST LOUIS215RUE CINQ VOIES, Tourcoing",
    "lat": 50.711306,
    "lng": 3.170822,
    "transactions": [
      {
        "date": "2024-06-26",
        "priceEur": 127000,
        "typeLocal": "Maison",
        "surfaceM2": 51,
        "isVefa": false
      }
    ]
  },
  "75cc73ca3f94": {
    "id": "75cc73ca3f94",
    "label": "96 RUE DES CINQ VOIES, Tourcoing",
    "lat": 50.713135,
    "lng": 3.167396,
    "transactions": [
      {
        "date": "2024-06-21",
        "priceEur": 87000,
        "typeLocal": "Maison",
        "surfaceM2": 49,
        "isVefa": false
      }
    ]
  },
  "7043648abc18": {
    "id": "7043648abc18",
    "label": "57 RUE NUNGESSER ET COLI, Wattrelos",
    "lat": 50.713179,
    "lng": 3.173504,
    "transactions": [
      {
        "date": "2024-07-31",
        "priceEur": 140000,
        "typeLocal": "Maison",
        "surfaceM2": 76,
        "isVefa": false
      }
    ]
  },
  "e16a6f6ba7eb": {
    "id": "e16a6f6ba7eb",
    "label": "17 RUE EUGENE DELACROIX, Wattrelos",
    "lat": 50.71117,
    "lng": 3.174514,
    "transactions": [
      {
        "date": "2024-08-14",
        "priceEur": 140000,
        "typeLocal": "Maison",
        "surfaceM2": 78,
        "isVefa": false
      }
    ]
  },
  "9659a409f81b": {
    "id": "9659a409f81b",
    "label": "256 RUE DE L UNION, Wattrelos",
    "lat": 50.710564,
    "lng": 3.174409,
    "transactions": [
      {
        "date": "2024-09-04",
        "priceEur": 155000,
        "typeLocal": "Maison",
        "surfaceM2": 75,
        "isVefa": false
      }
    ]
  },
  "4d03e8d24b74": {
    "id": "4d03e8d24b74",
    "label": "25 RUE DE SECLIN, Tourcoing",
    "lat": 50.712741,
    "lng": 3.168775,
    "transactions": [
      {
        "date": "2024-08-29",
        "priceEur": 95000,
        "typeLocal": "Maison",
        "surfaceM2": 67,
        "isVefa": false
      }
    ]
  },
  "7f731474e4db": {
    "id": "7f731474e4db",
    "label": "19 RUE D ORCHIES, Tourcoing",
    "lat": 50.713246,
    "lng": 3.169412,
    "transactions": [
      {
        "date": "2024-09-16",
        "priceEur": 3435641.5,
        "typeLocal": "Maison",
        "surfaceM2": 91,
        "isVefa": false
      }
    ]
  },
  "4c7165d3c81d": {
    "id": "4c7165d3c81d",
    "label": "109B RUE DE ROUBAIX, Tourcoing",
    "lat": 50.710904,
    "lng": 3.167338,
    "transactions": [
      {
        "date": "2024-10-03",
        "priceEur": 187500,
        "typeLocal": "Appartement",
        "surfaceM2": 89,
        "isVefa": false
      }
    ]
  },
  "5c2a3c283a68": {
    "id": "5c2a3c283a68",
    "label": "101B RUE DE LA TOSSEE, Tourcoing",
    "lat": 50.71029,
    "lng": 3.166618,
    "transactions": [
      {
        "date": "2024-12-10",
        "priceEur": 82000,
        "typeLocal": "Maison",
        "surfaceM2": 70,
        "isVefa": false
      }
    ]
  },
  "f8604db93e91": {
    "id": "f8604db93e91",
    "label": "104 RUE DE LA TOSSEE, Tourcoing",
    "lat": 50.710772,
    "lng": 3.165262,
    "transactions": [
      {
        "date": "2024-12-18",
        "priceEur": 205000,
        "typeLocal": "Maison",
        "surfaceM2": 72,
        "isVefa": false
      }
    ]
  },
  "1663c4925403": {
    "id": "1663c4925403",
    "label": "34 RUE BALZAC, Tourcoing",
    "lat": 50.710762,
    "lng": 3.168623,
    "transactions": [
      {
        "date": "2024-12-30",
        "priceEur": 184450,
        "typeLocal": "Maison",
        "surfaceM2": 123,
        "isVefa": false
      }
    ]
  },
  "2938767ec1f6": {
    "id": "2938767ec1f6",
    "label": "172 RUE DE ROUBAIX, Tourcoing",
    "lat": 50.710237,
    "lng": 3.166911,
    "transactions": [
      {
        "date": "2025-02-26",
        "priceEur": 90000,
        "typeLocal": "Maison",
        "surfaceM2": 64,
        "isVefa": false
      }
    ]
  },
  "9517da819c71": {
    "id": "9517da819c71",
    "label": "24 RUE DES CINQ VOIES, Tourcoing",
    "lat": 50.714747,
    "lng": 3.166442,
    "transactions": [
      {
        "date": "2025-04-23",
        "priceEur": 170000,
        "typeLocal": "Maison",
        "surfaceM2": 108,
        "isVefa": false
      }
    ]
  }
}