{
  "1aef0c9f168b": {
    "id": "1aef0c9f168b",
    "label": "63 RUE EMILE GLINEUR, Flines-lez-Raches",
    "lat": 50.420239,
    "lng": 3.171447,
    "transactions": [
      {
        "date": "2023-03-17",
        "priceEur": 110000,
        "typeLocal": "Maison",
        "surfaceM2": 51,
        "isVefa": false
      }
    ]
  },
  "974b91fac2c6": {
    "id": "974b91fac2c6",
    "label": "114 RUE GABRIEL PERI, Flines-lez-Raches",
    "lat": 50.418855,
    "lng": 3.171521,
    "transactions": [
      {
        "date": "2023-09-18",
        "priceEur": 245000,
        "typeLocal": "Maison",
        "surfaceM2": 116,
        "isVefa": false
      }
    ]
  },
  "b6721c7861d6": {
    "id": "b6721c7861d6",
    "label": "43 RUE EMILE GLINEUR, Flines-lez-Raches",
    "lat": 50.421341,
    "lng": 3.171014,
    "transactions": [
      {
        "date": "2024-04-08",
        "priceEur": 264900,
        "typeLocal": "Maison",
        "surfaceM2": 80,
        "isVefa": false
      }
    ]
  },
  "9bc0fdfe1854": {
    "id": "9bc0fdfe1854",
    "label": "34 RUE DU CHATEAU, Flines-lez-Raches",
    "lat": 50.41778,
    "lng": 3.17141,
    "transactions": [
      {
        "date": "2024-04-22",
        "priceEur": 120000,
        "typeLocal": "Maison",
        "surfaceM2": 100,
        "isVefa": false
      }
    ]
  },
  "d539e4ee75b2": {
    "id": "d539e4ee75b2",
    "label": "22 RUE DE MONTREUIL, Flines-lez-Raches",
    "lat": 50.416757,
    "lng": 3.172421,
    "transactions": [
      {
        "date": "2024-04-26",
        "priceEur": 370000,
        "typeLocal": "Maison",
        "surfaceM2": 139,
        "isVefa": false
      }
    ]
  },
  "09ab1efbc699": {
    "id": "09ab1efbc699",
    "label": "6 RUE DU PONT DES VACHES, Flines-lez-Raches",
    "lat": 50.417731,
    "lng": 3.170423,
    "transactions": [
      {
        "date": "2024-06-21",
        "priceEur": 235000,
        "typeLocal": "Maison",
        "surfaceM2": 97,
        "isVefa": false
      }
    ]
  },
  "73d17a554d39": {
    "id": "73d17a554d39",
    "label": "17 RUE DE L ABBAYE, Flines-lez-Raches",
    "lat": 50.417603,
    "lng": 3.168805,
    "transactions": [
      {
        "date": "2024-08-01",
        "priceEur": 296500,
        "typeLocal": "Maison",
        "surfaceM2": 143,
        "isVefa": false
      }
    ]
  },
  "0ed70997c87e": {
    "id": "0ed70997c87e",
    "label": "41B RUE EMILE GLINEUR, Flines-lez-Raches",
    "lat": 50.421282,
    "lng": 3.170721,
    "transactions": [
      {
        "date": "2024-09-09",
        "priceEur": 151000,
        "typeLocal": "Maison",
        "surfaceM2": 85,
        "isVefa": false
      }
    ]
  },
  "c0b950ff9df2": {
    "id": "c0b950ff9df2",
    "label": "3 RUE DE MONTREUIL, Flines-lez-Raches",
    "lat": 50.418171,
    "lng": 3.173802,
    "transactions": [
      {
        "date": "2025-02-14",
        "priceEur": 259550,
        "typeLocal": "Maison",
        "surfaceM2": 106,
        "isVefa": false
      }
    ]
  }
}