{
  "dfe79445d51c": {
    "id": "dfe79445d51c",
    "label": "5 RUE ELIE MERCIER, Lys-lez-Lannoy",
    "lat": 50.67213,
    "lng": 3.208549,
    "transactions": [
      {
        "date": "2023-03-16",
        "priceEur": 95000,
        "typeLocal": "Appartement",
        "surfaceM2": 58,
        "isVefa": false
      },
      {
        "date": "2020-07-01",
        "priceEur": 101000,
        "typeLocal": "Appartement",
        "surfaceM2": 67,
        "isVefa": false
      }
    ]
  },
  "5359818ad272": {
    "id": "5359818ad272",
    "label": "109 RES DU PARC D AUTEUIL, Lys-lez-Lannoy",
    "lat": 50.668593,
    "lng": 3.21597,
    "transactions": [
      {
        "date": "2024-03-11",
        "priceEur": 190000,
        "typeLocal": "Appartement",
        "surfaceM2": 92,
        "isVefa": false
      },
      {
        "date": "2023-12-01",
        "priceEur": 94010,
        "typeLocal": "Appartement",
        "surfaceM2": 50,
        "isVefa": false
      },
      {
        "date": "2023-01-06",
        "priceEur": 168350,
        "typeLocal": "Appartement",
        "surfaceM2": 64,
        "isVefa": false
      },
      {
        "date": "2021-01-15",
        "priceEur": 110000,
        "typeLocal": "Appartement",
        "surfaceM2": 50,
        "isVefa": false
      },
      {
        "date": "2020-11-25",
        "priceEur": 124000,
        "typeLocal": "Appartement",
        "surfaceM2": 80,
        "isVefa": false
      },
      {
        "date": "2020-07-03",
        "priceEur": 129000,
        "typeLocal": "Appartement",
        "surfaceM2": 50,
        "isVefa": false
      }
    ]
  },
  "10bd82c5d67e": {
    "id": "10bd82c5d67e",
    "label": "52 RUE J B LEBAS, Lys-lez-Lannoy",
    "lat": 50.669465,
    "lng": 3.214604,
    "transactions": [
      {
        "date": "2020-07-09",
        "priceEur": 165000,
        "typeLocal": "Maison",
        "surfaceM2": 61,
        "isVefa": false
      }
    ]
  },
  "f9ad6d5458b2": {
    "id": "f9ad6d5458b2",
    "label": "20 CTR ECHEVIN, Lys-lez-Lannoy",
    "lat": 50.673667,
    "lng": 3.217429,
    "transactions": [
      {
        "date": "2024-02-28",
        "priceEur": 116721,
        "typeLocal": "Maison",
        "surfaceM2": 75,
        "isVefa": false
      },
      {
        "date": "2020-07-30",
        "priceEur": 261250,
        "typeLocal": "Maison",
        "surfaceM2": 75,
        "isVefa": false
      }
    ]
  },
  "6ae54b57a132": {
    "id": "6ae54b57a132",
    "label": "7 RUE ELIE MERCIER, Lys-lez-Lannoy",
    "lat": 50.67213,
    "lng": 3.208549,
    "transactions": [
      {
        "date": "2024-10-14",
        "priceEur": 90350,
        "typeLocal": "Appartement",
        "surfaceM2": 58,
        "isVefa": false
      },
      {
        "date": "2020-07-29",
        "priceEur": 60000,
        "typeLocal": "Appartement",
        "surfaceM2": 58,
        "isVefa": false
      }
    ]
  },
  "916a9bfe4008": {
    "id": "916a9bfe4008",
    "label": "10 RUE DU COLISEE, Lys-lez-Lannoy",
    "lat": 50.66838,
    "lng": 3.217485,
    "transactions": [
      {
        "date": "2024-12-23",
        "priceEur": 196214,
        "typeLocal": "Appartement",
        "surfaceM2": 73,
        "isVefa": false
      },
      {
        "date": "2024-12-23",
        "priceEur": 189000,
        "typeLocal": "Appartement",
        "surfaceM2": 62,
        "isVefa": false
      },
      {
        "date": "2023-03-16",
        "priceEur": 289000,
        "typeLocal": "Maison",
        "surfaceM2": 100,
        "isVefa": true
      },
      {
        "date": "2023-02-03",
        "priceEur": 273792,
        "typeLocal": "Appartement",
        "surfaceM2": 74,
        "isVefa": true
      },
      {
        "date": "2022-12-12",
        "priceEur": 263792,
        "typeLocal": "Appartement",
        "surfaceM2": 71,
        "isVefa": true
      },
      {
        "date": "2022-11-18",
        "priceEur": 263792,
        "typeLocal": "Appartement",
        "surfaceM2": 56,
        "isVefa": true
      },
      {
        "date": "2022-11-15",
        "priceEur": 261792,
        "typeLocal": "Appartement",
        "surfaceM2": 71,
        "isVefa": true
      },
      {
        "date": "2022-08-24",
        "priceEur": 294999,
        "typeLocal": "Maison",
        "surfaceM2": 100,
        "isVefa": true
      },
      {
        "date": "2022-08-01",
        "priceEur": 312000,
        "typeLocal": "Maison",
        "surfaceM2": 100,
        "isVefa": true
      },
      {
        "date": "2022-06-08",
        "priceEur": 299000,
        "typeLocal": "Maison",
        "surfaceM2": 100,
        "isVefa": true
      },
      {
        "date": "2022-04-01",
        "priceEur": 299000,
        "typeLocal": "Maison",
        "surfaceM2": 100,
        "isVefa": true
      },
      {
        "date": "2021-04-02",
        "priceEur": 2448979.2,
        "typeLocal": "Appartement",
        "surfaceM2": 45,
        "isVefa": false
      },
      {
        "date": "2021-04-02",
        "priceEur": 2448979.2,
        "typeLocal": "Appartement",
        "surfaceM2": 52,
        "isVefa": false
      },
      {
        "date": "2021-04-02",
        "priceEur": 2448979.2,
        "typeLocal": "Appartement",
        "surfaceM2": 72,
        "isVefa": false
      },
      {
        "date": "2021-04-02",
        "priceEur": 2448979.2,
        "typeLocal": "Appartement",
        "surfaceM2": 50,
        "isVefa": false
      },
      {
        "date": "2021-04-02",
        "priceEur": 2448979.2,
        "typeLocal": "Appartement",
        "surfaceM2": 67,
        "isVefa": false
      },
      {
        "date": "2021-04-02",
        "priceEur": 2448979.2,
        "typeLocal": "Appartement",
        "surfaceM2": 65,
        "isVefa": false
      },
      {
        "date": "2021-04-02",
        "priceEur": 2448979.2,
        "typeLocal": "Appartement",
        "surfaceM2": 49,
        "isVefa": false
      },
      {
        "date": "2021-02-05",
        "priceEur": 157000,
        "typeLocal": "Appartement",
        "surfaceM2": 39,
        "isVefa": true
      },
      {
        "date": "2020-12-23",
        "priceEur": 263000,
        "typeLocal": "Maison",
        "surfaceM2": 86,
        "isVefa": true
      },
      {
        "date": "2020-10-30",
        "priceEur": 157600,
        "typeLocal": "Appartement",
        "surfaceM2": 41,
        "isVefa": true
      },
      {
        "date": "2020-10-30",
        "priceEur": 249000,
        "typeLocal": "Appartement",
        "surfaceM2": 71,
        "isVefa": true
      },
      {
        "date": "2020-10-20",
        "priceEur": 299000,
        "typeLocal": "Maison",
        "surfaceM2": 100,
        "isVefa": true
      },
      {
        "date": "2020-09-25",
        "priceEur": 212000,
        "typeLocal": "Appartement",
        "surfaceM2": 60,
        "isVefa": true
      },
      {
        "date": "2020-07-23",
        "priceEur": 268600,
        "typeLocal": "Maison",
        "surfaceM2": 86,
        "isVefa": true
      }
    ]
  },
  "aeaa103c695c": {
    "id": "aeaa103c695c",
    "label": "1 IMP ALFRED BARA, Lys-lez-Lannoy",
    "lat": 50.671891,
    "lng": 3.218962,
    "transactions": [
      {
        "date": "2020-08-13",
        "priceEur": 166400,
        "typeLocal": "Maison",
        "surfaceM2": 100,
        "isVefa": false
      }
    ]
  },
  "1b2093baa40a": {
    "id": "1b2093baa40a",
    "label": "14 RUE DES ECOLES, Lys-lez-Lannoy",
    "lat": 50.671286,
    "lng": 3.210604,
    "transactions": [
      {
        "date": "2020-07-24",
        "priceEur": 155000,
        "typeLocal": "Maison",
        "surfaceM2": 77,
        "isVefa": false
      }
    ]
  },
  "73e23dd22cb1": {
    "id": "73e23dd22cb1",
    "label": "9 RUE ECHEVIN, Lys-lez-Lannoy",
    "lat": 50.673155,
    "lng": 3.216561,
    "transactions": [
      {
        "date": "2020-07-27",
        "priceEur": 165000,
        "typeLocal": "Maison",
        "surfaceM2": 80,
        "isVefa": false
      }
    ]
  },
  "8aa1b17726b8": {
    "id": "8aa1b17726b8",
    "label": "69 RUE J B LEBAS, Lys-lez-Lannoy",
    "lat": 50.671052,
    "lng": 3.218165,
    "transactions": [
      {
        "date": "2020-08-18",
        "priceEur": 152000,
        "typeLocal": "Maison",
        "surfaceM2": 115,
        "isVefa": false
      }
    ]
  },
  "ef9bf7d567c7": {
    "id": "ef9bf7d567c7",
    "label": "11 RUE LOUIS CARETTE, Lys-lez-Lannoy",
    "lat": 50.672947,
    "lng": 3.218254,
    "transactions": [
      {
        "date": "2020-08-28",
        "priceEur": 157000,
        "typeLocal": "Maison",
        "surfaceM2": 80,
        "isVefa": false
      }
    ]
  },
  "6f0b8a0ccaa5": {
    "id": "6f0b8a0ccaa5",
    "label": "73 RUE DU PROGRES, Lys-lez-Lannoy",
    "lat": 50.669891,
    "lng": 3.211285,
    "transactions": [
      {
        "date": "2020-09-16",
        "priceEur": 230000,
        "typeLocal": "Maison",
        "surfaceM2": 111,
        "isVefa": false
      }
    ]
  },
  "37042a0fcaaa": {
    "id": "37042a0fcaaa",
    "label": "60 AV PAUL BERT, Lys-lez-Lannoy",
    "lat": 50.671322,
    "lng": 3.213669,
    "transactions": [
      {
        "date": "2020-09-16",
        "priceEur": 218000,
        "typeLocal": "Maison",
        "surfaceM2": 112,
        "isVefa": false
      }
    ]
  },
  "7644cadcbeb6": {
    "id": "7644cadcbeb6",
    "label": "89 RUE DU COLISEE, Lys-lez-Lannoy",
    "lat": 50.666924,
    "lng": 3.216937,
    "transactions": [
      {
        "date": "2024-10-18",
        "priceEur": 223000,
        "typeLocal": "Maison",
        "surfaceM2": 86,
        "isVefa": false
      },
      {
        "date": "2020-09-29",
        "priceEur": 230000,
        "typeLocal": "Maison",
        "surfaceM2": 86,
        "isVefa": false
      }
    ]
  },
  "206ad7d4741d": {
    "id": "206ad7d4741d",
    "label": "16 RUE DU PRESIDENT KENNEDY, Lys-lez-Lannoy",
    "lat": 50.673187,
    "lng": 3.21048,
    "transactions": [
      {
        "date": "2020-10-09",
        "priceEur": 191300,
        "typeLocal": "Maison",
        "surfaceM2": 77,
        "isVefa": false
      }
    ]
  },
  "6a1f4771df02": {
    "id": "6a1f4771df02",
    "label": "79 RUE J B LEBAS, Lys-lez-Lannoy",
    "lat": 50.671226,
    "lng": 3.218617,
    "transactions": [
      {
        "date": "2020-10-13",
        "priceEur": 281200,
        "typeLocal": "Maison",
        "surfaceM2": 115,
        "isVefa": false
      }
    ]
  },
  "a20fcc9c357e": {
    "id": "a20fcc9c357e",
    "label": "21 RUE JEANNE HACHETTE, Lys-lez-Lannoy",
    "lat": 50.670824,
    "lng": 3.217113,
    "transactions": [
      {
        "date": "2020-10-14",
        "priceEur": 173000,
        "typeLocal": "Maison",
        "surfaceM2": 90,
        "isVefa": false
      }
    ]
  },
  "8ce17ce562d2": {
    "id": "8ce17ce562d2",
    "label": "54 RUE J B LEBAS, Lys-lez-Lannoy",
    "lat": 50.669465,
    "lng": 3.21465,
    "transactions": [
      {
        "date": "2020-10-09",
        "priceEur": 130000,
        "typeLocal": "Maison",
        "surfaceM2": 56,
        "isVefa": false
      }
    ]
  },
  "84f7d7b184fb": {
    "id": "84f7d7b184fb",
    "label": "103 RES DU PARC D AUTEUIL, Lys-lez-Lannoy",
    "lat": 50.668593,
    "lng": 3.21597,
    "transactions": [
      {
        "date": "2024-11-12",
        "priceEur": 219000,
        "typeLocal": "Appartement",
        "surfaceM2": 92,
        "isVefa": false
      },
      {
        "date": "2023-11-03",
        "priceEur": 214000,
        "typeLocal": "Appartement",
        "surfaceM2": 92,
        "isVefa": false
      },
      {
        "date": "2022-10-26",
        "priceEur": 205000,
        "typeLocal": "Appartement",
        "surfaceM2": 80,
        "isVefa": false
      },
      {
        "date": "2022-09-23",
        "priceEur": 147480,
        "typeLocal": "Appartement",
        "surfaceM2": 50,
        "isVefa": false
      },
      {
        "date": "2020-10-22",
        "priceEur": 105000,
        "typeLocal": "Appartement",
        "surfaceM2": 50,
        "isVefa": false
      },
      {
        "date": "2020-10-16",
        "priceEur": 138000,
        "typeLocal": "Appartement",
        "surfaceM2": 64,
        "isVefa": false
      }
    ]
  },
  "c8b5243ef1d4": {
    "id": "c8b5243ef1d4",
    "label": "70 RUE J B LEBAS, Lys-lez-Lannoy",
    "lat": 50.670074,
    "lng": 3.216539,
    "transactions": [
      {
        "date": "2023-03-01",
        "priceEur": 60000,
        "typeLocal": "Appartement",
        "surfaceM2": 27,
        "isVefa": false
      },
      {
        "date": "2021-07-26",
        "priceEur": 60000,
        "typeLocal": "Appartement",
        "surfaceM2": 27,
        "isVefa": false
      },
      {
        "date": "2020-10-13",
        "priceEur": 19000,
        "typeLocal": "Appartement",
        "surfaceM2": 18,
        "isVefa": false
      }
    ]
  },
  "3b4aace5a972": {
    "id": "3b4aace5a972",
    "label": "15 RUE DES 3 FRERES REMY, Lannoy",
    "lat": 50.667732,
    "lng": 3.21142,
    "transactions": [
      {
        "date": "2020-10-19",
        "priceEur": 211000,
        "typeLocal": "Maison",
        "surfaceM2": 130,
        "isVefa": false
      }
    ]
  },
  "645ef9307748": {
    "id": "645ef9307748",
    "label": "7 RUE NATIONALE, Lannoy",
    "lat": 50.667404,
    "lng": 3.210305,
    "transactions": [
      {
        "date": "2020-10-23",
        "priceEur": 140000,
        "typeLocal": "Maison",
        "surfaceM2": 82,
        "isVefa": false
      }
    ]
  },
  "31edcb744078": {
    "id": "31edcb744078",
    "label": "18 CTR ECHEVIN, Lys-lez-Lannoy",
    "lat": 50.673781,
    "lng": 3.217496,
    "transactions": [
      {
        "date": "2020-10-28",
        "priceEur": 295000,
        "typeLocal": "Maison",
        "surfaceM2": 120,
        "isVefa": false
      }
    ]
  },
  "8368aed5d3cd": {
    "id": "8368aed5d3cd",
    "label": "8 RUE JEANNE D ARC, Lys-lez-Lannoy",
    "lat": 50.669691,
    "lng": 3.21737,
    "transactions": [
      {
        "date": "2020-10-29",
        "priceEur": 172000,
        "typeLocal": "Maison",
        "surfaceM2": 84,
        "isVefa": false
      }
    ]
  },
  "5091d892b499": {
    "id": "5091d892b499",
    "label": "25B RUE GABRIEL PERI, Lys-lez-Lannoy",
    "lat": 50.671554,
    "lng": 3.216783,
    "transactions": [
      {
        "date": "2021-08-11",
        "priceEur": 204500,
        "typeLocal": "Maison",
        "surfaceM2": 100,
        "isVefa": false
      },
      {
        "date": "2020-10-29",
        "priceEur": 203000,
        "typeLocal": "Maison",
        "surfaceM2": 100,
        "isVefa": false
      }
    ]
  },
  "cfde10a3662b": {
    "id": "cfde10a3662b",
    "label": "15 RUE DU PRESIDENT KENNEDY, Lys-lez-Lannoy",
    "lat": 50.672898,
    "lng": 3.211097,
    "transactions": [
      {
        "date": "2020-11-20",
        "priceEur": 215000,
        "typeLocal": "Maison",
        "surfaceM2": 107,
        "isVefa": false
      }
    ]
  },
  "b165ff1e0209": {
    "id": "b165ff1e0209",
    "label": "107 RES DU PARC D AUTEUIL, Lys-lez-Lannoy",
    "lat": 50.668593,
    "lng": 3.21597,
    "transactions": [
      {
        "date": "2025-01-15",
        "priceEur": 222500,
        "typeLocal": "Appartement",
        "surfaceM2": 92,
        "isVefa": false
      },
      {
        "date": "2023-02-27",
        "priceEur": 215000,
        "typeLocal": "Appartement",
        "surfaceM2": 92,
        "isVefa": false
      },
      {
        "date": "2022-04-04",
        "priceEur": 175000,
        "typeLocal": "Appartement",
        "surfaceM2": 92,
        "isVefa": false
      },
      {
        "date": "2021-10-14",
        "priceEur": 180000,
        "typeLocal": "Appartement",
        "surfaceM2": 80,
        "isVefa": false
      },
      {
        "date": "2020-10-30",
        "priceEur": 123000,
        "typeLocal": "Appartement",
        "surfaceM2": 50,
        "isVefa": false
      }
    ]
  },
  "58c7f52d613f": {
    "id": "58c7f52d613f",
    "label": "101 RES DU PARC D AUTEUIL, Lys-lez-Lannoy",
    "lat": 50.668593,
    "lng": 3.21597,
    "transactions": [
      {
        "date": "2024-09-12",
        "priceEur": 215000,
        "typeLocal": "Appartement",
        "surfaceM2": 92,
        "isVefa": false
      },
      {
        "date": "2024-06-13",
        "priceEur": 200000,
        "typeLocal": "Appartement",
        "surfaceM2": 92,
        "isVefa": false
      },
      {
        "date": "2023-09-22",
        "priceEur": 144950,
        "typeLocal": "Appartement",
        "surfaceM2": 64,
        "isVefa": false
      },
      {
        "date": "2022-09-01",
        "priceEur": 188000,
        "typeLocal": "Appartement",
        "surfaceM2": 80,
        "isVefa": false
      },
      {
        "date": "2021-11-24",
        "priceEur": 119000,
        "typeLocal": "Appartement",
        "surfaceM2": 64,
        "isVefa": false
      },
      {
        "date": "2020-11-27",
        "priceEur": 170000,
        "typeLocal": "Appartement",
        "surfaceM2": 92,
        "isVefa": false
      }
    ]
  },
  "1b9f493e673f": {
    "id": "1b9f493e673f",
    "label": "3 RUE ARTHUR BACRO, Lys-lez-Lannoy",
    "lat": 50.669965,
    "lng": 3.209237,
    "transactions": [
      {
        "date": "2022-09-28",
        "priceEur": 78200,
        "typeLocal": "Appartement",
        "surfaceM2": 42,
        "isVefa": false
      },
      {
        "date": "2022-06-13",
        "priceEur": 82000,
        "typeLocal": "Appartement",
        "surfaceM2": 42,
        "isVefa": false
      },
      {
        "date": "2021-12-21",
        "priceEur": 83000,
        "typeLocal": "Appartement",
        "surfaceM2": 42,
        "isVefa": false
      },
      {
        "date": "2021-01-29",
        "priceEur": 64820,
        "typeLocal": "Appartement",
        "surfaceM2": 42,
        "isVefa": false
      },
      {
        "date": "2020-11-30",
        "priceEur": 62660,
        "typeLocal": "Appartement",
        "surfaceM2": 42,
        "isVefa": false
      }
    ]
  },
  "255fb8c7cdf2": {
    "id": "255fb8c7cdf2",
    "label": "9 RUE ARTHUR BACRO, Lys-lez-Lannoy",
    "lat": 50.669965,
    "lng": 3.209237,
    "transactions": [
      {
        "date": "2021-04-12",
        "priceEur": 127500,
        "typeLocal": "Appartement",
        "surfaceM2": 68,
        "isVefa": false
      },
      {
        "date": "2020-12-14",
        "priceEur": 117000,
        "typeLocal": "Appartement",
        "surfaceM2": 68,
        "isVefa": false
      }
    ]
  },
  "fa82e266f477": {
    "id": "fa82e266f477",
    "label": "82 RUE J B LEBAS, Lys-lez-Lannoy",
    "lat": 50.670166,
    "lng": 3.217103,
    "transactions": [
      {
        "date": "2020-12-16",
        "priceEur": 180000,
        "typeLocal": "Maison",
        "surfaceM2": 109,
        "isVefa": false
      }
    ]
  },
  "cfc2607094aa": {
    "id": "cfc2607094aa",
    "label": "133 AV PAUL BERT, Lys-lez-Lannoy",
    "lat": 50.672811,
    "lng": 3.211886,
    "transactions": [
      {
        "date": "2020-12-21",
        "priceEur": 260000,
        "typeLocal": "Maison",
        "surfaceM2": 95,
        "isVefa": false
      }
    ]
  },
  "a0f480faf841": {
    "id": "a0f480faf841",
    "label": "6 RUE DES 3 FRERES REMY, Lannoy",
    "lat": 50.667475,
    "lng": 3.211499,
    "transactions": [
      {
        "date": "2020-12-21",
        "priceEur": 163000,
        "typeLocal": "Maison",
        "surfaceM2": 100,
        "isVefa": false
      }
    ]
  },
  "e16f2c477993": {
    "id": "e16f2c477993",
    "label": "3 RUE GRATIEN SIX, Lys-lez-Lannoy",
    "lat": 50.672456,
    "lng": 3.216668,
    "transactions": [
      {
        "date": "2021-01-07",
        "priceEur": 189000,
        "typeLocal": "Maison",
        "surfaceM2": 84,
        "isVefa": false
      }
    ]
  },
  "81c96fe1e451": {
    "id": "81c96fe1e451",
    "label": "10 RUE DES 3 FRERES REMY, Lannoy",
    "lat": 50.667559,
    "lng": 3.211687,
    "transactions": [
      {
        "date": "2021-01-25",
        "priceEur": 93500,
        "typeLocal": "Appartement",
        "surfaceM2": 81,
        "isVefa": false
      }
    ]
  },
  "741bcbbe7862": {
    "id": "741bcbbe7862",
    "label": "4 ALL DU LABOUREUR, Lys-lez-Lannoy",
    "lat": 50.669035,
    "lng": 3.218973,
    "transactions": [
      {
        "date": "2021-01-28",
        "priceEur": 273750,
        "typeLocal": "Maison",
        "surfaceM2": 101,
        "isVefa": false
      }
    ]
  },
  "0ad2dcfaeb5a": {
    "id": "0ad2dcfaeb5a",
    "label": "1D RUE JEAN BART, Lys-lez-Lannoy",
    "lat": 50.670377,
    "lng": 3.216227,
    "transactions": [
      {
        "date": "2021-02-18",
        "priceEur": 130000,
        "typeLocal": "Maison",
        "surfaceM2": 78,
        "isVefa": false
      }
    ]
  },
  "94d147e899b3": {
    "id": "94d147e899b3",
    "label": "44 RUE DU PROGRES, Lys-lez-Lannoy",
    "lat": 50.669965,
    "lng": 3.209237,
    "transactions": [
      {
        "date": "2023-10-02",
        "priceEur": 108000,
        "typeLocal": "Appartement",
        "surfaceM2": 68,
        "isVefa": false
      },
      {
        "date": "2021-05-05",
        "priceEur": 80690,
        "typeLocal": "Appartement",
        "surfaceM2": 59,
        "isVefa": false
      },
      {
        "date": "2021-02-24",
        "priceEur": 82000,
        "typeLocal": "Appartement",
        "surfaceM2": 59,
        "isVefa": false
      }
    ]
  },
  "ed0a2aba0c21": {
    "id": "ed0a2aba0c21",
    "label": "43 RUE GABRIEL PERI, Lys-lez-Lannoy",
    "lat": 50.671866,
    "lng": 3.216392,
    "transactions": [
      {
        "date": "2021-03-05",
        "priceEur": 169000,
        "typeLocal": "Maison",
        "surfaceM2": 75,
        "isVefa": false
      }
    ]
  },
  "a679b7a09bcb": {
    "id": "a679b7a09bcb",
    "label": "1 RUE LOUIS CARETTE, Lys-lez-Lannoy",
    "lat": 50.672763,
    "lng": 3.217813,
    "transactions": [
      {
        "date": "2023-05-03",
        "priceEur": 260531,
        "typeLocal": "Maison",
        "surfaceM2": 79,
        "isVefa": false
      },
      {
        "date": "2021-03-03",
        "priceEur": 240000,
        "typeLocal": "Maison",
        "surfaceM2": 79,
        "isVefa": false
      }
    ]
  },
  "35fe4e590bfb": {
    "id": "35fe4e590bfb",
    "label": "1 RUE ELIE MERCIER, Lys-lez-Lannoy",
    "lat": 50.67213,
    "lng": 3.208549,
    "transactions": [
      {
        "date": "2024-11-29",
        "priceEur": 101000,
        "typeLocal": "Appartement",
        "surfaceM2": 67,
        "isVefa": false
      },
      {
        "date": "2022-03-18",
        "priceEur": 116500,
        "typeLocal": "Appartement",
        "surfaceM2": 67,
        "isVefa": false
      },
      {
        "date": "2021-03-16",
        "priceEur": 87000,
        "typeLocal": "Appartement",
        "surfaceM2": 67,
        "isVefa": false
      }
    ]
  },
  "59e617fffd37": {
    "id": "59e617fffd37",
    "label": "92 AV PAUL BERT, Lys-lez-Lannoy",
    "lat": 50.672523,
    "lng": 3.213063,
    "transactions": [
      {
        "date": "2021-03-15",
        "priceEur": 313000,
        "typeLocal": "Maison",
        "surfaceM2": 99,
        "isVefa": false
      }
    ]
  },
  "a4150795f7ed": {
    "id": "a4150795f7ed",
    "label": "113 AV JEAN JAURES, Lys-lez-Lannoy",
    "lat": 50.668057,
    "lng": 3.213334,
    "transactions": [
      {
        "date": "2021-02-26",
        "priceEur": 226000,
        "typeLocal": "Maison",
        "surfaceM2": 85,
        "isVefa": false
      }
    ]
  },
  "32e9218f6dbd": {
    "id": "32e9218f6dbd",
    "label": "69 RUE DU PROGRES, Lys-lez-Lannoy",
    "lat": 50.669955,
    "lng": 3.211449,
    "transactions": [
      {
        "date": "2021-03-22",
        "priceEur": 260000,
        "typeLocal": "Maison",
        "surfaceM2": 110,
        "isVefa": false
      }
    ]
  },
  "4ba1d0433516": {
    "id": "4ba1d0433516",
    "label": "39 RUE JEAN MOULIN, Lys-lez-Lannoy",
    "lat": 50.671338,
    "lng": 3.210872,
    "transactions": [
      {
        "date": "2021-03-26",
        "priceEur": 159500,
        "typeLocal": "Maison",
        "surfaceM2": 77,
        "isVefa": false
      }
    ]
  },
  "162e710ad407": {
    "id": "162e710ad407",
    "label": "31 RUE DU PROGRES, Lys-lez-Lannoy",
    "lat": 50.671115,
    "lng": 3.214801,
    "transactions": [
      {
        "date": "2021-03-31",
        "priceEur": 145000,
        "typeLocal": "Maison",
        "surfaceM2": 82,
        "isVefa": false
      }
    ]
  },
  "076c3e832738": {
    "id": "076c3e832738",
    "label": "7 RUE DES 3 FRERES REMY, Lannoy",
    "lat": 50.667648,
    "lng": 3.211221,
    "transactions": [
      {
        "date": "2021-04-12",
        "priceEur": 330000,
        "typeLocal": "Appartement",
        "surfaceM2": 31,
        "isVefa": false
      },
      {
        "date": "2021-04-12",
        "priceEur": 330000,
        "typeLocal": "Appartement",
        "surfaceM2": 43,
        "isVefa": false
      },
      {
        "date": "2021-04-12",
        "priceEur": 330000,
        "typeLocal": "Appartement",
        "surfaceM2": 19,
        "isVefa": false
      },
      {
        "date": "2021-04-12",
        "priceEur": 330000,
        "typeLocal": "Appartement",
        "surfaceM2": 41,
        "isVefa": false
      },
      {
        "date": "2021-04-12",
        "priceEur": 330000,
        "typeLocal": "Appartement",
        "surfaceM2": 40,
        "isVefa": false
      }
    ]
  },
  "43d4d75902b8": {
    "id": "43d4d75902b8",
    "label": "15 RUE ARTHUR BACRO, Lys-lez-Lannoy",
    "lat": 50.669965,
    "lng": 3.209237,
    "transactions": [
      {
        "date": "2023-11-27",
        "priceEur": 84000,
        "typeLocal": "Appartement",
        "surfaceM2": 57,
        "isVefa": false
      },
      {
        "date": "2022-06-08",
        "priceEur": 144000,
        "typeLocal": "Appartement",
        "surfaceM2": 68,
        "isVefa": false
      },
      {
        "date": "2022-04-29",
        "priceEur": 96400,
        "typeLocal": "Appartement",
        "surfaceM2": 57,
        "isVefa": false
      },
      {
        "date": "2021-07-01",
        "priceEur": 121800,
        "typeLocal": "Appartement",
        "surfaceM2": 68,
        "isVefa": false
      },
      {
        "date": "2021-06-22",
        "priceEur": 114600,
        "typeLocal": "Appartement",
        "surfaceM2": 68,
        "isVefa": false
      },
      {
        "date": "2021-04-21",
        "priceEur": 35000,
        "typeLocal": "Appartement",
        "surfaceM2": 57,
        "isVefa": false
      }
    ]
  },
  "568a26df4876": {
    "id": "568a26df4876",
    "label": "8 RUE NATIONALE, Lannoy",
    "lat": 50.667631,
    "lng": 3.210169,
    "transactions": [
      {
        "date": "2021-04-27",
        "priceEur": 146500,
        "typeLocal": "Maison",
        "surfaceM2": 85,
        "isVefa": false
      }
    ]
  },
  "e292566113c2": {
    "id": "e292566113c2",
    "label": "18 RUE DES ECOLES, Lys-lez-Lannoy",
    "lat": 50.671609,
    "lng": 3.210598,
    "transactions": [
      {
        "date": "2021-04-26",
        "priceEur": 205000,
        "typeLocal": "Maison",
        "surfaceM2": 80,
        "isVefa": false
      }
    ]
  },
  "9b299c123d05": {
    "id": "9b299c123d05",
    "label": "50 RUE DU PROGRES, Lys-lez-Lannoy",
    "lat": 50.669965,
    "lng": 3.209237,
    "transactions": [
      {
        "date": "2021-05-21",
        "priceEur": 100000,
        "typeLocal": "Appartement",
        "surfaceM2": 59,
        "isVefa": false
      },
      {
        "date": "2021-05-20",
        "priceEur": 113500,
        "typeLocal": "Appartement",
        "surfaceM2": 59,
        "isVefa": false
      }
    ]
  },
  "7ce9a710afde": {
    "id": "7ce9a710afde",
    "label": "105 RES DU PARC D AUTEUIL, Lys-lez-Lannoy",
    "lat": 50.668593,
    "lng": 3.21597,
    "transactions": [
      {
        "date": "2023-03-29",
        "priceEur": 120000,
        "typeLocal": "Appartement",
        "surfaceM2": 80,
        "isVefa": false
      },
      {
        "date": "2022-04-07",
        "priceEur": 146000,
        "typeLocal": "Appartement",
        "surfaceM2": 64,
        "isVefa": false
      },
      {
        "date": "2021-05-19",
        "priceEur": 180000,
        "typeLocal": "Appartement",
        "surfaceM2": 80,
        "isVefa": false
      }
    ]
  },
  "216cdc940cfd": {
    "id": "216cdc940cfd",
    "label": "20 RUE GABRIEL PERI, Lys-lez-Lannoy",
    "lat": 50.671996,
    "lng": 3.216981,
    "transactions": [
      {
        "date": "2024-11-22",
        "priceEur": 173413,
        "typeLocal": "Appartement",
        "surfaceM2": 72,
        "isVefa": false
      },
      {
        "date": "2022-02-11",
        "priceEur": 150500,
        "typeLocal": "Appartement",
        "surfaceM2": 77,
        "isVefa": false
      },
      {
        "date": "2021-05-26",
        "priceEur": 148000,
        "typeLocal": "Appartement",
        "surfaceM2": 72,
        "isVefa": false
      }
    ]
  },
  "9fdb90df6ed2": {
    "id": "9fdb90df6ed2",
    "label": "79 RUE DU COLISEE, Lys-lez-Lannoy",
    "lat": 50.667195,
    "lng": 3.217314,
    "transactions": [
      {
        "date": "2021-06-11",
        "priceEur": 214551,
        "typeLocal": "Maison",
        "surfaceM2": 89,
        "isVefa": false
      }
    ]
  },
  "66e9fc6d58bc": {
    "id": "66e9fc6d58bc",
    "label": "108 RUE J B LEBAS, Lys-lez-Lannoy",
    "lat": 50.670716,
    "lng": 3.218285,
    "transactions": [
      {
        "date": "2021-06-25",
        "priceEur": 239000,
        "typeLocal": "Maison",
        "surfaceM2": 128,
        "isVefa": false
      }
    ]
  },
  "4ffcf7307fa5": {
    "id": "4ffcf7307fa5",
    "label": "66A RUE J B LEBAS, Lys-lez-Lannoy",
    "lat": 50.669788,
    "lng": 3.215903,
    "transactions": [
      {
        "date": "2021-07-20",
        "priceEur": 190000,
        "typeLocal": "Maison",
        "surfaceM2": 76,
        "isVefa": false
      }
    ]
  },
  "7c725955db84": {
    "id": "7c725955db84",
    "label": "27 RUE GABRIEL PERI, Lys-lez-Lannoy",
    "lat": 50.671571,
    "lng": 3.216667,
    "transactions": [
      {
        "date": "2021-07-30",
        "priceEur": 207000,
        "typeLocal": "Maison",
        "surfaceM2": 98,
        "isVefa": false
      }
    ]
  },
  "8b27689a64f2": {
    "id": "8b27689a64f2",
    "label": "95 RUE DU PROGRES, Lys-lez-Lannoy",
    "lat": 50.669505,
    "lng": 3.210125,
    "transactions": [
      {
        "date": "2021-07-28",
        "priceEur": 277200,
        "typeLocal": "Maison",
        "surfaceM2": 126,
        "isVefa": false
      }
    ]
  },
  "2c2396874098": {
    "id": "2c2396874098",
    "label": "94 RUE J B LEBAS, Lys-lez-Lannoy",
    "lat": 50.670507,
    "lng": 3.217696,
    "transactions": [
      {
        "date": "2021-07-15",
        "priceEur": 80000,
        "typeLocal": "Maison",
        "surfaceM2": 58,
        "isVefa": false
      }
    ]
  },
  "281e48f5c8be": {
    "id": "281e48f5c8be",
    "label": "2 RUE MONPLAISIR, Lannoy",
    "lat": 50.66693,
    "lng": 3.208009,
    "transactions": [
      {
        "date": "2021-08-27",
        "priceEur": 86000,
        "typeLocal": "Appartement",
        "surfaceM2": 62,
        "isVefa": false
      }
    ]
  },
  "b25673804fd1": {
    "id": "b25673804fd1",
    "label": "3 RUE ELIE MERCIER, Lys-lez-Lannoy",
    "lat": 50.67213,
    "lng": 3.208549,
    "transactions": [
      {
        "date": "2024-08-27",
        "priceEur": 119672,
        "typeLocal": "Appartement",
        "surfaceM2": 58,
        "isVefa": false
      },
      {
        "date": "2023-08-23",
        "priceEur": 94000,
        "typeLocal": "Appartement",
        "surfaceM2": 67,
        "isVefa": false
      },
      {
        "date": "2021-08-31",
        "priceEur": 87000,
        "typeLocal": "Appartement",
        "surfaceM2": 67,
        "isVefa": false
      }
    ]
  },
  "76e54670b052": {
    "id": "76e54670b052",
    "label": "61 RUE DE COHEM, Lys-lez-Lannoy",
    "lat": 50.673407,
    "lng": 3.218024,
    "transactions": [
      {
        "date": "2021-08-13",
        "priceEur": 385000,
        "typeLocal": "Maison",
        "surfaceM2": 97,
        "isVefa": false
      }
    ]
  },
  "1393b30394d9": {
    "id": "1393b30394d9",
    "label": "77 RUE J B LEBAS, Lys-lez-Lannoy",
    "lat": 50.671174,
    "lng": 3.218412,
    "transactions": [
      {
        "date": "2021-09-08",
        "priceEur": 347400,
        "typeLocal": "Maison",
        "surfaceM2": 180,
        "isVefa": false
      }
    ]
  },
  "0163fb0d8451": {
    "id": "0163fb0d8451",
    "label": "50 RUE J B LEBAS, Lys-lez-Lannoy",
    "lat": 50.669463,
    "lng": 3.214526,
    "transactions": [
      {
        "date": "2021-09-22",
        "priceEur": 167000,
        "typeLocal": "Maison",
        "surfaceM2": 54,
        "isVefa": false
      }
    ]
  },
  "6ae6fd9f8c63": {
    "id": "6ae6fd9f8c63",
    "label": "88 AV JEAN JAURES, Lys-lez-Lannoy",
    "lat": 50.668662,
    "lng": 3.213728,
    "transactions": [
      {
        "date": "2024-08-23",
        "priceEur": 209100,
        "typeLocal": "Maison",
        "surfaceM2": 98,
        "isVefa": false
      },
      {
        "date": "2021-09-01",
        "priceEur": 203100,
        "typeLocal": "Maison",
        "surfaceM2": 98,
        "isVefa": false
      }
    ]
  },
  "5ee8e58462aa": {
    "id": "5ee8e58462aa",
    "label": "81 RUE DU PROGRES, Lys-lez-Lannoy",
    "lat": 50.669751,
    "lng": 3.21084,
    "transactions": [
      {
        "date": "2021-09-10",
        "priceEur": 205000,
        "typeLocal": "Maison",
        "surfaceM2": 92,
        "isVefa": false
      }
    ]
  },
  "5bf4361f478b": {
    "id": "5bf4361f478b",
    "label": "40 RUE DES ECOLES, Lys-lez-Lannoy",
    "lat": 50.672304,
    "lng": 3.210055,
    "transactions": [
      {
        "date": "2021-09-23",
        "priceEur": 193000,
        "typeLocal": "Maison",
        "surfaceM2": 77,
        "isVefa": false
      }
    ]
  },
  "c32927a5383a": {
    "id": "c32927a5383a",
    "label": "9B RUE DES 3 FRERES REMY, Lannoy",
    "lat": 50.66783,
    "lng": 3.211204,
    "transactions": [
      {
        "date": "2021-10-15",
        "priceEur": 182500,
        "typeLocal": "Maison",
        "surfaceM2": 100,
        "isVefa": false
      }
    ]
  },
  "8985fddd59d0": {
    "id": "8985fddd59d0",
    "label": "6 RUE DE VENDOME, Lannoy",
    "lat": 50.667203,
    "lng": 3.210355,
    "transactions": [
      {
        "date": "2021-10-27",
        "priceEur": 95000,
        "typeLocal": "Maison",
        "surfaceM2": 120,
        "isVefa": false
      }
    ]
  },
  "08cb474231ca": {
    "id": "08cb474231ca",
    "label": "1 RUE J B LEBAS, Lys-lez-Lannoy",
    "lat": 50.668748,
    "lng": 3.210686,
    "transactions": [
      {
        "date": "2021-10-14",
        "priceEur": 249900,
        "typeLocal": "Maison",
        "surfaceM2": 109,
        "isVefa": false
      }
    ]
  },
  "70dd4abcb768": {
    "id": "70dd4abcb768",
    "label": "7 RUE ARTHUR BACRO, Lys-lez-Lannoy",
    "lat": 50.669965,
    "lng": 3.209237,
    "transactions": [
      {
        "date": "2024-03-04",
        "priceEur": 122175,
        "typeLocal": "Appartement",
        "surfaceM2": 68,
        "isVefa": false
      },
      {
        "date": "2022-12-16",
        "priceEur": 105000,
        "typeLocal": "Appartement",
        "surfaceM2": 57,
        "isVefa": false
      },
      {
        "date": "2022-10-05",
        "priceEur": 105000,
        "typeLocal": "Appartement",
        "surfaceM2": 68,
        "isVefa": false
      },
      {
        "date": "2021-11-02",
        "priceEur": 80000,
        "typeLocal": "Appartement",
        "surfaceM2": 57,
        "isVefa": false
      }
    ]
  },
  "883eede4676a": {
    "id": "883eede4676a",
    "label": "117 AV JEAN JAURES, Lys-lez-Lannoy",
    "lat": 50.668118,
    "lng": 3.212742,
    "transactions": [
      {
        "date": "2021-12-01",
        "priceEur": 324880,
        "typeLocal": "Maison",
        "surfaceM2": 125,
        "isVefa": false
      }
    ]
  },
  "ac075c28f037": {
    "id": "ac075c28f037",
    "label": "25 RUE DU PRESIDENT KENNEDY, Lys-lez-Lannoy",
    "lat": 50.672543,
    "lng": 3.210667,
    "transactions": [
      {
        "date": "2021-12-16",
        "priceEur": 214000,
        "typeLocal": "Maison",
        "surfaceM2": 77,
        "isVefa": false
      }
    ]
  },
  "345282e05b4e": {
    "id": "345282e05b4e",
    "label": "59 RUE GABRIEL PERI, Lys-lez-Lannoy",
    "lat": 50.672323,
    "lng": 3.215812,
    "transactions": [
      {
        "date": "2021-12-01",
        "priceEur": 144000,
        "typeLocal": "Maison",
        "surfaceM2": 80,
        "isVefa": false
      }
    ]
  },
  "826dfaf03815": {
    "id": "826dfaf03815",
    "label": "12 RUE DE COURTRAI, Lys-lez-Lannoy",
    "lat": 50.668841,
    "lng": 3.213726,
    "transactions": [
      {
        "date": "2022-01-14",
        "priceEur": 282500,
        "typeLocal": "Maison",
        "surfaceM2": 82,
        "isVefa": false
      }
    ]
  },
  "49d05a6de503": {
    "id": "49d05a6de503",
    "label": "9 RUE ELIE MERCIER, Lys-lez-Lannoy",
    "lat": 50.67213,
    "lng": 3.208549,
    "transactions": [
      {
        "date": "2024-10-29",
        "priceEur": 107890,
        "typeLocal": "Appartement",
        "surfaceM2": 67,
        "isVefa": false
      },
      {
        "date": "2022-01-21",
        "priceEur": 82000,
        "typeLocal": "Appartement",
        "surfaceM2": 58,
        "isVefa": false
      },
      {
        "date": "2022-01-21",
        "priceEur": 81400,
        "typeLocal": "Appartement",
        "surfaceM2": 58,
        "isVefa": false
      }
    ]
  },
  "d1155ff79eaf": {
    "id": "d1155ff79eaf",
    "label": "57T RUE DU PROGRES, Lys-lez-Lannoy",
    "lat": 50.670066,
    "lng": 3.212585,
    "transactions": [
      {
        "date": "2022-01-31",
        "priceEur": 540000,
        "typeLocal": "Maison",
        "surfaceM2": 207,
        "isVefa": false
      }
    ]
  },
  "e04358c47118": {
    "id": "e04358c47118",
    "label": "13 RUE DE TOURNAI, Lannoy",
    "lat": 50.667218,
    "lng": 3.21206,
    "transactions": [
      {
        "date": "2022-02-08",
        "priceEur": 170000,
        "typeLocal": "Maison",
        "surfaceM2": 160,
        "isVefa": false
      }
    ]
  },
  "9da1f69e53cf": {
    "id": "9da1f69e53cf",
    "label": "17 RUE NATIONALE, Lannoy",
    "lat": 50.666988,
    "lng": 3.209551,
    "transactions": [
      {
        "date": "2022-02-10",
        "priceEur": 116000,
        "typeLocal": "Appartement",
        "surfaceM2": 54,
        "isVefa": false
      }
    ]
  },
  "46e6f29c61ae": {
    "id": "46e6f29c61ae",
    "label": "19 RUE JEANNE HACHETTE, Lys-lez-Lannoy",
    "lat": 50.671053,
    "lng": 3.216856,
    "transactions": [
      {
        "date": "2022-02-28",
        "priceEur": 183300,
        "typeLocal": "Maison",
        "surfaceM2": 70,
        "isVefa": false
      }
    ]
  },
  "6af9eaf5dd51": {
    "id": "6af9eaf5dd51",
    "label": "103 RUE DU PROGRES, Lys-lez-Lannoy",
    "lat": 50.669399,
    "lng": 3.209756,
    "transactions": [
      {
        "date": "2022-03-14",
        "priceEur": 272000,
        "typeLocal": "Maison",
        "surfaceM2": 111,
        "isVefa": false
      }
    ]
  },
  "0b511fd08200": {
    "id": "0b511fd08200",
    "label": "5 RUE ARTHUR BACRO, Lys-lez-Lannoy",
    "lat": 50.669965,
    "lng": 3.209237,
    "transactions": [
      {
        "date": "2024-04-19",
        "priceEur": 80200,
        "typeLocal": "Appartement",
        "surfaceM2": 68,
        "isVefa": false
      },
      {
        "date": "2022-07-08",
        "priceEur": 111500,
        "typeLocal": "Appartement",
        "surfaceM2": 57,
        "isVefa": false
      },
      {
        "date": "2022-03-01",
        "priceEur": 120000,
        "typeLocal": "Appartement",
        "surfaceM2": 68,
        "isVefa": false
      }
    ]
  },
  "b9f29c285115": {
    "id": "b9f29c285115",
    "label": "1 RUE ARTHUR BACRO, Lys-lez-Lannoy",
    "lat": 50.669965,
    "lng": 3.209237,
    "transactions": [
      {
        "date": "2024-10-29",
        "priceEur": 82500,
        "typeLocal": "Appartement",
        "surfaceM2": 42,
        "isVefa": false
      },
      {
        "date": "2024-08-08",
        "priceEur": 100680,
        "typeLocal": "Appartement",
        "surfaceM2": 42,
        "isVefa": false
      },
      {
        "date": "2023-05-12",
        "priceEur": 85000,
        "typeLocal": "Appartement",
        "surfaceM2": 42,
        "isVefa": false
      },
      {
        "date": "2023-02-23",
        "priceEur": 84900,
        "typeLocal": "Appartement",
        "surfaceM2": 42,
        "isVefa": false
      },
      {
        "date": "2022-12-29",
        "priceEur": 85000,
        "typeLocal": "Appartement",
        "surfaceM2": 42,
        "isVefa": false
      },
      {
        "date": "2022-03-25",
        "priceEur": 74000,
        "typeLocal": "Appartement",
        "surfaceM2": 42,
        "isVefa": false
      }
    ]
  },
  "108309bb857f": {
    "id": "108309bb857f",
    "label": "108 AV JEAN JAURES, Lys-lez-Lannoy",
    "lat": 50.66851,
    "lng": 3.212644,
    "transactions": [
      {
        "date": "2022-04-07",
        "priceEur": 200000,
        "typeLocal": "Maison",
        "surfaceM2": 164,
        "isVefa": false
      }
    ]
  },
  "39f41afd52ef": {
    "id": "39f41afd52ef",
    "label": "19 RUE DES 3 FRERES REMY, Lannoy",
    "lat": 50.667826,
    "lng": 3.211477,
    "transactions": [
      {
        "date": "2022-04-22",
        "priceEur": 127500,
        "typeLocal": "Appartement",
        "surfaceM2": 44,
        "isVefa": false
      },
      {
        "date": "2022-04-22",
        "priceEur": 127500,
        "typeLocal": "Appartement",
        "surfaceM2": 35,
        "isVefa": false
      }
    ]
  },
  "b3bc8f5c2250": {
    "id": "b3bc8f5c2250",
    "label": "75 RUE DU PROGRES, Lys-lez-Lannoy",
    "lat": 50.669834,
    "lng": 3.21112,
    "transactions": [
      {
        "date": "2022-04-29",
        "priceEur": 279000,
        "typeLocal": "Maison",
        "surfaceM2": 92,
        "isVefa": false
      }
    ]
  },
  "2469e24c2df3": {
    "id": "2469e24c2df3",
    "label": "66 AV JEAN JAURES, Lys-lez-Lannoy",
    "lat": 50.669306,
    "lng": 3.215044,
    "transactions": [
      {
        "date": "2022-04-29",
        "priceEur": 316400,
        "typeLocal": "Maison",
        "surfaceM2": 145,
        "isVefa": false
      }
    ]
  },
  "8fe554932d4b": {
    "id": "8fe554932d4b",
    "label": "72 RUE J B LEBAS, Lys-lez-Lannoy",
    "lat": 50.670062,
    "lng": 3.216666,
    "transactions": [
      {
        "date": "2022-05-17",
        "priceEur": 316400,
        "typeLocal": "Maison",
        "surfaceM2": 134,
        "isVefa": false
      }
    ]
  },
  "0ffc0548c87e": {
    "id": "0ffc0548c87e",
    "label": "20 RUE DES ECOLES, Lys-lez-Lannoy",
    "lat": 50.671683,
    "lng": 3.210507,
    "transactions": [
      {
        "date": "2022-05-17",
        "priceEur": 220000,
        "typeLocal": "Maison",
        "surfaceM2": 77,
        "isVefa": false
      }
    ]
  },
  "fa31149d72e3": {
    "id": "fa31149d72e3",
    "label": "21 RUE ECHEVIN, Lys-lez-Lannoy",
    "lat": 50.673464,
    "lng": 3.216047,
    "transactions": [
      {
        "date": "2022-05-18",
        "priceEur": 223000,
        "typeLocal": "Maison",
        "surfaceM2": 80,
        "isVefa": false
      }
    ]
  },
  "9f48268e4392": {
    "id": "9f48268e4392",
    "label": "65 RUE J B LEBAS, Lys-lez-Lannoy",
    "lat": 50.670941,
    "lng": 3.217972,
    "transactions": [
      {
        "date": "2024-11-06",
        "priceEur": 96500,
        "typeLocal": "Appartement",
        "surfaceM2": 65,
        "isVefa": false
      },
      {
        "date": "2022-06-03",
        "priceEur": 132000,
        "typeLocal": "Appartement",
        "surfaceM2": 69,
        "isVefa": false
      }
    ]
  },
  "855a1cc6c3df": {
    "id": "855a1cc6c3df",
    "label": "61 RUE J B LEBAS, Lys-lez-Lannoy",
    "lat": 50.670822,
    "lng": 3.217648,
    "transactions": [
      {
        "date": "2022-06-13",
        "priceEur": 121800,
        "typeLocal": "Maison",
        "surfaceM2": 46,
        "isVefa": false
      }
    ]
  },
  "c5078dd79204": {
    "id": "c5078dd79204",
    "label": "4 CTR ECHEVIN, Lys-lez-Lannoy",
    "lat": 50.673058,
    "lng": 3.217613,
    "transactions": [
      {
        "date": "2022-07-01",
        "priceEur": 200000,
        "typeLocal": "Maison",
        "surfaceM2": 91,
        "isVefa": false
      }
    ]
  },
  "6e0fda74ed50": {
    "id": "6e0fda74ed50",
    "label": "12 RUE GABRIEL PERI, Lys-lez-Lannoy",
    "lat": 50.671403,
    "lng": 3.21758,
    "transactions": [
      {
        "date": "2022-07-12",
        "priceEur": 233000,
        "typeLocal": "Maison",
        "surfaceM2": 85,
        "isVefa": false
      }
    ]
  },
  "765eb89040e9": {
    "id": "765eb89040e9",
    "label": "14T RUE DES 3 FRERES REMY, Lannoy",
    "lat": 50.66751,
    "lng": 3.211943,
    "transactions": [
      {
        "date": "2022-07-13",
        "priceEur": 242900,
        "typeLocal": "Maison",
        "surfaceM2": 113,
        "isVefa": false
      }
    ]
  },
  "df1b05f29109": {
    "id": "df1b05f29109",
    "label": "6 ALL DES TILLEULS, Lys-lez-Lannoy",
    "lat": 50.66999,
    "lng": 3.218824,
    "transactions": [
      {
        "date": "2022-07-25",
        "priceEur": 326800,
        "typeLocal": "Maison",
        "surfaceM2": 92,
        "isVefa": false
      }
    ]
  },
  "e9bec673efca": {
    "id": "e9bec673efca",
    "label": "21 RUE JEANNE D ARC, Lys-lez-Lannoy",
    "lat": 50.669429,
    "lng": 3.218411,
    "transactions": [
      {
        "date": "2025-04-30",
        "priceEur": 278000,
        "typeLocal": "Maison",
        "surfaceM2": 118,
        "isVefa": false
      },
      {
        "date": "2022-08-05",
        "priceEur": 255000,
        "typeLocal": "Maison",
        "surfaceM2": 118,
        "isVefa": false
      }
    ]
  },
  "a85c6ef66be0": {
    "id": "a85c6ef66be0",
    "label": "224 RUE DU VERT PRE, Lys-lez-Lannoy",
    "lat": 50.67358,
    "lng": 3.208586,
    "transactions": [
      {
        "date": "2022-08-29",
        "priceEur": 253000,
        "typeLocal": "Maison",
        "surfaceM2": 83,
        "isVefa": false
      }
    ]
  },
  "9b01000ac3df": {
    "id": "9b01000ac3df",
    "label": "81 RUE DU COLISEE, Lys-lez-Lannoy",
    "lat": 50.66715,
    "lng": 3.217215,
    "transactions": [
      {
        "date": "2022-09-28",
        "priceEur": 234720,
        "typeLocal": "Maison",
        "surfaceM2": 89,
        "isVefa": false
      }
    ]
  },
  "9183de33df67": {
    "id": "9183de33df67",
    "label": "2 RUE DE VENDOME, Lannoy",
    "lat": 50.667009,
    "lng": 3.210576,
    "transactions": [
      {
        "date": "2022-11-08",
        "priceEur": 530000,
        "typeLocal": "Appartement",
        "surfaceM2": 45,
        "isVefa": false
      },
      {
        "date": "2022-11-08",
        "priceEur": 530000,
        "typeLocal": "Appartement",
        "surfaceM2": 22,
        "isVefa": false
      },
      {
        "date": "2022-11-08",
        "priceEur": 530000,
        "typeLocal": "Appartement",
        "surfaceM2": 55,
        "isVefa": false
      }
    ]
  },
  "ee4aa11a8fa9": {
    "id": "ee4aa11a8fa9",
    "label": "2 RUE DE COURTRAI, Lys-lez-Lannoy",
    "lat": 50.669194,
    "lng": 3.213753,
    "transactions": [
      {
        "date": "2022-12-19",
        "priceEur": 255000,
        "typeLocal": "Maison",
        "surfaceM2": 83,
        "isVefa": false
      }
    ]
  },
  "68b960c04f68": {
    "id": "68b960c04f68",
    "label": "3 RUE DES TANNEURS, Lannoy",
    "lat": 50.667514,
    "lng": 3.209597,
    "transactions": [
      {
        "date": "2022-12-19",
        "priceEur": 90000,
        "typeLocal": "Maison",
        "surfaceM2": 104,
        "isVefa": false
      }
    ]
  },
  "8a7ae1da8c39": {
    "id": "8a7ae1da8c39",
    "label": "63 RUE CHANZY, Lys-lez-Lannoy",
    "lat": 50.673801,
    "lng": 3.208022,
    "transactions": [
      {
        "date": "2022-12-23",
        "priceEur": 189200,
        "typeLocal": "Maison",
        "surfaceM2": 88,
        "isVefa": false
      }
    ]
  },
  "27d3f0911c66": {
    "id": "27d3f0911c66",
    "label": "73 AV PAUL BERT, Lys-lez-Lannoy",
    "lat": 50.671391,
    "lng": 3.212795,
    "transactions": [
      {
        "date": "2022-12-16",
        "priceEur": 477000,
        "typeLocal": "Maison",
        "surfaceM2": 231,
        "isVefa": false
      }
    ]
  },
  "1db81d8b95dd": {
    "id": "1db81d8b95dd",
    "label": "41 RUE J B LEBAS, Lys-lez-Lannoy",
    "lat": 50.670407,
    "lng": 3.216597,
    "transactions": [
      {
        "date": "2023-01-16",
        "priceEur": 223660,
        "typeLocal": "Maison",
        "surfaceM2": 85,
        "isVefa": false
      }
    ]
  },
  "b8be174916ac": {
    "id": "b8be174916ac",
    "label": "1 RUE DES TANNEURS, Lannoy",
    "lat": 50.667582,
    "lng": 3.209532,
    "transactions": [
      {
        "date": "2023-01-12",
        "priceEur": 120000,
        "typeLocal": "Appartement",
        "surfaceM2": 45,
        "isVefa": false
      },
      {
        "date": "2023-01-12",
        "priceEur": 120000,
        "typeLocal": "Appartement",
        "surfaceM2": 50,
        "isVefa": false
      }
    ]
  },
  "c5801cde6ff8": {
    "id": "c5801cde6ff8",
    "label": "27 RUE JEAN MOULIN, Lys-lez-Lannoy",
    "lat": 50.67152,
    "lng": 3.211404,
    "transactions": [
      {
        "date": "2024-08-07",
        "priceEur": 167274,
        "typeLocal": "Maison",
        "surfaceM2": 86,
        "isVefa": false
      },
      {
        "date": "2023-02-03",
        "priceEur": 220000,
        "typeLocal": "Maison",
        "surfaceM2": 86,
        "isVefa": false
      }
    ]
  },
  "f2964bb84f84": {
    "id": "f2964bb84f84",
    "label": "6 RUE DU PROGRES, Lys-lez-Lannoy",
    "lat": 50.671501,
    "lng": 3.214176,
    "transactions": [
      {
        "date": "2023-01-31",
        "priceEur": 190000,
        "typeLocal": "Maison",
        "surfaceM2": 97,
        "isVefa": false
      }
    ]
  },
  "1755f585a046": {
    "id": "1755f585a046",
    "label": "18 RUE GABRIEL PERI, Lys-lez-Lannoy",
    "lat": 50.671996,
    "lng": 3.216981,
    "transactions": [
      {
        "date": "2025-04-11",
        "priceEur": 191100,
        "typeLocal": "Appartement",
        "surfaceM2": 87,
        "isVefa": false
      },
      {
        "date": "2023-02-08",
        "priceEur": 124510,
        "typeLocal": "Appartement",
        "surfaceM2": 61,
        "isVefa": false
      }
    ]
  },
  "c87686e2b450": {
    "id": "c87686e2b450",
    "label": "5 RUE ECHEVIN, Lys-lez-Lannoy",
    "lat": 50.673064,
    "lng": 3.216895,
    "transactions": [
      {
        "date": "2023-03-08",
        "priceEur": 300000,
        "typeLocal": "Maison",
        "surfaceM2": 72,
        "isVefa": false
      }
    ]
  },
  "7181c0b6643f": {
    "id": "7181c0b6643f",
    "label": "90 AV JEAN JAURES, Lys-lez-Lannoy",
    "lat": 50.668608,
    "lng": 3.213621,
    "transactions": [
      {
        "date": "2023-02-27",
        "priceEur": 285000,
        "typeLocal": "Maison",
        "surfaceM2": 81,
        "isVefa": false
      }
    ]
  },
  "1ffe378b5c3a": {
    "id": "1ffe378b5c3a",
    "label": "19 RUE J B LEBAS, Lys-lez-Lannoy",
    "lat": 50.669119,
    "lng": 3.211214,
    "transactions": [
      {
        "date": "2023-03-13",
        "priceEur": 199000,
        "typeLocal": "Maison",
        "surfaceM2": 88,
        "isVefa": false
      }
    ]
  },
  "3bcd7df60adc": {
    "id": "3bcd7df60adc",
    "label": "13 RUE ARTHUR BACRO, Lys-lez-Lannoy",
    "lat": 50.669965,
    "lng": 3.209237,
    "transactions": [
      {
        "date": "2023-03-14",
        "priceEur": 95700,
        "typeLocal": "Appartement",
        "surfaceM2": 68,
        "isVefa": false
      }
    ]
  },
  "affcac6ddd40": {
    "id": "affcac6ddd40",
    "label": "10 RUE JEANNE D ARC, Lys-lez-Lannoy",
    "lat": 50.669603,
    "lng": 3.21727,
    "transactions": [
      {
        "date": "2023-04-07",
        "priceEur": 120000,
        "typeLocal": "Maison",
        "surfaceM2": 105,
        "isVefa": false
      }
    ]
  },
  "dcab0430a1a2": {
    "id": "dcab0430a1a2",
    "label": "33 AV PAUL BERT, Lys-lez-Lannoy",
    "lat": 50.673687,
    "lng": 3.211406,
    "transactions": [
      {
        "date": "2023-04-14",
        "priceEur": 286000,
        "typeLocal": "Maison",
        "surfaceM2": 107,
        "isVefa": false
      }
    ]
  },
  "4ce6b3a5a2cd": {
    "id": "4ce6b3a5a2cd",
    "label": "9 RUE JEANNE HACHETTE, Lys-lez-Lannoy",
    "lat": 50.671234,
    "lng": 3.216677,
    "transactions": [
      {
        "date": "2023-05-30",
        "priceEur": 207000,
        "typeLocal": "Maison",
        "surfaceM2": 80,
        "isVefa": false
      }
    ]
  },
  "a3ae9e702569": {
    "id": "a3ae9e702569",
    "label": "12 RUE DU PRESIDENT KENNEDY, Lys-lez-Lannoy",
    "lat": 50.673245,
    "lng": 3.21066,
    "transactions": [
      {
        "date": "2023-06-21",
        "priceEur": 248000,
        "typeLocal": "Maison",
        "surfaceM2": 77,
        "isVefa": false
      }
    ]
  },
  "9e55ded7d9e7": {
    "id": "9e55ded7d9e7",
    "label": "100 RUE J B LEBAS, Lys-lez-Lannoy",
    "lat": 50.670552,
    "lng": 3.217881,
    "transactions": [
      {
        "date": "2023-07-18",
        "priceEur": 180010,
        "typeLocal": "Maison",
        "surfaceM2": 100,
        "isVefa": false
      }
    ]
  },
  "0c846cba2c79": {
    "id": "0c846cba2c79",
    "label": "92 AV JEAN JAURES, Lys-lez-Lannoy",
    "lat": 50.668542,
    "lng": 3.213467,
    "transactions": [
      {
        "date": "2023-08-04",
        "priceEur": 334700,
        "typeLocal": "Appartement",
        "surfaceM2": 35,
        "isVefa": false
      },
      {
        "date": "2023-08-04",
        "priceEur": 334700,
        "typeLocal": "Appartement",
        "surfaceM2": 45,
        "isVefa": false
      },
      {
        "date": "2023-08-04",
        "priceEur": 334700,
        "typeLocal": "Appartement",
        "surfaceM2": 39,
        "isVefa": false
      }
    ]
  },
  "13aa0eed5884": {
    "id": "13aa0eed5884",
    "label": "43T RUE J B LEBAS, Lys-lez-Lannoy",
    "lat": 50.670541,
    "lng": 3.216813,
    "transactions": [
      {
        "date": "2023-08-01",
        "priceEur": 105000,
        "typeLocal": "Appartement",
        "surfaceM2": 26,
        "isVefa": false
      }
    ]
  },
  "bc3af114800e": {
    "id": "bc3af114800e",
    "label": "13 RUE DU PRESIDENT KENNEDY, Lys-lez-Lannoy",
    "lat": 50.672917,
    "lng": 3.210967,
    "transactions": [
      {
        "date": "2023-08-18",
        "priceEur": 235000,
        "typeLocal": "Maison",
        "surfaceM2": 77,
        "isVefa": false
      }
    ]
  },
  "7cbe43315195": {
    "id": "7cbe43315195",
    "label": "31 RUE DU PRESIDENT KENNEDY, Lys-lez-Lannoy",
    "lat": 50.672468,
    "lng": 3.210392,
    "transactions": [
      {
        "date": "2023-09-06",
        "priceEur": 145000,
        "typeLocal": "Maison",
        "surfaceM2": 77,
        "isVefa": false
      }
    ]
  },
  "03c8736a4760": {
    "id": "03c8736a4760",
    "label": "42 RUE DU PROGRES, Lys-lez-Lannoy",
    "lat": 50.669965,
    "lng": 3.209237,
    "transactions": [
      {
        "date": "2024-06-24",
        "priceEur": 123000,
        "typeLocal": "Appartement",
        "surfaceM2": 68,
        "isVefa": false
      },
      {
        "date": "2023-08-29",
        "priceEur": 118000,
        "typeLocal": "Appartement",
        "surfaceM2": 59,
        "isVefa": false
      }
    ]
  },
  "8896a44a84da": {
    "id": "8896a44a84da",
    "label": "44 RUE DES ECOLES, Lys-lez-Lannoy",
    "lat": 50.672421,
    "lng": 3.209981,
    "transactions": [
      {
        "date": "2023-09-08",
        "priceEur": 164000,
        "typeLocal": "Maison",
        "surfaceM2": 77,
        "isVefa": false
      }
    ]
  },
  "30824547656e": {
    "id": "30824547656e",
    "label": "12 RUE NATIONALE, Lannoy",
    "lat": 50.667592,
    "lng": 3.210032,
    "transactions": [
      {
        "date": "2023-10-06",
        "priceEur": 79100,
        "typeLocal": "Maison",
        "surfaceM2": 99,
        "isVefa": false
      }
    ]
  },
  "40cadc607d37": {
    "id": "40cadc607d37",
    "label": "50 RUE GABRIEL PERI, Lys-lez-Lannoy",
    "lat": 50.672632,
    "lng": 3.216145,
    "transactions": [
      {
        "date": "2023-10-19",
        "priceEur": 178050,
        "typeLocal": "Maison",
        "surfaceM2": 127,
        "isVefa": false
      }
    ]
  },
  "f6651ea3edf7": {
    "id": "f6651ea3edf7",
    "label": "44 RUE GABRIEL PERI, Lys-lez-Lannoy",
    "lat": 50.672518,
    "lng": 3.216303,
    "transactions": [
      {
        "date": "2023-11-15",
        "priceEur": 188000,
        "typeLocal": "Maison",
        "surfaceM2": 65,
        "isVefa": false
      }
    ]
  },
  "69c7a401a370": {
    "id": "69c7a401a370",
    "label": "78 RUE J B LEBAS, Lys-lez-Lannoy",
    "lat": 50.67013,
    "lng": 3.216899,
    "transactions": [
      {
        "date": "2023-11-28",
        "priceEur": 295900,
        "typeLocal": "Maison",
        "surfaceM2": 129,
        "isVefa": false
      }
    ]
  },
  "ea967dae89b9": {
    "id": "ea967dae89b9",
    "label": "106 AV JEAN JAURES, Lys-lez-Lannoy",
    "lat": 50.668569,
    "lng": 3.21272,
    "transactions": [
      {
        "date": "2023-11-30",
        "priceEur": 192250,
        "typeLocal": "Maison",
        "surfaceM2": 92,
        "isVefa": false
      }
    ]
  },
  "4555be1a29ff": {
    "id": "4555be1a29ff",
    "label": "40 RUE DU PROGRES, Lys-lez-Lannoy",
    "lat": 50.669965,
    "lng": 3.209237,
    "transactions": [
      {
        "date": "2025-06-20",
        "priceEur": 107660,
        "typeLocal": "Appartement",
        "surfaceM2": 68,
        "isVefa": false
      },
      {
        "date": "2025-03-05",
        "priceEur": 87000,
        "typeLocal": "Appartement",
        "surfaceM2": 59,
        "isVefa": false
      },
      {
        "date": "2025-02-28",
        "priceEur": 124740,
        "typeLocal": "Appartement",
        "surfaceM2": 59,
        "isVefa": false
      },
      {
        "date": "2024-02-05",
        "priceEur": 67500,
        "typeLocal": "Appartement",
        "surfaceM2": 68,
        "isVefa": false
      }
    ]
  },
  "4a076b724c24": {
    "id": "4a076b724c24",
    "label": "11 RUE JEANNE HACHETTE, Lys-lez-Lannoy",
    "lat": 50.671204,
    "lng": 3.216717,
    "transactions": [
      {
        "date": "2024-01-22",
        "priceEur": 178000,
        "typeLocal": "Maison",
        "surfaceM2": 70,
        "isVefa": false
      }
    ]
  },
  "81cea398f1da": {
    "id": "81cea398f1da",
    "label": "19 RUE JEANNE D ARC, Lys-lez-Lannoy",
    "lat": 50.66952,
    "lng": 3.218441,
    "transactions": [
      {
        "date": "2024-02-12",
        "priceEur": 263790,
        "typeLocal": "Maison",
        "surfaceM2": 101,
        "isVefa": false
      }
    ]
  },
  "821a9e9c8046": {
    "id": "821a9e9c8046",
    "label": "112 AV JEAN JAURES, Lys-lez-Lannoy",
    "lat": 50.668425,
    "lng": 3.21248,
    "transactions": [
      {
        "date": "2024-03-06",
        "priceEur": 374400,
        "typeLocal": "Maison",
        "surfaceM2": 85,
        "isVefa": false
      }
    ]
  },
  "25709552c496": {
    "id": "25709552c496",
    "label": "4 RUE J B LEBAS, Lys-lez-Lannoy",
    "lat": 50.66897,
    "lng": 3.212308,
    "transactions": [
      {
        "date": "2024-03-12",
        "priceEur": 309000,
        "typeLocal": "Maison",
        "surfaceM2": 142,
        "isVefa": false
      }
    ]
  },
  "c11c8e64449c": {
    "id": "c11c8e64449c",
    "label": "10 RUE DES ECOLES, Lys-lez-Lannoy",
    "lat": 50.671167,
    "lng": 3.210718,
    "transactions": [
      {
        "date": "2024-03-29",
        "priceEur": 182000,
        "typeLocal": "Maison",
        "surfaceM2": 77,
        "isVefa": false
      }
    ]
  },
  "2702d105917e": {
    "id": "2702d105917e",
    "label": "61 RUE GABRIEL PERI, Lys-lez-Lannoy",
    "lat": 50.672335,
    "lng": 3.215686,
    "transactions": [
      {
        "date": "2024-06-12",
        "priceEur": 207000,
        "typeLocal": "Maison",
        "surfaceM2": 90,
        "isVefa": false
      }
    ]
  },
  "587420707bba": {
    "id": "587420707bba",
    "label": "23T RUE J B LEBAS, Lys-lez-Lannoy",
    "lat": 50.669739,
    "lng": 3.212914,
    "transactions": [
      {
        "date": "2024-06-27",
        "priceEur": 330000,
        "typeLocal": "Maison",
        "surfaceM2": 110,
        "isVefa": false
      }
    ]
  },
  "dea560f29217": {
    "id": "dea560f29217",
    "label": "12 RUE DU PROGRES, Lys-lez-Lannoy",
    "lat": 50.671152,
    "lng": 3.213736,
    "transactions": [
      {
        "date": "2024-07-09",
        "priceEur": 214900,
        "typeLocal": "Maison",
        "surfaceM2": 80,
        "isVefa": false
      }
    ]
  },
  "c58f50503ca9": {
    "id": "c58f50503ca9",
    "label": "240 RUE DU VERT PRE, Lys-lez-Lannoy",
    "lat": 50.673088,
    "lng": 3.20887,
    "transactions": [
      {
        "date": "2024-07-05",
        "priceEur": 220000,
        "typeLocal": "Maison",
        "surfaceM2": 110,
        "isVefa": false
      }
    ]
  },
  "8dea6f28be42": {
    "id": "8dea6f28be42",
    "label": "98 AV JEAN JAURES, Lys-lez-Lannoy",
    "lat": 50.668588,
    "lng": 3.21305,
    "transactions": [
      {
        "date": "2024-07-16",
        "priceEur": 180150,
        "typeLocal": "Maison",
        "surfaceM2": 66,
        "isVefa": false
      }
    ]
  },
  "db608f9b99c5": {
    "id": "db608f9b99c5",
    "label": "110 AV JEAN JAURES, Lys-lez-Lannoy",
    "lat": 50.668466,
    "lng": 3.212577,
    "transactions": [
      {
        "date": "2024-06-18",
        "priceEur": 285000,
        "typeLocal": "Maison",
        "surfaceM2": 79,
        "isVefa": false
      }
    ]
  },
  "04a1c047b0b0": {
    "id": "04a1c047b0b0",
    "label": "86 RUE J B LEBAS, Lys-lez-Lannoy",
    "lat": 50.670473,
    "lng": 3.217411,
    "transactions": [
      {
        "date": "2024-07-26",
        "priceEur": 106140,
        "typeLocal": "Maison",
        "surfaceM2": 16,
        "isVefa": false
      }
    ]
  },
  "9a772809c12c": {
    "id": "9a772809c12c",
    "label": "62 AV PAUL BERT, Lys-lez-Lannoy",
    "lat": 50.671416,
    "lng": 3.213725,
    "transactions": [
      {
        "date": "2024-07-12",
        "priceEur": 215000,
        "typeLocal": "Maison",
        "surfaceM2": 90,
        "isVefa": false
      }
    ]
  },
  "84e183e989a0": {
    "id": "84e183e989a0",
    "label": "34 RUE GABRIEL PERI, Lys-lez-Lannoy",
    "lat": 50.672315,
    "lng": 3.216556,
    "transactions": [
      {
        "date": "2024-08-07",
        "priceEur": 295000,
        "typeLocal": "Maison",
        "surfaceM2": 146,
        "isVefa": false
      }
    ]
  },
  "9957e048864b": {
    "id": "9957e048864b",
    "label": "21 RUE DU PROGRES, Lys-lez-Lannoy",
    "lat": 50.671199,
    "lng": 3.21507,
    "transactions": [
      {
        "date": "2024-08-08",
        "priceEur": 203500,
        "typeLocal": "Maison",
        "surfaceM2": 104,
        "isVefa": false
      }
    ]
  },
  "caa096a1f27c": {
    "id": "caa096a1f27c",
    "label": "48 RUE DU PROGRES, Lys-lez-Lannoy",
    "lat": 50.669965,
    "lng": 3.209237,
    "transactions": [
      {
        "date": "2024-09-30",
        "priceEur": 105000,
        "typeLocal": "Appartement",
        "surfaceM2": 68,
        "isVefa": false
      }
    ]
  },
  "8cebff415297": {
    "id": "8cebff415297",
    "label": "28 RUE NATIONALE, Lannoy",
    "lat": 50.667278,
    "lng": 3.209401,
    "transactions": [
      {
        "date": "2024-11-12",
        "priceEur": 234000,
        "typeLocal": "Maison",
        "surfaceM2": 80,
        "isVefa": false
      }
    ]
  },
  "f5ae02a717ee": {
    "id": "f5ae02a717ee",
    "label": "26 RUE GABRIEL PERI, Lys-lez-Lannoy",
    "lat": 50.672081,
    "lng": 3.216824,
    "transactions": [
      {
        "date": "2024-12-02",
        "priceEur": 125000,
        "typeLocal": "Maison",
        "surfaceM2": 70,
        "isVefa": false
      }
    ]
  },
  "eda950cf0c28": {
    "id": "eda950cf0c28",
    "label": "17 RUE JEAN MOULIN, Lys-lez-Lannoy",
    "lat": 50.671656,
    "lng": 3.211871,
    "transactions": [
      {
        "date": "2024-11-29",
        "priceEur": 241000,
        "typeLocal": "Maison",
        "surfaceM2": 91,
        "isVefa": false
      }
    ]
  },
  "27016df96cd8": {
    "id": "27016df96cd8",
    "label": "13 RUE DES REMPARTS, Lannoy",
    "lat": 50.66796,
    "lng": 3.210452,
    "transactions": [
      {
        "date": "2024-12-17",
        "priceEur": 75370,
        "typeLocal": "Appartement",
        "surfaceM2": 51,
        "isVefa": false
      }
    ]
  },
  "8297b17b7bcd": {
    "id": "8297b17b7bcd",
    "label": "11 RUE ARTHUR BACRO, Lys-lez-Lannoy",
    "lat": 50.669965,
    "lng": 3.209237,
    "transactions": [
      {
        "date": "2024-12-30",
        "priceEur": 112000,
        "typeLocal": "Appartement",
        "surfaceM2": 68,
        "isVefa": false
      }
    ]
  },
  "03fb13c4ff07": {
    "id": "03fb13c4ff07",
    "label": "22 RUE NATIONALE, Lannoy",
    "lat": 50.667362,
    "lng": 3.209594,
    "transactions": [
      {
        "date": "2024-12-30",
        "priceEur": 186120,
        "typeLocal": "Maison",
        "surfaceM2": 168,
        "isVefa": false
      }
    ]
  },
  "5623ba2af3c4": {
    "id": "5623ba2af3c4",
    "label": "86 AV JEAN JAURES, Lys-lez-Lannoy",
    "lat": 50.66873,
    "lng": 3.213946,
    "transactions": [
      {
        "date": "2025-01-20",
        "priceEur": 220000,
        "typeLocal": "Maison",
        "surfaceM2": 94,
        "isVefa": false
      }
    ]
  },
  "8734f5a7022d": {
    "id": "8734f5a7022d",
    "label": "104 RUE J B LEBAS, Lys-lez-Lannoy",
    "lat": 50.67063,
    "lng": 3.218027,
    "transactions": [
      {
        "date": "2025-01-29",
        "priceEur": 128000,
        "typeLocal": "Maison",
        "surfaceM2": 70,
        "isVefa": false
      }
    ]
  },
  "d28fd56abdc6": {
    "id": "d28fd56abdc6",
    "label": "35 RUE GABRIEL PERI, Lys-lez-Lannoy",
    "lat": 50.671739,
    "lng": 3.216581,
    "transactions": [
      {
        "date": "2025-01-27",
        "priceEur": 211000,
        "typeLocal": "Maison",
        "surfaceM2": 107,
        "isVefa": false
      }
    ]
  },
  "9e87db97d274": {
    "id": "9e87db97d274",
    "label": "46 RUE DU PROGRES, Lys-lez-Lannoy",
    "lat": 50.669965,
    "lng": 3.209237,
    "transactions": [
      {
        "date": "2025-02-10",
        "priceEur": 116990,
        "typeLocal": "Appartement",
        "surfaceM2": 68,
        "isVefa": false
      }
    ]
  },
  "0c2f15aa7cf8": {
    "id": "0c2f15aa7cf8",
    "label": "38 RUE GABRIEL PERI, Lys-lez-Lannoy",
    "lat": 50.672402,
    "lng": 3.216452,
    "transactions": [
      {
        "date": "2025-02-17",
        "priceEur": 200000,
        "typeLocal": "Maison",
        "surfaceM2": 73,
        "isVefa": false
      }
    ]
  },
  "e36e3470269c": {
    "id": "e36e3470269c",
    "label": "25B RUE J B LEBAS, Lys-lez-Lannoy",
    "lat": 50.669889,
    "lng": 3.214861,
    "transactions": [
      {
        "date": "2025-02-12",
        "priceEur": 360000,
        "typeLocal": "Maison",
        "surfaceM2": 128,
        "isVefa": false
      }
    ]
  },
  "5c5c6af149b4": {
    "id": "5c5c6af149b4",
    "label": "12 RUE DU COLISEE, Lys-lez-Lannoy",
    "lat": 50.668042,
    "lng": 3.217822,
    "transactions": [
      {
        "date": "2025-02-17",
        "priceEur": 95000,
        "typeLocal": "Maison",
        "surfaceM2": 75,
        "isVefa": false
      }
    ]
  },
  "930c70992a4d": {
    "id": "930c70992a4d",
    "label": "67 RUE DU PROGRES, Lys-lez-Lannoy",
    "lat": 50.669986,
    "lng": 3.211542,
    "transactions": [
      {
        "date": "2025-03-11",
        "priceEur": 220200,
        "typeLocal": "Maison",
        "surfaceM2": 110,
        "isVefa": false
      }
    ]
  },
  "42300bb4a123": {
    "id": "42300bb4a123",
    "label": "9 RUE DU PRESIDENT KENNEDY, Lys-lez-Lannoy",
    "lat": 50.67305,
    "lng": 3.210832,
    "transactions": [
      {
        "date": "2025-02-24",
        "priceEur": 235000,
        "typeLocal": "Maison",
        "surfaceM2": 77,
        "isVefa": false
      }
    ]
  },
  "382998696344": {
    "id": "382998696344",
    "label": "49 RUE DU PROGRES, Lys-lez-Lannoy",
    "lat": 50.670917,
    "lng": 3.214212,
    "transactions": [
      {
        "date": "2025-03-13",
        "priceEur": 150000,
        "typeLocal": "Maison",
        "surfaceM2": 100,
        "isVefa": false
      }
    ]
  },
  "c0980711c369": {
    "id": "c0980711c369",
    "label": "8 RUE DES 3 FRERES REMY, Lannoy",
    "lat": 50.667549,
    "lng": 3.211598,
    "transactions": [
      {
        "date": "2025-04-24",
        "priceEur": 300000,
        "typeLocal": "Appartement",
        "surfaceM2": 33,
        "isVefa": false
      }
    ]
  },
  "f58f7987a335": {
    "id": "f58f7987a335",
    "label": "20 RUE NATIONALE, Lannoy",
    "lat": 50.667386,
    "lng": 3.20971,
    "transactions": [
      {
        "date": "2025-05-23",
        "priceEur": 257700,
        "typeLocal": "Appartement",
        "surfaceM2": 20,
        "isVefa": false
      },
      {
        "date": "2025-05-23",
        "priceEur": 257700,
        "typeLocal": "Appartement",
        "surfaceM2": 55,
        "isVefa": false
      },
      {
        "date": "2025-05-23",
        "priceEur": 257700,
        "typeLocal": "Appartement",
        "surfaceM2": 42,
        "isVefa": false
      },
      {
        "date": "2025-05-23",
        "priceEur": 257700,
        "typeLocal": "Appartement",
        "surfaceM2": 40,
        "isVefa": false
      }
    ]
  },
  "9a26cfb0bca3": {
    "id": "9a26cfb0bca3",
    "label": "66 RUE J B LEBAS, Lys-lez-Lannoy",
    "lat": 50.669821,
    "lng": 3.215966,
    "transactions": [
      {
        "date": "2025-05-27",
        "priceEur": 199000,
        "typeLocal": "Appartement",
        "surfaceM2": 61,
        "isVefa": false
      }
    ]
  },
  "a1eb33c49f21": {
    "id": "a1eb33c49f21",
    "label": "10 RUE DU PROGRES, Lys-lez-Lannoy",
    "lat": 50.671317,
    "lng": 3.214062,
    "transactions": [
      {
        "date": "2025-06-10",
        "priceEur": 229700,
        "typeLocal": "Maison",
        "surfaceM2": 79,
        "isVefa": false
      }
    ]
  }
}