{
  "72322981419f": {
    "id": "72322981419f",
    "label": "34 DIG DU CANAL, Proville",
    "lat": 50.170174,
    "lng": 3.215055,
    "transactions": [
      {
        "date": "2020-07-27",
        "priceEur": 333000,
        "typeLocal": "Maison",
        "surfaceM2": 130,
        "isVefa": false
      }
    ]
  },
  "e8c280e7abaf": {
    "id": "e8c280e7abaf",
    "label": "9003 CHE DE LA BUSE, Proville",
    "lat": 50.170697,
    "lng": 3.208566,
    "transactions": [
      {
        "date": "2020-11-27",
        "priceEur": 147850,
        "typeLocal": "Maison",
        "surfaceM2": 120,
        "isVefa": false
      }
    ]
  },
  "2e41b68218b9": {
    "id": "2e41b68218b9",
    "label": "69 RUE JEAN GOUDE, Cambrai",
    "lat": 50.175672,
    "lng": 3.214999,
    "transactions": [
      {
        "date": "2021-07-07",
        "priceEur": 90000,
        "typeLocal": "Maison",
        "surfaceM2": 9,
        "isVefa": false
      },
      {
        "date": "2021-07-07",
        "priceEur": 90000,
        "typeLocal": "Maison",
        "surfaceM2": 109,
        "isVefa": false
      }
    ]
  },
  "9b6acad354bc": {
    "id": "9b6acad354bc",
    "label": "32 DIG DU CANAL, Proville",
    "lat": 50.17017,
    "lng": 3.214757,
    "transactions": [
      {
        "date": "2021-09-03",
        "priceEur": 90000,
        "typeLocal": "Maison",
        "surfaceM2": 80,
        "isVefa": false
      }
    ]
  },
  "adaf8ab5ec49": {
    "id": "adaf8ab5ec49",
    "label": "35 RUE DU MARAIS CANTIMPRE, Cambrai",
    "lat": 50.173117,
    "lng": 3.216929,
    "transactions": [
      {
        "date": "2022-11-23",
        "priceEur": 123000,
        "typeLocal": "Maison",
        "surfaceM2": 46,
        "isVefa": false
      },
      {
        "date": "2022-03-17",
        "priceEur": 61000,
        "typeLocal": "Maison",
        "surfaceM2": 46,
        "isVefa": false
      }
    ]
  },
  "1e92c6ceb80b": {
    "id": "1e92c6ceb80b",
    "label": "29 RUE DU MARAIS CANTIMPRE, Cambrai",
    "lat": 50.173672,
    "lng": 3.216714,
    "transactions": [
      {
        "date": "2022-04-22",
        "priceEur": 237250,
        "typeLocal": "Maison",
        "surfaceM2": 132,
        "isVefa": false
      }
    ]
  },
  "2889cc600985": {
    "id": "2889cc600985",
    "label": "9011 RUE DU CHAMP DE TIR, Cambrai",
    "lat": 50.171944,
    "lng": 3.209349,
    "transactions": [
      {
        "date": "2022-04-25",
        "priceEur": 500000,
        "typeLocal": "Maison",
        "surfaceM2": 60,
        "isVefa": false
      }
    ]
  },
  "df5402b9c03a": {
    "id": "df5402b9c03a",
    "label": "61 RUE DE BAPAUME, Cambrai",
    "lat": 50.176897,
    "lng": 3.208847,
    "transactions": [
      {
        "date": "2022-12-21",
        "priceEur": 121500,
        "typeLocal": "Maison",
        "surfaceM2": 54,
        "isVefa": false
      }
    ]
  },
  "2cd003442928": {
    "id": "2cd003442928",
    "label": "38 RUE DU CASTOR, Cambrai",
    "lat": 50.176102,
    "lng": 3.211329,
    "transactions": [
      {
        "date": "2023-04-14",
        "priceEur": 138865.12,
        "typeLocal": "Maison",
        "surfaceM2": 133,
        "isVefa": false
      }
    ]
  },
  "cfda6b5998df": {
    "id": "cfda6b5998df",
    "label": "23 RUE DU MARAIS CANTIMPRE, Cambrai",
    "lat": 50.173904,
    "lng": 3.216429,
    "transactions": [
      {
        "date": "2023-04-03",
        "priceEur": 171990,
        "typeLocal": "Maison",
        "surfaceM2": 102,
        "isVefa": false
      }
    ]
  },
  "96c366963983": {
    "id": "96c366963983",
    "label": "15 CHE DES BUSES, Cambrai",
    "lat": 50.170391,
    "lng": 3.212222,
    "transactions": [
      {
        "date": "2023-06-07",
        "priceEur": 760650,
        "typeLocal": "Maison",
        "surfaceM2": 178,
        "isVefa": false
      }
    ]
  },
  "997d7cdf0736": {
    "id": "997d7cdf0736",
    "label": "9015 DIG DU CANAL, Proville",
    "lat": 50.170153,
    "lng": 3.210474,
    "transactions": [
      {
        "date": "2025-06-10",
        "priceEur": 70000,
        "typeLocal": "Maison",
        "surfaceM2": 42,
        "isVefa": false
      },
      {
        "date": "2023-06-27",
        "priceEur": 55000,
        "typeLocal": "Maison",
        "surfaceM2": 42,
        "isVefa": false
      }
    ]
  },
  "151d53ae863c": {
    "id": "151d53ae863c",
    "label": "25 RUE DU CASTOR, Cambrai",
    "lat": 50.176688,
    "lng": 3.212698,
    "transactions": [
      {
        "date": "2023-10-26",
        "priceEur": 287000,
        "typeLocal": "Maison",
        "surfaceM2": 151,
        "isVefa": false
      }
    ]
  },
  "45549d0019ca": {
    "id": "45549d0019ca",
    "label": "30 DIG DU CANAL, Proville",
    "lat": 50.169864,
    "lng": 3.214191,
    "transactions": [
      {
        "date": "2024-07-05",
        "priceEur": 75000,
        "typeLocal": "Maison",
        "surfaceM2": 168,
        "isVefa": false
      }
    ]
  }
}