{
  "0f0eab0b1261": {
    "id": "0f0eab0b1261",
    "label": "5 RUE RENE DUMONT, Proville",
    "lat": 50.155792,
    "lng": 3.208124,
    "transactions": [
      {
        "date": "2020-07-10",
        "priceEur": 200350,
        "typeLocal": "Maison",
        "surfaceM2": 109,
        "isVefa": false
      }
    ]
  },
  "8fb23a536430": {
    "id": "8fb23a536430",
    "label": "1 RUE JEAN JAURES, Proville",
    "lat": 50.162574,
    "lng": 3.209543,
    "transactions": [
      {
        "date": "2023-10-23",
        "priceEur": 53000,
        "typeLocal": "Appartement",
        "surfaceM2": 36,
        "isVefa": false
      },
      {
        "date": "2023-09-12",
        "priceEur": 120000,
        "typeLocal": "Appartement",
        "surfaceM2": 71,
        "isVefa": false
      },
      {
        "date": "2023-05-22",
        "priceEur": 35000,
        "typeLocal": "Appartement",
        "surfaceM2": 45,
        "isVefa": false
      },
      {
        "date": "2022-03-18",
        "priceEur": 57000,
        "typeLocal": "Appartement",
        "surfaceM2": 36,
        "isVefa": false
      },
      {
        "date": "2021-06-04",
        "priceEur": 66050,
        "typeLocal": "Appartement",
        "surfaceM2": 45,
        "isVefa": false
      },
      {
        "date": "2021-01-18",
        "priceEur": 69200,
        "typeLocal": "Appartement",
        "surfaceM2": 55,
        "isVefa": false
      },
      {
        "date": "2020-10-01",
        "priceEur": 39000,
        "typeLocal": "Appartement",
        "surfaceM2": 30,
        "isVefa": false
      }
    ]
  },
  "f8a7c87f14ff": {
    "id": "f8a7c87f14ff",
    "label": "48 RUE GABRIEL PERI, Proville",
    "lat": 50.16071,
    "lng": 3.209157,
    "transactions": [
      {
        "date": "2020-09-30",
        "priceEur": 75000,
        "typeLocal": "Maison",
        "surfaceM2": 74,
        "isVefa": false
      }
    ]
  },
  "2b871136f324": {
    "id": "2b871136f324",
    "label": "36 RUE GABRIEL PERI, Proville",
    "lat": 50.161334,
    "lng": 3.208542,
    "transactions": [
      {
        "date": "2023-08-28",
        "priceEur": 133000,
        "typeLocal": "Maison",
        "surfaceM2": 162,
        "isVefa": false
      },
      {
        "date": "2020-10-30",
        "priceEur": 80000,
        "typeLocal": "Maison",
        "surfaceM2": 89,
        "isVefa": false
      }
    ]
  },
  "52b38346647c": {
    "id": "52b38346647c",
    "label": "15 RUE DE NOYELLES, Proville",
    "lat": 50.158719,
    "lng": 3.210423,
    "transactions": [
      {
        "date": "2021-02-05",
        "priceEur": 140000,
        "typeLocal": "Maison",
        "surfaceM2": 82,
        "isVefa": false
      }
    ]
  },
  "819738e88a95": {
    "id": "819738e88a95",
    "label": "26 RUE JACQUES PREVERT, Proville",
    "lat": 50.155848,
    "lng": 3.209913,
    "transactions": [
      {
        "date": "2021-02-05",
        "priceEur": 125000,
        "typeLocal": "Maison",
        "surfaceM2": 75,
        "isVefa": false
      }
    ]
  },
  "d877274a47e8": {
    "id": "d877274a47e8",
    "label": "6 RUE DE MERCURE, Proville",
    "lat": 50.157085,
    "lng": 3.212196,
    "transactions": [
      {
        "date": "2021-02-26",
        "priceEur": 245000,
        "typeLocal": "Maison",
        "surfaceM2": 150,
        "isVefa": false
      }
    ]
  },
  "241b2fd14e01": {
    "id": "241b2fd14e01",
    "label": "2 RUE DE MERCURE, Proville",
    "lat": 50.157029,
    "lng": 3.21158,
    "transactions": [
      {
        "date": "2021-04-14",
        "priceEur": 165250,
        "typeLocal": "Maison",
        "surfaceM2": 117,
        "isVefa": false
      }
    ]
  },
  "39a5f284c6a8": {
    "id": "39a5f284c6a8",
    "label": "13 AV GEORGES BRASSENS, Proville",
    "lat": 50.155898,
    "lng": 3.209242,
    "transactions": [
      {
        "date": "2021-06-22",
        "priceEur": 118669,
        "typeLocal": "Maison",
        "surfaceM2": 75,
        "isVefa": false
      }
    ]
  },
  "b30d769bf0c3": {
    "id": "b30d769bf0c3",
    "label": "2 PL DE LA REPUBLIQUE, Proville",
    "lat": 50.162508,
    "lng": 3.210158,
    "transactions": [
      {
        "date": "2021-08-09",
        "priceEur": 233000,
        "typeLocal": "Maison",
        "surfaceM2": 143,
        "isVefa": false
      }
    ]
  },
  "d71edf6bac78": {
    "id": "d71edf6bac78",
    "label": "11 RUE JACQUES PREVERT, Proville",
    "lat": 50.157004,
    "lng": 3.208861,
    "transactions": [
      {
        "date": "2021-10-15",
        "priceEur": 240800,
        "typeLocal": "Maison",
        "surfaceM2": 137,
        "isVefa": false
      }
    ]
  },
  "6fee0a30afbf": {
    "id": "6fee0a30afbf",
    "label": "12 RUE LOUIS MALLET, Proville",
    "lat": 50.160908,
    "lng": 3.211288,
    "transactions": [
      {
        "date": "2021-11-30",
        "priceEur": 298400,
        "typeLocal": "Maison",
        "surfaceM2": 145,
        "isVefa": false
      }
    ]
  },
  "5dee709bdbc7": {
    "id": "5dee709bdbc7",
    "label": "22 RUE JEAN JAURES, Proville",
    "lat": 50.162251,
    "lng": 3.208213,
    "transactions": [
      {
        "date": "2021-12-30",
        "priceEur": 600000,
        "typeLocal": "Maison",
        "surfaceM2": 98,
        "isVefa": false
      }
    ]
  },
  "62a79124f52b": {
    "id": "62a79124f52b",
    "label": "44 RUE GABRIEL PERI, Proville",
    "lat": 50.160898,
    "lng": 3.209016,
    "transactions": [
      {
        "date": "2022-06-15",
        "priceEur": 105000,
        "typeLocal": "Maison",
        "surfaceM2": 48,
        "isVefa": false
      }
    ]
  },
  "54a8d1c51b0d": {
    "id": "54a8d1c51b0d",
    "label": "4 PL D HERMES, Proville",
    "lat": 50.156375,
    "lng": 3.211851,
    "transactions": [
      {
        "date": "2022-10-28",
        "priceEur": 200000,
        "typeLocal": "Maison",
        "surfaceM2": 110,
        "isVefa": false
      }
    ]
  },
  "fdc6dfaa702b": {
    "id": "fdc6dfaa702b",
    "label": "8 AV GEORGES BRASSENS, Proville",
    "lat": 50.155861,
    "lng": 3.208635,
    "transactions": [
      {
        "date": "2022-12-23",
        "priceEur": 134000,
        "typeLocal": "Maison",
        "surfaceM2": 83,
        "isVefa": false
      }
    ]
  },
  "5d3aaa039dbd": {
    "id": "5d3aaa039dbd",
    "label": "2 RUE RAMSES, Proville",
    "lat": 50.158225,
    "lng": 3.208928,
    "transactions": [
      {
        "date": "2022-12-29",
        "priceEur": 125000,
        "typeLocal": "Maison",
        "surfaceM2": 126,
        "isVefa": false
      }
    ]
  },
  "a81af3281cd2": {
    "id": "a81af3281cd2",
    "label": "1 ALL DES CHAMPS, Proville",
    "lat": 50.157761,
    "lng": 3.209251,
    "transactions": [
      {
        "date": "2023-02-23",
        "priceEur": 135000,
        "typeLocal": "Maison",
        "surfaceM2": 77,
        "isVefa": false
      }
    ]
  },
  "fa67953fc800": {
    "id": "fa67953fc800",
    "label": "7 RUE D HAVRINCOURT, Proville",
    "lat": 50.159427,
    "lng": 3.208078,
    "transactions": [
      {
        "date": "2023-04-11",
        "priceEur": 223700,
        "typeLocal": "Maison",
        "surfaceM2": 144,
        "isVefa": false
      }
    ]
  },
  "4b27b6f19def": {
    "id": "4b27b6f19def",
    "label": "20 RUE JEAN JAURES, Proville",
    "lat": 50.162463,
    "lng": 3.208448,
    "transactions": [
      {
        "date": "2024-03-20",
        "priceEur": 140000,
        "typeLocal": "Maison",
        "surfaceM2": 110,
        "isVefa": false
      }
    ]
  },
  "3b8c8c1cd93b": {
    "id": "3b8c8c1cd93b",
    "label": "25 RUE GABRIEL PERI, Proville",
    "lat": 50.160306,
    "lng": 3.210536,
    "transactions": [
      {
        "date": "2024-11-12",
        "priceEur": 180000,
        "typeLocal": "Maison",
        "surfaceM2": 120,
        "isVefa": false
      }
    ]
  },
  "7674adbfd707": {
    "id": "7674adbfd707",
    "label": "19 RUE LOUIS MALLET, Proville",
    "lat": 50.161377,
    "lng": 3.211214,
    "transactions": [
      {
        "date": "2024-12-02",
        "priceEur": 242000,
        "typeLocal": "Maison",
        "surfaceM2": 100,
        "isVefa": false
      }
    ]
  },
  "26ec3a616d77": {
    "id": "26ec3a616d77",
    "label": "1 PL D HERMES, Proville",
    "lat": 50.156849,
    "lng": 3.211154,
    "transactions": [
      {
        "date": "2024-12-20",
        "priceEur": 238000,
        "typeLocal": "Maison",
        "surfaceM2": 115,
        "isVefa": false
      }
    ]
  },
  "9bc0ebd4396b": {
    "id": "9bc0ebd4396b",
    "label": "22 PL DE LA PYRAMIDE, Proville",
    "lat": 50.158646,
    "lng": 3.208852,
    "transactions": [
      {
        "date": "2025-01-13",
        "priceEur": 125000,
        "typeLocal": "Maison",
        "surfaceM2": 115,
        "isVefa": false
      }
    ]
  },
  "ee441d6dd5d4": {
    "id": "ee441d6dd5d4",
    "label": "6 ALL DES CHAMPS, Proville",
    "lat": 50.157112,
    "lng": 3.209346,
    "transactions": [
      {
        "date": "2025-02-06",
        "priceEur": 157000,
        "typeLocal": "Maison",
        "surfaceM2": 73,
        "isVefa": false
      }
    ]
  },
  "fc77c5ba45e8": {
    "id": "fc77c5ba45e8",
    "label": "34 RUE GABRIEL PERI, Proville",
    "lat": 50.161646,
    "lng": 3.208088,
    "transactions": [
      {
        "date": "2025-04-29",
        "priceEur": 180000,
        "typeLocal": "Maison",
        "surfaceM2": 83,
        "isVefa": false
      },
      {
        "date": "2025-04-29",
        "priceEur": 180000,
        "typeLocal": "Maison",
        "surfaceM2": 93,
        "isVefa": false
      }
    ]
  },
  "00eab975d51e": {
    "id": "00eab975d51e",
    "label": "2 RUE DES ECOLES, Proville",
    "lat": 50.161536,
    "lng": 3.208016,
    "transactions": [
      {
        "date": "2025-04-29",
        "priceEur": 180000,
        "typeLocal": "Maison",
        "surfaceM2": 74,
        "isVefa": false
      }
    ]
  },
  "aa72d5e60f6d": {
    "id": "aa72d5e60f6d",
    "label": "12 RUE DES ARCHEOLOGUES, Proville",
    "lat": 50.162391,
    "lng": 3.211607,
    "transactions": [
      {
        "date": "2025-05-02",
        "priceEur": 245940,
        "typeLocal": "Maison",
        "surfaceM2": 93,
        "isVefa": false
      }
    ]
  }
}