{
  "866173a559fa": {
    "id": "866173a559fa",
    "label": "5335F HAM DES RIVES, Sauteyrargues",
    "lat": 43.838941,
    "lng": 3.913952,
    "transactions": [
      {
        "date": "2021-04-20",
        "priceEur": 404000,
        "typeLocal": "Maison",
        "surfaceM2": 132,
        "isVefa": false
      },
      {
        "date": "2021-04-20",
        "priceEur": 404000,
        "typeLocal": "Maison",
        "surfaceM2": 132,
        "isVefa": false
      },
      {
        "date": "2021-04-20",
        "priceEur": 404000,
        "typeLocal": "Maison",
        "surfaceM2": 132,
        "isVefa": false
      }
    ]
  },
  "d454ca05449d": {
    "id": "d454ca05449d",
    "label": "5175 HAM DES RIVES, Sauteyrargues",
    "lat": 43.838091,
    "lng": 3.914043,
    "transactions": [
      {
        "date": "2021-09-21",
        "priceEur": 210000,
        "typeLocal": "Appartement",
        "surfaceM2": 90,
        "isVefa": false
      }
    ]
  },
  "edadc360887d": {
    "id": "edadc360887d",
    "label": "6601F TERRE ROUGE, Sauteyrargues",
    "lat": 43.840238,
    "lng": 3.919256,
    "transactions": [
      {
        "date": "2021-11-29",
        "priceEur": 290000,
        "typeLocal": "Maison",
        "surfaceM2": 90,
        "isVefa": false
      },
      {
        "date": "2021-11-29",
        "priceEur": 290000,
        "typeLocal": "Maison",
        "surfaceM2": 90,
        "isVefa": false
      },
      {
        "date": "2021-11-29",
        "priceEur": 290000,
        "typeLocal": "Maison",
        "surfaceM2": 90,
        "isVefa": false
      }
    ]
  },
  "6c8f6d8a85cb": {
    "id": "6c8f6d8a85cb",
    "label": "73 HAM DES RIVES, Sauteyrargues",
    "lat": 43.838521,
    "lng": 3.914235,
    "transactions": [
      {
        "date": "2023-09-27",
        "priceEur": 171100,
        "typeLocal": "Appartement",
        "surfaceM2": 98,
        "isVefa": false
      }
    ]
  },
  "94da800936f6": {
    "id": "94da800936f6",
    "label": "5610F LA COSTE, Sauteyrargues",
    "lat": 43.841922,
    "lng": 3.919306,
    "transactions": [
      {
        "date": "2023-12-06",
        "priceEur": 505000,
        "typeLocal": "Maison",
        "surfaceM2": 117,
        "isVefa": false
      },
      {
        "date": "2023-12-06",
        "priceEur": 505000,
        "typeLocal": "Maison",
        "surfaceM2": 117,
        "isVefa": false
      }
    ]
  },
  "bcbe106f5e87": {
    "id": "bcbe106f5e87",
    "label": "45 IMP DU MAGINIAI HAMEAU RIVES, Sauteyrargues",
    "lat": 43.838941,
    "lng": 3.913952,
    "transactions": [
      {
        "date": "2024-06-24",
        "priceEur": 417600,
        "typeLocal": "Maison",
        "surfaceM2": 132,
        "isVefa": false
      },
      {
        "date": "2024-06-24",
        "priceEur": 417600,
        "typeLocal": "Maison",
        "surfaceM2": 132,
        "isVefa": false
      }
    ]
  },
  "62fa0042c874": {
    "id": "62fa0042c874",
    "label": "215 AV JEAN CAZES LE VILLAGE, Sauteyrargues",
    "lat": 43.837598,
    "lng": 3.920269,
    "transactions": [
      {
        "date": "2024-11-12",
        "priceEur": 330950,
        "typeLocal": "Maison",
        "surfaceM2": 91,
        "isVefa": false
      }
    ]
  },
  "eb2935de898a": {
    "id": "eb2935de898a",
    "label": "25 IMP DU MAGINIAI HAMEAU RIVES, Sauteyrargues",
    "lat": 43.83892,
    "lng": 3.914811,
    "transactions": [
      {
        "date": "2024-11-26",
        "priceEur": 312500,
        "typeLocal": "Maison",
        "surfaceM2": 90,
        "isVefa": false
      }
    ]
  },
  "da8412641b44": {
    "id": "da8412641b44",
    "label": "330 AV DE LA LAUZIERETTE VILLAGE, Sauteyrargues",
    "lat": 43.839461,
    "lng": 3.919254,
    "transactions": [
      {
        "date": "2025-03-05",
        "priceEur": 282869,
        "typeLocal": "Maison",
        "surfaceM2": 112,
        "isVefa": false
      },
      {
        "date": "2025-03-05",
        "priceEur": 282869,
        "typeLocal": "Maison",
        "surfaceM2": 112,
        "isVefa": false
      }
    ]
  }
}