{
  "359d28545835": {
    "id": "359d28545835",
    "label": "2 RTE DU TOT, Ingouville",
    "lat": 49.848512,
    "lng": 0.678059,
    "transactions": [
      {
        "date": "2020-12-04",
        "priceEur": 255000,
        "typeLocal": "Maison",
        "surfaceM2": 140,
        "isVefa": false
      }
    ]
  },
  "0d938d36fb99": {
    "id": "0d938d36fb99",
    "label": "24 RUE DES FLEURS, Ingouville",
    "lat": 49.849766,
    "lng": 0.673678,
    "transactions": [
      {
        "date": "2020-12-31",
        "priceEur": 825000,
        "typeLocal": "Maison",
        "surfaceM2": 200,
        "isVefa": false
      }
    ]
  },
  "87847a1e678d": {
    "id": "87847a1e678d",
    "label": "19 RES DU CALVAIRE, Saint-Sylvain",
    "lat": 49.845401,
    "lng": 0.670701,
    "transactions": [
      {
        "date": "2021-11-05",
        "priceEur": 172000,
        "typeLocal": "Maison",
        "surfaceM2": 108,
        "isVefa": false
      }
    ]
  },
  "5caa86308df2": {
    "id": "5caa86308df2",
    "label": "17 RUE DES FLEURS, Ingouville",
    "lat": 49.848668,
    "lng": 0.673653,
    "transactions": [
      {
        "date": "2021-01-19",
        "priceEur": 60000,
        "typeLocal": "Maison",
        "surfaceM2": 144,
        "isVefa": false
      }
    ]
  },
  "76873438fce8": {
    "id": "76873438fce8",
    "label": "1B RTE DU TOT, Ingouville",
    "lat": 49.847904,
    "lng": 0.677659,
    "transactions": [
      {
        "date": "2022-09-10",
        "priceEur": 322000,
        "typeLocal": "Maison",
        "surfaceM2": 146,
        "isVefa": false
      }
    ]
  },
  "b2183dc76cb5": {
    "id": "b2183dc76cb5",
    "label": "15B RUE DES FLEURS, Ingouville",
    "lat": 49.848702,
    "lng": 0.674098,
    "transactions": [
      {
        "date": "2023-02-27",
        "priceEur": 174302,
        "typeLocal": "Maison",
        "surfaceM2": 101,
        "isVefa": false
      }
    ]
  },
  "a68b920f6a4b": {
    "id": "a68b920f6a4b",
    "label": "21 RES DU CALVAIRE, Saint-Sylvain",
    "lat": 49.845151,
    "lng": 0.670686,
    "transactions": [
      {
        "date": "2023-05-17",
        "priceEur": 160000,
        "typeLocal": "Maison",
        "surfaceM2": 108,
        "isVefa": false
      }
    ]
  },
  "e87978b8af96": {
    "id": "e87978b8af96",
    "label": "8 RUE DE LA HAUTE VOIE, Ingouville",
    "lat": 49.851359,
    "lng": 0.678187,
    "transactions": [
      {
        "date": "2023-11-20",
        "priceEur": 287907.88,
        "typeLocal": "Maison",
        "surfaceM2": 135,
        "isVefa": false
      }
    ]
  },
  "3f9c2e3c5ba6": {
    "id": "3f9c2e3c5ba6",
    "label": "8 RTE DU TOT, Ingouville",
    "lat": 49.84904,
    "lng": 0.676267,
    "transactions": [
      {
        "date": "2024-02-16",
        "priceEur": 155400,
        "typeLocal": "Maison",
        "surfaceM2": 73,
        "isVefa": false
      }
    ]
  },
  "8e8f7f6dab46": {
    "id": "8e8f7f6dab46",
    "label": "32 RUE DES FLEURS, Ingouville",
    "lat": 49.84891,
    "lng": 0.672693,
    "transactions": [
      {
        "date": "2024-02-16",
        "priceEur": 237000,
        "typeLocal": "Maison",
        "surfaceM2": 90,
        "isVefa": false
      }
    ]
  },
  "36d8b1da1692": {
    "id": "36d8b1da1692",
    "label": "38 RUE DES FLEURS, Ingouville",
    "lat": 49.847962,
    "lng": 0.671352,
    "transactions": [
      {
        "date": "2025-04-03",
        "priceEur": 150000,
        "typeLocal": "Maison",
        "surfaceM2": 70,
        "isVefa": false
      }
    ]
  }
}