{
  "927eacc0b7b4": {
    "id": "927eacc0b7b4",
    "label": "15 RTE DE LA BERGERIE, Saint-Arnoult",
    "lat": 49.531563,
    "lng": 0.679365,
    "transactions": [
      {
        "date": "2020-08-28",
        "priceEur": 296000,
        "typeLocal": "Maison",
        "surfaceM2": 160,
        "isVefa": false
      }
    ]
  },
  "9ce36dbe697e": {
    "id": "9ce36dbe697e",
    "label": "256 RTE DU HAVRE, Saint-Arnoult",
    "lat": 49.528427,
    "lng": 0.672085,
    "transactions": [
      {
        "date": "2020-10-15",
        "priceEur": 150000,
        "typeLocal": "Maison",
        "surfaceM2": 109,
        "isVefa": false
      }
    ]
  },
  "1063cb2cfcd2": {
    "id": "1063cb2cfcd2",
    "label": "21 RTE DE LA BERGERIE, Saint-Arnoult",
    "lat": 49.531794,
    "lng": 0.678571,
    "transactions": [
      {
        "date": "2024-07-26",
        "priceEur": 331000,
        "typeLocal": "Maison",
        "surfaceM2": 169,
        "isVefa": false
      },
      {
        "date": "2021-03-30",
        "priceEur": 320500,
        "typeLocal": "Maison",
        "surfaceM2": 169,
        "isVefa": false
      }
    ]
  },
  "fd9c27febff9": {
    "id": "fd9c27febff9",
    "label": "262 RTE DU HAVRE, Saint-Arnoult",
    "lat": 49.528396,
    "lng": 0.671443,
    "transactions": [
      {
        "date": "2022-05-20",
        "priceEur": 60000,
        "typeLocal": "Maison",
        "surfaceM2": 72,
        "isVefa": false
      }
    ]
  },
  "b5507ebf98ed": {
    "id": "b5507ebf98ed",
    "label": "251 RTE DU HAVRE, Saint-Arnoult",
    "lat": 49.528008,
    "lng": 0.672383,
    "transactions": [
      {
        "date": "2022-09-27",
        "priceEur": 180000,
        "typeLocal": "Maison",
        "surfaceM2": 90,
        "isVefa": false
      }
    ]
  },
  "e5cce5c6abbc": {
    "id": "e5cce5c6abbc",
    "label": "11 RTE DES RUAUX, Saint-Arnoult",
    "lat": 49.529452,
    "lng": 0.671137,
    "transactions": [
      {
        "date": "2023-03-29",
        "priceEur": 394000,
        "typeLocal": "Maison",
        "surfaceM2": 231,
        "isVefa": false
      }
    ]
  },
  "662481b66c8c": {
    "id": "662481b66c8c",
    "label": "17 RTE DU GROS CHENE, Saint-Arnoult",
    "lat": 49.530046,
    "lng": 0.679066,
    "transactions": [
      {
        "date": "2023-09-29",
        "priceEur": 175000,
        "typeLocal": "Maison",
        "surfaceM2": 75,
        "isVefa": false
      }
    ]
  },
  "ca1ec7cc9525": {
    "id": "ca1ec7cc9525",
    "label": "10 CHE DU CROQUET, Saint-Arnoult",
    "lat": 49.528866,
    "lng": 0.673876,
    "transactions": [
      {
        "date": "2024-04-24",
        "priceEur": 110000,
        "typeLocal": "Maison",
        "surfaceM2": 85,
        "isVefa": false
      }
    ]
  },
  "f66c01857c38": {
    "id": "f66c01857c38",
    "label": "19 RTE DU GROS CHENE, Saint-Arnoult",
    "lat": 49.530348,
    "lng": 0.679071,
    "transactions": [
      {
        "date": "2024-09-18",
        "priceEur": 171000,
        "typeLocal": "Maison",
        "surfaceM2": 141,
        "isVefa": false
      }
    ]
  },
  "dbf85b094502": {
    "id": "dbf85b094502",
    "label": "6 RTE DE LA BERGERIE, Saint-Arnoult",
    "lat": 49.532065,
    "lng": 0.680747,
    "transactions": [
      {
        "date": "2025-02-17",
        "priceEur": 385000,
        "typeLocal": "Maison",
        "surfaceM2": 162,
        "isVefa": false
      }
    ]
  },
  "fd9eb5fe297d": {
    "id": "fd9eb5fe297d",
    "label": "6B RTE DE LA BERGERIE, Saint-Arnoult",
    "lat": 49.532197,
    "lng": 0.680795,
    "transactions": [
      {
        "date": "2025-02-17",
        "priceEur": 385000,
        "typeLocal": "Maison",
        "surfaceM2": 30,
        "isVefa": false
      }
    ]
  },
  "c66c8232ac55": {
    "id": "c66c8232ac55",
    "label": "6 RTE DES RUAUX, Saint-Arnoult",
    "lat": 49.528637,
    "lng": 0.671863,
    "transactions": [
      {
        "date": "2025-06-03",
        "priceEur": 172000,
        "typeLocal": "Maison",
        "surfaceM2": 102,
        "isVefa": false
      }
    ]
  }
}