{
  "ad83fb46c631": {
    "id": "ad83fb46c631",
    "label": "9 ALL DU TELHUET, Port-Jérôme-sur-Seine",
    "lat": 49.488194,
    "lng": 0.575485,
    "transactions": [
      {
        "date": "2022-05-19",
        "priceEur": 182000,
        "typeLocal": "Maison",
        "surfaceM2": 60,
        "isVefa": false
      },
      {
        "date": "2020-07-31",
        "priceEur": 165000,
        "typeLocal": "Maison",
        "surfaceM2": 60,
        "isVefa": false
      }
    ]
  },
  "e51d680ea5bd": {
    "id": "e51d680ea5bd",
    "label": "10 RUE JEAN-BAPTISTE COROT, Port-Jérôme-sur-Seine",
    "lat": 49.489453,
    "lng": 0.581097,
    "transactions": [
      {
        "date": "2020-08-17",
        "priceEur": 153500,
        "typeLocal": "Maison",
        "surfaceM2": 91,
        "isVefa": false
      }
    ]
  },
  "cc813274dfe1": {
    "id": "cc813274dfe1",
    "label": "4 RUE CLAUDE MONET, Port-Jérôme-sur-Seine",
    "lat": 49.484959,
    "lng": 0.57569,
    "transactions": [
      {
        "date": "2020-08-31",
        "priceEur": 190000,
        "typeLocal": "Maison",
        "surfaceM2": 85,
        "isVefa": false
      }
    ]
  },
  "23ad1602727a": {
    "id": "23ad1602727a",
    "label": "8 RUE PAUL CEZANNE, Port-Jérôme-sur-Seine",
    "lat": 49.489371,
    "lng": 0.58208,
    "transactions": [
      {
        "date": "2020-09-07",
        "priceEur": 126480,
        "typeLocal": "Maison",
        "surfaceM2": 93,
        "isVefa": false
      }
    ]
  },
  "c3d8138b6669": {
    "id": "c3d8138b6669",
    "label": "4 ALL DES TROENES, Port-Jérôme-sur-Seine",
    "lat": 49.484115,
    "lng": 0.573432,
    "transactions": [
      {
        "date": "2023-04-19",
        "priceEur": 146000,
        "typeLocal": "Maison",
        "surfaceM2": 90,
        "isVefa": false
      },
      {
        "date": "2020-09-23",
        "priceEur": 109000,
        "typeLocal": "Maison",
        "surfaceM2": 90,
        "isVefa": false
      }
    ]
  },
  "983db641889e": {
    "id": "983db641889e",
    "label": "23 RUE CLAUDE BERNARD, Port-Jérôme-sur-Seine",
    "lat": 49.484535,
    "lng": 0.575727,
    "transactions": [
      {
        "date": "2021-01-08",
        "priceEur": 170000,
        "typeLocal": "Maison",
        "surfaceM2": 86,
        "isVefa": false
      }
    ]
  },
  "331d1f856c6e": {
    "id": "331d1f856c6e",
    "label": "9 ALL DE TOCQUEVILLE, Port-Jérôme-sur-Seine",
    "lat": 49.489011,
    "lng": 0.578179,
    "transactions": [
      {
        "date": "2021-05-18",
        "priceEur": 201600,
        "typeLocal": "Maison",
        "surfaceM2": 118,
        "isVefa": false
      }
    ]
  },
  "1e188ef4bb75": {
    "id": "1e188ef4bb75",
    "label": "21 AV VICTOR HUGO, Port-Jérôme-sur-Seine",
    "lat": 49.486917,
    "lng": 0.571439,
    "transactions": [
      {
        "date": "2021-09-14",
        "priceEur": 165000,
        "typeLocal": "Appartement",
        "surfaceM2": 68,
        "isVefa": false
      },
      {
        "date": "2021-05-20",
        "priceEur": 171000,
        "typeLocal": "Appartement",
        "surfaceM2": 79,
        "isVefa": false
      }
    ]
  },
  "1636e8f6505e": {
    "id": "1636e8f6505e",
    "label": "4B ALL GEORGES WINTER, Port-Jérôme-sur-Seine",
    "lat": 49.486786,
    "lng": 0.574867,
    "transactions": [
      {
        "date": "2024-06-18",
        "priceEur": 179440,
        "typeLocal": "Maison",
        "surfaceM2": 102,
        "isVefa": false
      },
      {
        "date": "2021-07-29",
        "priceEur": 155000,
        "typeLocal": "Maison",
        "surfaceM2": 102,
        "isVefa": false
      }
    ]
  },
  "1a9c2e23532a": {
    "id": "1a9c2e23532a",
    "label": "33 RUE HENRI DUNANT, Port-Jérôme-sur-Seine",
    "lat": 49.483036,
    "lng": 0.572289,
    "transactions": [
      {
        "date": "2021-08-31",
        "priceEur": 315000,
        "typeLocal": "Appartement",
        "surfaceM2": 56,
        "isVefa": false
      },
      {
        "date": "2021-08-31",
        "priceEur": 315000,
        "typeLocal": "Appartement",
        "surfaceM2": 38,
        "isVefa": false
      },
      {
        "date": "2021-08-31",
        "priceEur": 315000,
        "typeLocal": "Appartement",
        "surfaceM2": 70,
        "isVefa": false
      }
    ]
  },
  "a958fb42344f": {
    "id": "a958fb42344f",
    "label": "9006 IMM CERVIN, Port-Jérôme-sur-Seine",
    "lat": 49.488622,
    "lng": 0.573291,
    "transactions": [
      {
        "date": "2024-06-27",
        "priceEur": 118000,
        "typeLocal": "Appartement",
        "surfaceM2": 85,
        "isVefa": false
      },
      {
        "date": "2023-11-14",
        "priceEur": 93950,
        "typeLocal": "Appartement",
        "surfaceM2": 68,
        "isVefa": false
      },
      {
        "date": "2023-09-07",
        "priceEur": 105000,
        "typeLocal": "Appartement",
        "surfaceM2": 68,
        "isVefa": false
      },
      {
        "date": "2023-06-29",
        "priceEur": 117000,
        "typeLocal": "Appartement",
        "surfaceM2": 68,
        "isVefa": false
      },
      {
        "date": "2022-12-30",
        "priceEur": 82500,
        "typeLocal": "Appartement",
        "surfaceM2": 85,
        "isVefa": false
      },
      {
        "date": "2022-07-26",
        "priceEur": 97300,
        "typeLocal": "Appartement",
        "surfaceM2": 67,
        "isVefa": false
      },
      {
        "date": "2021-08-27",
        "priceEur": 73000,
        "typeLocal": "Appartement",
        "surfaceM2": 67,
        "isVefa": false
      }
    ]
  },
  "92f45bb64867": {
    "id": "92f45bb64867",
    "label": "7 ALL DU TELHUET, Port-Jérôme-sur-Seine",
    "lat": 49.487972,
    "lng": 0.575193,
    "transactions": [
      {
        "date": "2021-09-22",
        "priceEur": 131000,
        "typeLocal": "Maison",
        "surfaceM2": 58,
        "isVefa": false
      }
    ]
  },
  "40983cbd330c": {
    "id": "40983cbd330c",
    "label": "18 RUE ANDRE GIDE, Port-Jérôme-sur-Seine",
    "lat": 49.488752,
    "lng": 0.575102,
    "transactions": [
      {
        "date": "2021-11-15",
        "priceEur": 170000,
        "typeLocal": "Maison",
        "surfaceM2": 100,
        "isVefa": false
      }
    ]
  },
  "3b1f9e9d102c": {
    "id": "3b1f9e9d102c",
    "label": "5 RUE ANDRE GIDE, Port-Jérôme-sur-Seine",
    "lat": 49.487752,
    "lng": 0.572762,
    "transactions": [
      {
        "date": "2021-12-15",
        "priceEur": 130000,
        "typeLocal": "Maison",
        "surfaceM2": 66,
        "isVefa": false
      }
    ]
  },
  "b644a4f4ccf5": {
    "id": "b644a4f4ccf5",
    "label": "14 RUE JEAN-BAPTISTE COROT, Port-Jérôme-sur-Seine",
    "lat": 49.489248,
    "lng": 0.58134,
    "transactions": [
      {
        "date": "2021-12-28",
        "priceEur": 144640,
        "typeLocal": "Maison",
        "surfaceM2": 113,
        "isVefa": false
      }
    ]
  },
  "bff66976b066": {
    "id": "bff66976b066",
    "label": "27 RUE HENRI DUNANT, Port-Jérôme-sur-Seine",
    "lat": 49.483398,
    "lng": 0.572234,
    "transactions": [
      {
        "date": "2021-12-28",
        "priceEur": 170000,
        "typeLocal": "Maison",
        "surfaceM2": 80,
        "isVefa": false
      }
    ]
  },
  "de70a13d9208": {
    "id": "de70a13d9208",
    "label": "23 ALL DES TROENES, Port-Jérôme-sur-Seine",
    "lat": 49.484125,
    "lng": 0.574465,
    "transactions": [
      {
        "date": "2022-01-12",
        "priceEur": 115000,
        "typeLocal": "Maison",
        "surfaceM2": 85,
        "isVefa": false
      }
    ]
  },
  "8202b58c202e": {
    "id": "8202b58c202e",
    "label": "5 RUE CLAUDE BERNARD, Port-Jérôme-sur-Seine",
    "lat": 49.485496,
    "lng": 0.574129,
    "transactions": [
      {
        "date": "2022-05-05",
        "priceEur": 169000,
        "typeLocal": "Maison",
        "surfaceM2": 52,
        "isVefa": false
      }
    ]
  },
  "d1b744e5df4f": {
    "id": "d1b744e5df4f",
    "label": "32 RUE CLAUDE MONET, Port-Jérôme-sur-Seine",
    "lat": 49.485138,
    "lng": 0.578027,
    "transactions": [
      {
        "date": "2022-05-23",
        "priceEur": 145000,
        "typeLocal": "Maison",
        "surfaceM2": 65,
        "isVefa": false
      }
    ]
  },
  "675e3e21d76a": {
    "id": "675e3e21d76a",
    "label": "13 ALL DU TELHUET, Port-Jérôme-sur-Seine",
    "lat": 49.488096,
    "lng": 0.574943,
    "transactions": [
      {
        "date": "2022-07-13",
        "priceEur": 150000,
        "typeLocal": "Maison",
        "surfaceM2": 80,
        "isVefa": false
      }
    ]
  },
  "327c37757125": {
    "id": "327c37757125",
    "label": "9019 RUE RAOUL DUFY, Port-Jérôme-sur-Seine",
    "lat": 49.486187,
    "lng": 0.577847,
    "transactions": [
      {
        "date": "2022-12-15",
        "priceEur": 190000,
        "typeLocal": "Maison",
        "surfaceM2": 115,
        "isVefa": false
      }
    ]
  },
  "3c7c948cea61": {
    "id": "3c7c948cea61",
    "label": "21 RUE CLAUDE BERNARD, Port-Jérôme-sur-Seine",
    "lat": 49.484606,
    "lng": 0.575604,
    "transactions": [
      {
        "date": "2023-03-28",
        "priceEur": 152000,
        "typeLocal": "Maison",
        "surfaceM2": 75,
        "isVefa": false
      }
    ]
  },
  "79d29637757d": {
    "id": "79d29637757d",
    "label": "17 ALL DU TELHUET, Port-Jérôme-sur-Seine",
    "lat": 49.487438,
    "lng": 0.574064,
    "transactions": [
      {
        "date": "2023-06-05",
        "priceEur": 145000,
        "typeLocal": "Maison",
        "surfaceM2": 66,
        "isVefa": false
      }
    ]
  },
  "95a21c4e9c3e": {
    "id": "95a21c4e9c3e",
    "label": "16 ALL DES ACRES, Port-Jérôme-sur-Seine",
    "lat": 49.483382,
    "lng": 0.579035,
    "transactions": [
      {
        "date": "2023-06-01",
        "priceEur": 65000,
        "typeLocal": "Appartement",
        "surfaceM2": 66,
        "isVefa": false
      }
    ]
  },
  "43570aa4e663": {
    "id": "43570aa4e663",
    "label": "19 ALL DES TROENES, Port-Jérôme-sur-Seine",
    "lat": 49.483966,
    "lng": 0.574117,
    "transactions": [
      {
        "date": "2023-06-02",
        "priceEur": 152500,
        "typeLocal": "Maison",
        "surfaceM2": 90,
        "isVefa": false
      }
    ]
  },
  "3822b55c5bd2": {
    "id": "3822b55c5bd2",
    "label": "9007 ALL DU VAL, Port-Jérôme-sur-Seine",
    "lat": 49.488205,
    "lng": 0.572672,
    "transactions": [
      {
        "date": "2023-06-19",
        "priceEur": 215900,
        "typeLocal": "Appartement",
        "surfaceM2": 127,
        "isVefa": false
      }
    ]
  },
  "b83c059a5d18": {
    "id": "b83c059a5d18",
    "label": "7 RUE ANDRE GIDE, Port-Jérôme-sur-Seine",
    "lat": 49.489245,
    "lng": 0.574871,
    "transactions": [
      {
        "date": "2023-10-30",
        "priceEur": 80000,
        "typeLocal": "Maison",
        "surfaceM2": 27,
        "isVefa": false
      }
    ]
  },
  "56f6cb36b10c": {
    "id": "56f6cb36b10c",
    "label": "5 RUE RAOUL DUFY, Port-Jérôme-sur-Seine",
    "lat": 49.486018,
    "lng": 0.57594,
    "transactions": [
      {
        "date": "2024-01-30",
        "priceEur": 50000,
        "typeLocal": "Maison",
        "surfaceM2": 45,
        "isVefa": false
      }
    ]
  },
  "20626e371bf1": {
    "id": "20626e371bf1",
    "label": "34 ALL DU TELHUET, Port-Jérôme-sur-Seine",
    "lat": 49.488622,
    "lng": 0.575324,
    "transactions": [
      {
        "date": "2024-05-22",
        "priceEur": 160000,
        "typeLocal": "Maison",
        "surfaceM2": 94,
        "isVefa": false
      }
    ]
  },
  "00a0a08f603f": {
    "id": "00a0a08f603f",
    "label": "9 RUE HENRI DUNANT, Port-Jérôme-sur-Seine",
    "lat": 49.485204,
    "lng": 0.57224,
    "transactions": [
      {
        "date": "2024-12-20",
        "priceEur": 141000,
        "typeLocal": "Maison",
        "surfaceM2": 84,
        "isVefa": false
      },
      {
        "date": "2024-05-22",
        "priceEur": 160000,
        "typeLocal": "Maison",
        "surfaceM2": 84,
        "isVefa": false
      }
    ]
  },
  "8b7f83ec96a4": {
    "id": "8b7f83ec96a4",
    "label": "4 RUE CLAUDE BERNARD, Port-Jérôme-sur-Seine",
    "lat": 49.48562,
    "lng": 0.572103,
    "transactions": [
      {
        "date": "2025-03-06",
        "priceEur": 175500,
        "typeLocal": "Maison",
        "surfaceM2": 30,
        "isVefa": false
      },
      {
        "date": "2025-03-06",
        "priceEur": 175500,
        "typeLocal": "Maison",
        "surfaceM2": 50,
        "isVefa": false
      }
    ]
  }
}