{
  "a517af20a0f0": {
    "id": "a517af20a0f0",
    "label": "5293 PLAN DES MONGES, Grabels",
    "lat": 43.645918,
    "lng": 3.818388,
    "transactions": [
      {
        "date": "2020-11-10",
        "priceEur": 180000,
        "typeLocal": "Maison",
        "surfaceM2": 66,
        "isVefa": false
      }
    ]
  },
  "5608fb1564a8": {
    "id": "5608fb1564a8",
    "label": "793 RTE DE MONTPELLIER, Grabels",
    "lat": 43.64413,
    "lng": 3.820706,
    "transactions": [
      {
        "date": "2020-11-17",
        "priceEur": 390000,
        "typeLocal": "Maison",
        "surfaceM2": 100,
        "isVefa": false
      },
      {
        "date": "2020-11-17",
        "priceEur": 390000,
        "typeLocal": "Maison",
        "surfaceM2": 100,
        "isVefa": false
      }
    ]
  },
  "90226a694bb6": {
    "id": "90226a694bb6",
    "label": "126 ACH ANCIEN CHEM DE MONTPELLIER, Grabels",
    "lat": 43.645133,
    "lng": 3.813264,
    "transactions": [
      {
        "date": "2022-04-22",
        "priceEur": 287500,
        "typeLocal": "Maison",
        "surfaceM2": 67,
        "isVefa": false
      },
      {
        "date": "2022-04-22",
        "priceEur": 287500,
        "typeLocal": "Maison",
        "surfaceM2": 35,
        "isVefa": false
      },
      {
        "date": "2022-03-01",
        "priceEur": 278000,
        "typeLocal": "Maison",
        "surfaceM2": 67,
        "isVefa": false
      },
      {
        "date": "2022-03-01",
        "priceEur": 278000,
        "typeLocal": "Maison",
        "surfaceM2": 35,
        "isVefa": false
      }
    ]
  },
  "e3ed04469e7a": {
    "id": "e3ed04469e7a",
    "label": "623 RUE DES CARIGNANS, Grabels",
    "lat": 43.651012,
    "lng": 3.81238,
    "transactions": [
      {
        "date": "2023-10-31",
        "priceEur": 465591,
        "typeLocal": "Maison",
        "surfaceM2": 125,
        "isVefa": false
      },
      {
        "date": "2022-06-02",
        "priceEur": 530500,
        "typeLocal": "Maison",
        "surfaceM2": 110,
        "isVefa": false
      },
      {
        "date": "2022-06-02",
        "priceEur": 530500,
        "typeLocal": "Maison",
        "surfaceM2": 125,
        "isVefa": false
      }
    ]
  },
  "be986058e1aa": {
    "id": "be986058e1aa",
    "label": "635B RUE DES CARIGNANS, Grabels",
    "lat": 43.650767,
    "lng": 3.812638,
    "transactions": [
      {
        "date": "2022-10-11",
        "priceEur": 365000,
        "typeLocal": "Maison",
        "surfaceM2": 99,
        "isVefa": false
      }
    ]
  },
  "c2f51a77d1cd": {
    "id": "c2f51a77d1cd",
    "label": "256 ACH ANCIEN CHEM DE MONTPELLIER, Grabels",
    "lat": 43.644388,
    "lng": 3.815055,
    "transactions": [
      {
        "date": "2022-11-29",
        "priceEur": 618000,
        "typeLocal": "Maison",
        "surfaceM2": 127,
        "isVefa": false
      },
      {
        "date": "2022-11-29",
        "priceEur": 618000,
        "typeLocal": "Maison",
        "surfaceM2": 127,
        "isVefa": false
      }
    ]
  },
  "592b3a7e1be5": {
    "id": "592b3a7e1be5",
    "label": "961 RTE DE MONTPELLIER, Grabels",
    "lat": 43.646364,
    "lng": 3.813058,
    "transactions": [
      {
        "date": "2023-02-10",
        "priceEur": 628300,
        "typeLocal": "Maison",
        "surfaceM2": 168,
        "isVefa": false
      }
    ]
  },
  "f8a0405a7e63": {
    "id": "f8a0405a7e63",
    "label": "64 CHE DE GUILLERY, Grabels",
    "lat": 43.644617,
    "lng": 3.813283,
    "transactions": [
      {
        "date": "2024-02-19",
        "priceEur": 510300,
        "typeLocal": "Maison",
        "surfaceM2": 118,
        "isVefa": false
      }
    ]
  },
  "69394bbd7b61": {
    "id": "69394bbd7b61",
    "label": "833 CHE REDONNEL, Grabels",
    "lat": 43.64883,
    "lng": 3.817755,
    "transactions": [
      {
        "date": "2024-12-26",
        "priceEur": 495000,
        "typeLocal": "Maison",
        "surfaceM2": 85,
        "isVefa": false
      },
      {
        "date": "2024-12-26",
        "priceEur": 495000,
        "typeLocal": "Maison",
        "surfaceM2": 85,
        "isVefa": false
      }
    ]
  }
}