{
  "74d297164758": {
    "id": "74d297164758",
    "label": "6077 MARAIS DE JUMIEGES, Jumièges",
    "lat": 49.413685,
    "lng": 0.839898,
    "transactions": [
      {
        "date": "2022-07-01",
        "priceEur": 110000,
        "typeLocal": "Maison",
        "surfaceM2": 36,
        "isVefa": false
      }
    ]
  },
  "89f060b2788b": {
    "id": "89f060b2788b",
    "label": "374 RUE DES AMERICAINS, Jumièges",
    "lat": 49.41336,
    "lng": 0.839584,
    "transactions": [
      {
        "date": "2022-08-08",
        "priceEur": 152000,
        "typeLocal": "Maison",
        "surfaceM2": 66,
        "isVefa": false
      }
    ]
  },
  "2cd801b18f80": {
    "id": "2cd801b18f80",
    "label": "5329 GDE RUE DU QUESNEY, Jumièges",
    "lat": 49.416204,
    "lng": 0.839239,
    "transactions": [
      {
        "date": "2022-08-30",
        "priceEur": 110000,
        "typeLocal": "Maison",
        "surfaceM2": 81,
        "isVefa": false
      }
    ]
  },
  "ca0dc923048c": {
    "id": "ca0dc923048c",
    "label": "5328A LES SABLONS, Jumièges",
    "lat": 49.414646,
    "lng": 0.840263,
    "transactions": [
      {
        "date": "2023-02-23",
        "priceEur": 189000,
        "typeLocal": "Maison",
        "surfaceM2": 84,
        "isVefa": false
      }
    ]
  },
  "8a0328953868": {
    "id": "8a0328953868",
    "label": "10 RUE DE LA HAUTEVILLE, Jumièges",
    "lat": 49.414408,
    "lng": 0.84014,
    "transactions": [
      {
        "date": "2023-11-13",
        "priceEur": 167000,
        "typeLocal": "Maison",
        "surfaceM2": 90,
        "isVefa": false
      }
    ]
  },
  "12cf1d68c60e": {
    "id": "12cf1d68c60e",
    "label": "269 RUE DE LA HAUTEVILLE, Jumièges",
    "lat": 49.416468,
    "lng": 0.838835,
    "transactions": [
      {
        "date": "2024-06-14",
        "priceEur": 159000,
        "typeLocal": "Maison",
        "surfaceM2": 80,
        "isVefa": false
      }
    ]
  },
  "f77bcd628835": {
    "id": "f77bcd628835",
    "label": "334 RUE SEVER BOUTARD, Jumièges",
    "lat": 49.412817,
    "lng": 0.836402,
    "transactions": [
      {
        "date": "2024-07-09",
        "priceEur": 226000,
        "typeLocal": "Maison",
        "surfaceM2": 84,
        "isVefa": false
      }
    ]
  }
}