{
  "2984d72bc94b": {
    "id": "2984d72bc94b",
    "label": "9030 IMP HELENE BOUCHER, Port-Jérôme-sur-Seine",
    "lat": 49.496833,
    "lng": 0.586269,
    "transactions": [
      {
        "date": "2020-07-02",
        "priceEur": 220000,
        "typeLocal": "Maison",
        "surfaceM2": 90,
        "isVefa": false
      }
    ]
  },
  "0c9c9d9ce0f8": {
    "id": "0c9c9d9ce0f8",
    "label": "2 RUE CLEMENT ADER, Port-Jérôme-sur-Seine",
    "lat": 49.496924,
    "lng": 0.588906,
    "transactions": [
      {
        "date": "2021-12-27",
        "priceEur": 115000,
        "typeLocal": "Maison",
        "surfaceM2": 123,
        "isVefa": false
      },
      {
        "date": "2020-08-07",
        "priceEur": 175000,
        "typeLocal": "Maison",
        "surfaceM2": 123,
        "isVefa": false
      }
    ]
  },
  "e72a898f0ecc": {
    "id": "e72a898f0ecc",
    "label": "64 RUE HELENE BOUCHER, Port-Jérôme-sur-Seine",
    "lat": 49.498867,
    "lng": 0.591183,
    "transactions": [
      {
        "date": "2020-12-23",
        "priceEur": 110000,
        "typeLocal": "Maison",
        "surfaceM2": 75,
        "isVefa": false
      }
    ]
  },
  "0859e460c9b6": {
    "id": "0859e460c9b6",
    "label": "21B RUE DE FONTAINEVAL, Port-Jérôme-sur-Seine",
    "lat": 49.499774,
    "lng": 0.583728,
    "transactions": [
      {
        "date": "2022-01-31",
        "priceEur": 127000,
        "typeLocal": "Maison",
        "surfaceM2": 66,
        "isVefa": false
      }
    ]
  },
  "ca7294fd34c3": {
    "id": "ca7294fd34c3",
    "label": "3 IMP HUBERT LATHAM, Port-Jérôme-sur-Seine",
    "lat": 49.496941,
    "lng": 0.583965,
    "transactions": [
      {
        "date": "2022-02-07",
        "priceEur": 142000,
        "typeLocal": "Maison",
        "surfaceM2": 64,
        "isVefa": false
      }
    ]
  },
  "c483a6f2af81": {
    "id": "c483a6f2af81",
    "label": "8 CHE DE LA FONTAINE - GRAVENCHO, Port-Jérôme-sur-Seine",
    "lat": 49.499779,
    "lng": 0.583321,
    "transactions": [
      {
        "date": "2022-08-30",
        "priceEur": 170000,
        "typeLocal": "Maison",
        "surfaceM2": 63,
        "isVefa": false
      }
    ]
  },
  "448a48a590b4": {
    "id": "448a48a590b4",
    "label": "12 RUE CHARLES NUNGESSER, Port-Jérôme-sur-Seine",
    "lat": 49.496785,
    "lng": 0.585317,
    "transactions": [
      {
        "date": "2022-09-16",
        "priceEur": 150000,
        "typeLocal": "Maison",
        "surfaceM2": 64,
        "isVefa": false
      }
    ]
  },
  "b2f6bdb9571a": {
    "id": "b2f6bdb9571a",
    "label": "11T RUE CLEMENT ADER, Port-Jérôme-sur-Seine",
    "lat": 49.498389,
    "lng": 0.59176,
    "transactions": [
      {
        "date": "2022-10-17",
        "priceEur": 370000,
        "typeLocal": "Maison",
        "surfaceM2": 165,
        "isVefa": false
      }
    ]
  },
  "bb0d33803131": {
    "id": "bb0d33803131",
    "label": "5 IMP HUBERT LATHAM, Port-Jérôme-sur-Seine",
    "lat": 49.497111,
    "lng": 0.584121,
    "transactions": [
      {
        "date": "2023-05-24",
        "priceEur": 148000,
        "typeLocal": "Maison",
        "surfaceM2": 64,
        "isVefa": false
      }
    ]
  },
  "e96c148f1b0a": {
    "id": "e96c148f1b0a",
    "label": "26 RUE DE FONTAINEVAL, Port-Jérôme-sur-Seine",
    "lat": 49.497611,
    "lng": 0.583913,
    "transactions": [
      {
        "date": "2024-08-12",
        "priceEur": 397000,
        "typeLocal": "Maison",
        "surfaceM2": 101,
        "isVefa": false
      }
    ]
  },
  "f6339164f28c": {
    "id": "f6339164f28c",
    "label": "3 RUE DU MONT A LARDIER, Port-Jérôme-sur-Seine",
    "lat": 49.500363,
    "lng": 0.588359,
    "transactions": [
      {
        "date": "2024-10-10",
        "priceEur": 260000,
        "typeLocal": "Maison",
        "surfaceM2": 136,
        "isVefa": false
      }
    ]
  }
}