{
  "052c56e4a47e": {
    "id": "052c56e4a47e",
    "label": "4 LOT LES COTEAUX, Tourbes",
    "lat": 43.450145,
    "lng": 3.374901,
    "transactions": [
      {
        "date": "2020-07-07",
        "priceEur": 373900,
        "typeLocal": "Maison",
        "surfaceM2": 140,
        "isVefa": false
      },
      {
        "date": "2020-07-07",
        "priceEur": 373900,
        "typeLocal": "Maison",
        "surfaceM2": 140,
        "isVefa": false
      }
    ]
  },
  "f6da93a9cb90": {
    "id": "f6da93a9cb90",
    "label": "42 GR GRANDE RUE, Tourbes",
    "lat": 43.446994,
    "lng": 3.378093,
    "transactions": [
      {
        "date": "2020-08-26",
        "priceEur": 60000,
        "typeLocal": "Maison",
        "surfaceM2": 78,
        "isVefa": false
      }
    ]
  },
  "4e59603865cb": {
    "id": "4e59603865cb",
    "label": "5 GR GRANDE RUE, Tourbes",
    "lat": 43.446084,
    "lng": 3.379124,
    "transactions": [
      {
        "date": "2020-09-02",
        "priceEur": 73000,
        "typeLocal": "Maison",
        "surfaceM2": 84,
        "isVefa": false
      }
    ]
  },
  "7cd2ca5b1296": {
    "id": "7cd2ca5b1296",
    "label": "7 RTE DE CAUX, Tourbes",
    "lat": 43.448434,
    "lng": 3.378066,
    "transactions": [
      {
        "date": "2020-10-02",
        "priceEur": 96668,
        "typeLocal": "Maison",
        "surfaceM2": 45,
        "isVefa": false
      },
      {
        "date": "2020-10-02",
        "priceEur": 96668,
        "typeLocal": "Maison",
        "surfaceM2": 75,
        "isVefa": false
      }
    ]
  },
  "a3741f0de2de": {
    "id": "a3741f0de2de",
    "label": "8 GR GRANDE RUE, Tourbes",
    "lat": 43.44608,
    "lng": 3.378916,
    "transactions": [
      {
        "date": "2020-12-08",
        "priceEur": 72570,
        "typeLocal": "Maison",
        "surfaceM2": 72,
        "isVefa": false
      }
    ]
  },
  "0a62e41be847": {
    "id": "0a62e41be847",
    "label": "2 PL DE LA CHAPELLE, Tourbes",
    "lat": 43.446139,
    "lng": 3.378446,
    "transactions": [
      {
        "date": "2024-05-24",
        "priceEur": 139250,
        "typeLocal": "Maison",
        "surfaceM2": 96,
        "isVefa": false
      },
      {
        "date": "2020-12-11",
        "priceEur": 120000,
        "typeLocal": "Maison",
        "surfaceM2": 96,
        "isVefa": false
      }
    ]
  },
  "4b7abff0207e": {
    "id": "4b7abff0207e",
    "label": "4B CHE DE LA RIVIERE, Tourbes",
    "lat": 43.4484,
    "lng": 3.374295,
    "transactions": [
      {
        "date": "2024-08-29",
        "priceEur": 150496,
        "typeLocal": "Appartement",
        "surfaceM2": 41,
        "isVefa": false
      },
      {
        "date": "2022-04-27",
        "priceEur": 127725,
        "typeLocal": "Appartement",
        "surfaceM2": 31,
        "isVefa": false
      },
      {
        "date": "2021-07-12",
        "priceEur": 111725,
        "typeLocal": "Appartement",
        "surfaceM2": 31,
        "isVefa": false
      },
      {
        "date": "2021-02-16",
        "priceEur": 130000,
        "typeLocal": "Appartement",
        "surfaceM2": 31,
        "isVefa": false
      },
      {
        "date": "2021-02-16",
        "priceEur": 130000,
        "typeLocal": "Appartement",
        "surfaceM2": 40,
        "isVefa": false
      },
      {
        "date": "2020-12-29",
        "priceEur": 128330,
        "typeLocal": "Appartement",
        "surfaceM2": 43,
        "isVefa": false
      },
      {
        "date": "2020-12-18",
        "priceEur": 122340,
        "typeLocal": "Appartement",
        "surfaceM2": 31,
        "isVefa": false
      },
      {
        "date": "2020-12-18",
        "priceEur": 122340,
        "typeLocal": "Appartement",
        "surfaceM2": 41,
        "isVefa": false
      }
    ]
  },
  "182405b20c0b": {
    "id": "182405b20c0b",
    "label": "3 RUE DE LA CHAPELLE, Tourbes",
    "lat": 43.446364,
    "lng": 3.378458,
    "transactions": [
      {
        "date": "2025-04-30",
        "priceEur": 266500,
        "typeLocal": "Maison",
        "surfaceM2": 76,
        "isVefa": false
      },
      {
        "date": "2020-12-11",
        "priceEur": 50000,
        "typeLocal": "Maison",
        "surfaceM2": 76,
        "isVefa": false
      }
    ]
  },
  "628406b2d577": {
    "id": "628406b2d577",
    "label": "11 RUE VENEL, Tourbes",
    "lat": 43.445868,
    "lng": 3.378636,
    "transactions": [
      {
        "date": "2021-01-27",
        "priceEur": 104000,
        "typeLocal": "Maison",
        "surfaceM2": 55,
        "isVefa": false
      }
    ]
  },
  "c9016a33acea": {
    "id": "c9016a33acea",
    "label": "3 CHE DE LAVAL, Tourbes",
    "lat": 43.446222,
    "lng": 3.383537,
    "transactions": [
      {
        "date": "2021-02-12",
        "priceEur": 255000,
        "typeLocal": "Maison",
        "surfaceM2": 80,
        "isVefa": false
      },
      {
        "date": "2021-02-12",
        "priceEur": 255000,
        "typeLocal": "Maison",
        "surfaceM2": 80,
        "isVefa": false
      }
    ]
  },
  "7cb1999f3f1e": {
    "id": "7cb1999f3f1e",
    "label": "39 GR GRANDE RUE, Tourbes",
    "lat": 43.446815,
    "lng": 3.378255,
    "transactions": [
      {
        "date": "2021-02-19",
        "priceEur": 130000,
        "typeLocal": "Maison",
        "surfaceM2": 57,
        "isVefa": false
      }
    ]
  },
  "408421713367": {
    "id": "408421713367",
    "label": "4 PL DES TROIS PORCHES, Tourbes",
    "lat": 43.445889,
    "lng": 3.379078,
    "transactions": [
      {
        "date": "2023-12-01",
        "priceEur": 143000,
        "typeLocal": "Appartement",
        "surfaceM2": 68,
        "isVefa": false
      },
      {
        "date": "2021-07-26",
        "priceEur": 61500,
        "typeLocal": "Appartement",
        "surfaceM2": 44,
        "isVefa": false
      },
      {
        "date": "2021-03-31",
        "priceEur": 162500,
        "typeLocal": "Appartement",
        "surfaceM2": 62,
        "isVefa": false
      },
      {
        "date": "2021-03-31",
        "priceEur": 162500,
        "typeLocal": "Appartement",
        "surfaceM2": 62,
        "isVefa": false
      }
    ]
  },
  "45c99113fd8c": {
    "id": "45c99113fd8c",
    "label": "3 RUE DES MIMOSAS, Tourbes",
    "lat": 43.447556,
    "lng": 3.381857,
    "transactions": [
      {
        "date": "2021-03-25",
        "priceEur": 210000,
        "typeLocal": "Maison",
        "surfaceM2": 74,
        "isVefa": false
      }
    ]
  },
  "4713e8be4fce": {
    "id": "4713e8be4fce",
    "label": "11 GR GRANDE RUE, Tourbes",
    "lat": 43.446253,
    "lng": 3.379101,
    "transactions": [
      {
        "date": "2021-04-21",
        "priceEur": 152000,
        "typeLocal": "Maison",
        "surfaceM2": 125,
        "isVefa": false
      }
    ]
  },
  "2b4e921bf31c": {
    "id": "2b4e921bf31c",
    "label": "12 RUE DE L'EGALITE, Tourbes",
    "lat": 43.445772,
    "lng": 3.381974,
    "transactions": [
      {
        "date": "2021-04-15",
        "priceEur": 331267,
        "typeLocal": "Maison",
        "surfaceM2": 123,
        "isVefa": false
      },
      {
        "date": "2021-04-15",
        "priceEur": 331267,
        "typeLocal": "Maison",
        "surfaceM2": 123,
        "isVefa": false
      }
    ]
  },
  "c4f5ec509435": {
    "id": "c4f5ec509435",
    "label": "5517 CHE DE LAVAL, Tourbes",
    "lat": 43.446436,
    "lng": 3.383424,
    "transactions": [
      {
        "date": "2021-04-26",
        "priceEur": 295000,
        "typeLocal": "Maison",
        "surfaceM2": 164,
        "isVefa": false
      },
      {
        "date": "2021-04-26",
        "priceEur": 295000,
        "typeLocal": "Maison",
        "surfaceM2": 164,
        "isVefa": false
      }
    ]
  },
  "2edeadfdc0b2": {
    "id": "2edeadfdc0b2",
    "label": "2 CHE DE LA TERRE FINE, Tourbes",
    "lat": 43.44922,
    "lng": 3.378754,
    "transactions": [
      {
        "date": "2021-06-15",
        "priceEur": 358100,
        "typeLocal": "Maison",
        "surfaceM2": 136,
        "isVefa": false
      }
    ]
  },
  "72af42d2afd2": {
    "id": "72af42d2afd2",
    "label": "16 RUE DU CHATEAU, Tourbes",
    "lat": 43.446625,
    "lng": 3.377702,
    "transactions": [
      {
        "date": "2021-05-28",
        "priceEur": 88600,
        "typeLocal": "Maison",
        "surfaceM2": 36,
        "isVefa": false
      }
    ]
  },
  "bf7c5ae52548": {
    "id": "bf7c5ae52548",
    "label": "7 GR GRANDE RUE, Tourbes",
    "lat": 43.446234,
    "lng": 3.379261,
    "transactions": [
      {
        "date": "2021-07-13",
        "priceEur": 173613,
        "typeLocal": "Maison",
        "surfaceM2": 60,
        "isVefa": false
      }
    ]
  },
  "beeae149165c": {
    "id": "beeae149165c",
    "label": "12 RUE TOUR DES CAVES, Tourbes",
    "lat": 43.446895,
    "lng": 3.378638,
    "transactions": [
      {
        "date": "2021-07-06",
        "priceEur": 180500,
        "typeLocal": "Appartement",
        "surfaceM2": 56,
        "isVefa": false
      },
      {
        "date": "2021-07-06",
        "priceEur": 180500,
        "typeLocal": "Appartement",
        "surfaceM2": 60,
        "isVefa": false
      },
      {
        "date": "2021-07-06",
        "priceEur": 180500,
        "typeLocal": "Appartement",
        "surfaceM2": 60,
        "isVefa": false
      }
    ]
  },
  "2f6a924fe07c": {
    "id": "2f6a924fe07c",
    "label": "3 RUE DES OLIVIERS, Tourbes",
    "lat": 43.446823,
    "lng": 3.382757,
    "transactions": [
      {
        "date": "2021-07-16",
        "priceEur": 337200,
        "typeLocal": "Maison",
        "surfaceM2": 110,
        "isVefa": false
      },
      {
        "date": "2021-07-16",
        "priceEur": 337200,
        "typeLocal": "Maison",
        "surfaceM2": 110,
        "isVefa": false
      }
    ]
  },
  "92a5aad5cf47": {
    "id": "92a5aad5cf47",
    "label": "4 RUE DE LA BRECHE, Tourbes",
    "lat": 43.445683,
    "lng": 3.37881,
    "transactions": [
      {
        "date": "2023-05-16",
        "priceEur": 144000,
        "typeLocal": "Maison",
        "surfaceM2": 80,
        "isVefa": false
      },
      {
        "date": "2021-07-27",
        "priceEur": 56500,
        "typeLocal": "Maison",
        "surfaceM2": 80,
        "isVefa": false
      }
    ]
  },
  "953c2970babc": {
    "id": "953c2970babc",
    "label": "15 GR GRANDE RUE, Tourbes",
    "lat": 43.446338,
    "lng": 3.378978,
    "transactions": [
      {
        "date": "2021-08-03",
        "priceEur": 178000,
        "typeLocal": "Maison",
        "surfaceM2": 70,
        "isVefa": false
      }
    ]
  },
  "92fa248709fd": {
    "id": "92fa248709fd",
    "label": "15 RUE TOUR DES CAVES, Tourbes",
    "lat": 43.447271,
    "lng": 3.378722,
    "transactions": [
      {
        "date": "2024-07-22",
        "priceEur": 162000,
        "typeLocal": "Maison",
        "surfaceM2": 61,
        "isVefa": false
      },
      {
        "date": "2021-09-14",
        "priceEur": 130000,
        "typeLocal": "Maison",
        "surfaceM2": 61,
        "isVefa": false
      }
    ]
  },
  "ae3354e756ea": {
    "id": "ae3354e756ea",
    "label": "16B RTE DE CAUX, Tourbes",
    "lat": 43.448648,
    "lng": 3.377703,
    "transactions": [
      {
        "date": "2021-08-30",
        "priceEur": 240000,
        "typeLocal": "Maison",
        "surfaceM2": 81,
        "isVefa": false
      }
    ]
  },
  "0d33831c08d6": {
    "id": "0d33831c08d6",
    "label": "14B RTE DE SAINT ROCH, Tourbes",
    "lat": 43.446543,
    "lng": 3.376725,
    "transactions": [
      {
        "date": "2021-10-11",
        "priceEur": 245575,
        "typeLocal": "Maison",
        "surfaceM2": 96,
        "isVefa": false
      }
    ]
  },
  "3963190f45f5": {
    "id": "3963190f45f5",
    "label": "4 IMP DU CHATEAU, Tourbes",
    "lat": 43.446847,
    "lng": 3.377539,
    "transactions": [
      {
        "date": "2021-11-04",
        "priceEur": 50000,
        "typeLocal": "Maison",
        "surfaceM2": 58,
        "isVefa": false
      }
    ]
  },
  "cb4c35c99f2e": {
    "id": "cb4c35c99f2e",
    "label": "8 PL DU QUAI, Tourbes",
    "lat": 43.445265,
    "lng": 3.37927,
    "transactions": [
      {
        "date": "2021-11-05",
        "priceEur": 206749,
        "typeLocal": "Maison",
        "surfaceM2": 93,
        "isVefa": false
      }
    ]
  },
  "8115cc8ef0d4": {
    "id": "8115cc8ef0d4",
    "label": "13 RUE VENEL, Tourbes",
    "lat": 43.445906,
    "lng": 3.378493,
    "transactions": [
      {
        "date": "2021-11-16",
        "priceEur": 216000,
        "typeLocal": "Maison",
        "surfaceM2": 155,
        "isVefa": false
      }
    ]
  },
  "1c69c3debba7": {
    "id": "1c69c3debba7",
    "label": "6 RUE DE L'EGALITE, Tourbes",
    "lat": 43.445811,
    "lng": 3.381034,
    "transactions": [
      {
        "date": "2021-12-01",
        "priceEur": 350000,
        "typeLocal": "Maison",
        "surfaceM2": 263,
        "isVefa": false
      }
    ]
  },
  "386678eb1bee": {
    "id": "386678eb1bee",
    "label": "10 RUE RAYMOND MATHAT, Tourbes",
    "lat": 43.447472,
    "lng": 3.377714,
    "transactions": [
      {
        "date": "2024-03-15",
        "priceEur": 129130,
        "typeLocal": "Maison",
        "surfaceM2": 75,
        "isVefa": false
      },
      {
        "date": "2021-12-16",
        "priceEur": 111830,
        "typeLocal": "Maison",
        "surfaceM2": 75,
        "isVefa": false
      }
    ]
  },
  "4d95da2aaa02": {
    "id": "4d95da2aaa02",
    "label": "3 RUE DE LA BRECHE, Tourbes",
    "lat": 43.445671,
    "lng": 3.378601,
    "transactions": [
      {
        "date": "2023-03-22",
        "priceEur": 347250,
        "typeLocal": "Maison",
        "surfaceM2": 75,
        "isVefa": false
      },
      {
        "date": "2021-12-21",
        "priceEur": 337250,
        "typeLocal": "Maison",
        "surfaceM2": 75,
        "isVefa": false
      }
    ]
  },
  "ea64ebc914f1": {
    "id": "ea64ebc914f1",
    "label": "2 LOT LA RIVIERE, Tourbes",
    "lat": 43.448327,
    "lng": 3.376717,
    "transactions": [
      {
        "date": "2021-12-29",
        "priceEur": 290000,
        "typeLocal": "Maison",
        "surfaceM2": 104,
        "isVefa": false
      },
      {
        "date": "2021-12-29",
        "priceEur": 290000,
        "typeLocal": "Maison",
        "surfaceM2": 104,
        "isVefa": false
      }
    ]
  },
  "8c890a409be2": {
    "id": "8c890a409be2",
    "label": "6 RUE SAINT CHRISTOPHE, Tourbes",
    "lat": 43.446935,
    "lng": 3.377744,
    "transactions": [
      {
        "date": "2022-01-11",
        "priceEur": 94000,
        "typeLocal": "Maison",
        "surfaceM2": 87,
        "isVefa": false
      }
    ]
  },
  "ee89101d2a52": {
    "id": "ee89101d2a52",
    "label": "7 RUE DE LA CHAPELLE, Tourbes",
    "lat": 43.446161,
    "lng": 3.378244,
    "transactions": [
      {
        "date": "2022-02-11",
        "priceEur": 105000,
        "typeLocal": "Maison",
        "surfaceM2": 79,
        "isVefa": false
      }
    ]
  },
  "9934d749341f": {
    "id": "9934d749341f",
    "label": "7 RUE DU CHATEAU, Tourbes",
    "lat": 43.446688,
    "lng": 3.37786,
    "transactions": [
      {
        "date": "2023-03-06",
        "priceEur": 142000,
        "typeLocal": "Maison",
        "surfaceM2": 51,
        "isVefa": false
      },
      {
        "date": "2022-03-07",
        "priceEur": 130150,
        "typeLocal": "Maison",
        "surfaceM2": 51,
        "isVefa": false
      }
    ]
  },
  "d973fffb0091": {
    "id": "d973fffb0091",
    "label": "3 RUE DES ECOLES, Tourbes",
    "lat": 43.446609,
    "lng": 3.378789,
    "transactions": [
      {
        "date": "2023-08-29",
        "priceEur": 168400,
        "typeLocal": "Maison",
        "surfaceM2": 70,
        "isVefa": false
      },
      {
        "date": "2022-03-09",
        "priceEur": 109000,
        "typeLocal": "Maison",
        "surfaceM2": 70,
        "isVefa": false
      }
    ]
  },
  "17574411418b": {
    "id": "17574411418b",
    "label": "4 CHE DE LA TERRE FINE, Tourbes",
    "lat": 43.449582,
    "lng": 3.378955,
    "transactions": [
      {
        "date": "2022-03-28",
        "priceEur": 145000,
        "typeLocal": "Maison",
        "surfaceM2": 40,
        "isVefa": false
      }
    ]
  },
  "287b583c8437": {
    "id": "287b583c8437",
    "label": "9 RUE DU FER A CHEVAL, Tourbes",
    "lat": 43.446449,
    "lng": 3.378179,
    "transactions": [
      {
        "date": "2022-03-31",
        "priceEur": 60000,
        "typeLocal": "Maison",
        "surfaceM2": 65,
        "isVefa": false
      }
    ]
  },
  "fe1a25d3c929": {
    "id": "fe1a25d3c929",
    "label": "5 RUE DES ECOLES, Tourbes",
    "lat": 43.44666,
    "lng": 3.378901,
    "transactions": [
      {
        "date": "2022-03-23",
        "priceEur": 228800,
        "typeLocal": "Maison",
        "surfaceM2": 117,
        "isVefa": false
      }
    ]
  },
  "7ac50f42c899": {
    "id": "7ac50f42c899",
    "label": "8B RUE TOUR DES CAVES, Tourbes",
    "lat": 43.446648,
    "lng": 3.378988,
    "transactions": [
      {
        "date": "2022-04-08",
        "priceEur": 162500,
        "typeLocal": "Maison",
        "surfaceM2": 42,
        "isVefa": false
      }
    ]
  },
  "1435965f3dad": {
    "id": "1435965f3dad",
    "label": "6 IMP DE LA FORGE, Tourbes",
    "lat": 43.445136,
    "lng": 3.379861,
    "transactions": [
      {
        "date": "2022-05-11",
        "priceEur": 153002.5,
        "typeLocal": "Maison",
        "surfaceM2": 90,
        "isVefa": false
      }
    ]
  },
  "60b709bdb2e3": {
    "id": "60b709bdb2e3",
    "label": "1 CHE DE LA CHAPELLE, Tourbes",
    "lat": 43.446804,
    "lng": 3.375545,
    "transactions": [
      {
        "date": "2022-05-18",
        "priceEur": 135000,
        "typeLocal": "Maison",
        "surfaceM2": 80,
        "isVefa": false
      }
    ]
  },
  "85839879a99e": {
    "id": "85839879a99e",
    "label": "11 RTE DE CAUX, Tourbes",
    "lat": 43.448722,
    "lng": 3.37827,
    "transactions": [
      {
        "date": "2022-05-23",
        "priceEur": 435800,
        "typeLocal": "Maison",
        "surfaceM2": 124,
        "isVefa": false
      }
    ]
  },
  "8cc641e89ba6": {
    "id": "8cc641e89ba6",
    "label": "4 IMP DES PINS, Tourbes",
    "lat": 43.447699,
    "lng": 3.383066,
    "transactions": [
      {
        "date": "2022-05-24",
        "priceEur": 718517,
        "typeLocal": "Maison",
        "surfaceM2": 191,
        "isVefa": false
      },
      {
        "date": "2022-05-24",
        "priceEur": 718517,
        "typeLocal": "Maison",
        "surfaceM2": 191,
        "isVefa": false
      }
    ]
  },
  "e154c33c5844": {
    "id": "e154c33c5844",
    "label": "8 IMP LACAN, Tourbes",
    "lat": 43.447153,
    "lng": 3.377901,
    "transactions": [
      {
        "date": "2022-06-07",
        "priceEur": 71000,
        "typeLocal": "Maison",
        "surfaceM2": 50,
        "isVefa": false
      }
    ]
  },
  "2f7a6978de71": {
    "id": "2f7a6978de71",
    "label": "8 AV DE BEZIERS, Tourbes",
    "lat": 43.445017,
    "lng": 3.379338,
    "transactions": [
      {
        "date": "2022-06-07",
        "priceEur": 125000,
        "typeLocal": "Maison",
        "surfaceM2": 81,
        "isVefa": false
      }
    ]
  },
  "b1e44b6dad2d": {
    "id": "b1e44b6dad2d",
    "label": "31 GR GRANDE RUE, Tourbes",
    "lat": 43.446691,
    "lng": 3.378529,
    "transactions": [
      {
        "date": "2022-06-20",
        "priceEur": 85930,
        "typeLocal": "Maison",
        "surfaceM2": 44,
        "isVefa": false
      }
    ]
  },
  "818be8a4a46b": {
    "id": "818be8a4a46b",
    "label": "5649F RUE DU DONJON, Tourbes",
    "lat": 43.44633,
    "lng": 3.37907,
    "transactions": [
      {
        "date": "2022-08-03",
        "priceEur": 82500,
        "typeLocal": "Maison",
        "surfaceM2": 60,
        "isVefa": false
      }
    ]
  },
  "303ee3b628b1": {
    "id": "303ee3b628b1",
    "label": "29 GR GRANDE RUE, Tourbes",
    "lat": 43.446811,
    "lng": 3.378652,
    "transactions": [
      {
        "date": "2022-07-28",
        "priceEur": 206000,
        "typeLocal": "Maison",
        "surfaceM2": 100,
        "isVefa": false
      },
      {
        "date": "2022-07-28",
        "priceEur": 206000,
        "typeLocal": "Appartement",
        "surfaceM2": 25,
        "isVefa": false
      }
    ]
  },
  "48c62e6f746f": {
    "id": "48c62e6f746f",
    "label": "9 RUE DU CHATEAU, Tourbes",
    "lat": 43.446659,
    "lng": 3.377808,
    "transactions": [
      {
        "date": "2022-07-21",
        "priceEur": 120000,
        "typeLocal": "Maison",
        "surfaceM2": 95,
        "isVefa": false
      }
    ]
  },
  "15afdb785273": {
    "id": "15afdb785273",
    "label": "1 IMP DU CHATEAU, Tourbes",
    "lat": 43.446942,
    "lng": 3.377509,
    "transactions": [
      {
        "date": "2022-08-05",
        "priceEur": 111350,
        "typeLocal": "Maison",
        "surfaceM2": 77,
        "isVefa": false
      }
    ]
  },
  "91d6b5fb54e8": {
    "id": "91d6b5fb54e8",
    "label": "8 RTE DE SAINT ROCH, Tourbes",
    "lat": 43.446658,
    "lng": 3.377011,
    "transactions": [
      {
        "date": "2022-08-25",
        "priceEur": 468200,
        "typeLocal": "Maison",
        "surfaceM2": 142,
        "isVefa": false
      },
      {
        "date": "2022-08-25",
        "priceEur": 468200,
        "typeLocal": "Maison",
        "surfaceM2": 142,
        "isVefa": false
      }
    ]
  },
  "1289e2a3f539": {
    "id": "1289e2a3f539",
    "label": "18 RTE DE CAUX, Tourbes",
    "lat": 43.448931,
    "lng": 3.377673,
    "transactions": [
      {
        "date": "2022-10-18",
        "priceEur": 200000,
        "typeLocal": "Maison",
        "surfaceM2": 85,
        "isVefa": false
      }
    ]
  },
  "e51e9ece8d2f": {
    "id": "e51e9ece8d2f",
    "label": "9 RUE TOUR DES CAVES, Tourbes",
    "lat": 43.446887,
    "lng": 3.379115,
    "transactions": [
      {
        "date": "2022-10-07",
        "priceEur": 299000,
        "typeLocal": "Appartement",
        "surfaceM2": 67,
        "isVefa": false
      },
      {
        "date": "2022-10-07",
        "priceEur": 299000,
        "typeLocal": "Appartement",
        "surfaceM2": 67,
        "isVefa": false
      }
    ]
  },
  "86855106ac41": {
    "id": "86855106ac41",
    "label": "43 GR GRANDE RUE, Tourbes",
    "lat": 43.446891,
    "lng": 3.378361,
    "transactions": [
      {
        "date": "2022-10-05",
        "priceEur": 70000,
        "typeLocal": "Maison",
        "surfaceM2": 67,
        "isVefa": false
      }
    ]
  },
  "c4b30a536f58": {
    "id": "c4b30a536f58",
    "label": "3 LOT LA RIVIERE, Tourbes",
    "lat": 43.447835,
    "lng": 3.376731,
    "transactions": [
      {
        "date": "2022-11-29",
        "priceEur": 410670,
        "typeLocal": "Maison",
        "surfaceM2": 132,
        "isVefa": false
      },
      {
        "date": "2022-11-29",
        "priceEur": 410670,
        "typeLocal": "Maison",
        "surfaceM2": 132,
        "isVefa": false
      }
    ]
  },
  "4fd3b94b0419": {
    "id": "4fd3b94b0419",
    "label": "9 RUE DES MIMOSAS, Tourbes",
    "lat": 43.447369,
    "lng": 3.382803,
    "transactions": [
      {
        "date": "2023-03-24",
        "priceEur": 715400,
        "typeLocal": "Maison",
        "surfaceM2": 187,
        "isVefa": false
      },
      {
        "date": "2023-03-24",
        "priceEur": 715400,
        "typeLocal": "Maison",
        "surfaceM2": 187,
        "isVefa": false
      }
    ]
  },
  "a844c8f0fe2e": {
    "id": "a844c8f0fe2e",
    "label": "3 RUE DU CHATEAU, Tourbes",
    "lat": 43.446761,
    "lng": 3.377947,
    "transactions": [
      {
        "date": "2023-04-03",
        "priceEur": 227500,
        "typeLocal": "Maison",
        "surfaceM2": 21,
        "isVefa": false
      }
    ]
  },
  "cc864d022811": {
    "id": "cc864d022811",
    "label": "1 RUE DU CHATEAU, Tourbes",
    "lat": 43.446767,
    "lng": 3.378028,
    "transactions": [
      {
        "date": "2023-04-03",
        "priceEur": 227500,
        "typeLocal": "Maison",
        "surfaceM2": 36,
        "isVefa": false
      }
    ]
  },
  "8c5be0cc6585": {
    "id": "8c5be0cc6585",
    "label": "7 CHE DE LA CHAPELLE, Tourbes",
    "lat": 43.446769,
    "lng": 3.37454,
    "transactions": [
      {
        "date": "2023-06-05",
        "priceEur": 300000,
        "typeLocal": "Maison",
        "surfaceM2": 98,
        "isVefa": false
      },
      {
        "date": "2023-06-05",
        "priceEur": 300000,
        "typeLocal": "Maison",
        "surfaceM2": 98,
        "isVefa": false
      }
    ]
  },
  "1c42789dfb7b": {
    "id": "1c42789dfb7b",
    "label": "2 IMP LACAN, Tourbes",
    "lat": 43.446984,
    "lng": 3.377815,
    "transactions": [
      {
        "date": "2023-06-20",
        "priceEur": 41100,
        "typeLocal": "Maison",
        "surfaceM2": 40,
        "isVefa": false
      }
    ]
  },
  "755b0bde48bb": {
    "id": "755b0bde48bb",
    "label": "4 CHE DE SAINT MARTIAL, Tourbes",
    "lat": 43.447306,
    "lng": 3.374742,
    "transactions": [
      {
        "date": "2023-06-09",
        "priceEur": 409170,
        "typeLocal": "Maison",
        "surfaceM2": 137,
        "isVefa": false
      },
      {
        "date": "2023-06-09",
        "priceEur": 409170,
        "typeLocal": "Maison",
        "surfaceM2": 137,
        "isVefa": false
      }
    ]
  },
  "abb14e791b77": {
    "id": "abb14e791b77",
    "label": "10 RUE SAINT CHRISTOPHE, Tourbes",
    "lat": 43.44712,
    "lng": 3.377501,
    "transactions": [
      {
        "date": "2023-06-21",
        "priceEur": 220000,
        "typeLocal": "Maison",
        "surfaceM2": 109,
        "isVefa": false
      }
    ]
  },
  "6de703909d25": {
    "id": "6de703909d25",
    "label": "2 RUE VENEL, Tourbes",
    "lat": 43.445933,
    "lng": 3.379,
    "transactions": [
      {
        "date": "2023-07-25",
        "priceEur": 193000,
        "typeLocal": "Maison",
        "surfaceM2": 149,
        "isVefa": false
      }
    ]
  },
  "0a78e2cb17a3": {
    "id": "0a78e2cb17a3",
    "label": "23 GR GRANDE RUE, Tourbes",
    "lat": 43.446559,
    "lng": 3.378723,
    "transactions": [
      {
        "date": "2023-08-17",
        "priceEur": 147700,
        "typeLocal": "Maison",
        "surfaceM2": 84,
        "isVefa": false
      }
    ]
  },
  "5c13b347fd0d": {
    "id": "5c13b347fd0d",
    "label": "9 GR GRANDE RUE, Tourbes",
    "lat": 43.446155,
    "lng": 3.379103,
    "transactions": [
      {
        "date": "2023-08-26",
        "priceEur": 129000,
        "typeLocal": "Maison",
        "surfaceM2": 62,
        "isVefa": false
      }
    ]
  },
  "a91b25d1363e": {
    "id": "a91b25d1363e",
    "label": "14 RUE VENEL, Tourbes",
    "lat": 43.445783,
    "lng": 3.378477,
    "transactions": [
      {
        "date": "2023-08-22",
        "priceEur": 60000,
        "typeLocal": "Maison",
        "surfaceM2": 40,
        "isVefa": false
      }
    ]
  },
  "31a18b59608f": {
    "id": "31a18b59608f",
    "label": "3 IMP LAUTREC, Tourbes",
    "lat": 43.446747,
    "lng": 3.378514,
    "transactions": [
      {
        "date": "2023-11-15",
        "priceEur": 63500,
        "typeLocal": "Maison",
        "surfaceM2": 36,
        "isVefa": false
      }
    ]
  },
  "3479a1f382aa": {
    "id": "3479a1f382aa",
    "label": "3B LOT LA CIGALIERE, Tourbes",
    "lat": 43.449167,
    "lng": 3.375466,
    "transactions": [
      {
        "date": "2023-11-20",
        "priceEur": 605600,
        "typeLocal": "Maison",
        "surfaceM2": 165,
        "isVefa": false
      },
      {
        "date": "2023-11-20",
        "priceEur": 605600,
        "typeLocal": "Maison",
        "surfaceM2": 165,
        "isVefa": false
      }
    ]
  },
  "d82c3d3eb342": {
    "id": "d82c3d3eb342",
    "label": "12 RUE DU FER A CHEVAL, Tourbes",
    "lat": 43.4464,
    "lng": 3.37799,
    "transactions": [
      {
        "date": "2024-02-20",
        "priceEur": 70000,
        "typeLocal": "Maison",
        "surfaceM2": 50,
        "isVefa": false
      }
    ]
  },
  "b723cf264448": {
    "id": "b723cf264448",
    "label": "5449 CHE DE SAINT MARTIAL, Tourbes",
    "lat": 43.447128,
    "lng": 3.375284,
    "transactions": [
      {
        "date": "2024-03-07",
        "priceEur": 578000,
        "typeLocal": "Maison",
        "surfaceM2": 345,
        "isVefa": false
      },
      {
        "date": "2024-03-07",
        "priceEur": 578000,
        "typeLocal": "Maison",
        "surfaceM2": 345,
        "isVefa": false
      }
    ]
  },
  "ce727089941f": {
    "id": "ce727089941f",
    "label": "4 RUE SAINT CHRISTOPHE, Tourbes",
    "lat": 43.446881,
    "lng": 3.377846,
    "transactions": [
      {
        "date": "2024-03-07",
        "priceEur": 84900,
        "typeLocal": "Maison",
        "surfaceM2": 50,
        "isVefa": false
      }
    ]
  },
  "0af1c3202292": {
    "id": "0af1c3202292",
    "label": "3 PL DE LA CHAPELLE, Tourbes",
    "lat": 43.446044,
    "lng": 3.378348,
    "transactions": [
      {
        "date": "2024-03-08",
        "priceEur": 70340,
        "typeLocal": "Maison",
        "surfaceM2": 44,
        "isVefa": false
      }
    ]
  },
  "d18b6597c650": {
    "id": "d18b6597c650",
    "label": "4T CHE DE LA RIVIERE, Tourbes",
    "lat": 43.4486,
    "lng": 3.374771,
    "transactions": [
      {
        "date": "2024-03-08",
        "priceEur": 370000,
        "typeLocal": "Maison",
        "surfaceM2": 126,
        "isVefa": false
      },
      {
        "date": "2024-03-08",
        "priceEur": 370000,
        "typeLocal": "Appartement",
        "surfaceM2": 40,
        "isVefa": false
      }
    ]
  },
  "9f51dce2f08a": {
    "id": "9f51dce2f08a",
    "label": "1 IMP DU REMPART, Tourbes",
    "lat": 43.447015,
    "lng": 3.377518,
    "transactions": [
      {
        "date": "2024-04-25",
        "priceEur": 50150,
        "typeLocal": "Maison",
        "surfaceM2": 75,
        "isVefa": false
      }
    ]
  },
  "807f9a463032": {
    "id": "807f9a463032",
    "label": "2 PL DU JEU DE BALLON, Tourbes",
    "lat": 43.447036,
    "lng": 3.378332,
    "transactions": [
      {
        "date": "2024-07-03",
        "priceEur": 143170,
        "typeLocal": "Appartement",
        "surfaceM2": 26,
        "isVefa": false
      },
      {
        "date": "2024-07-03",
        "priceEur": 143170,
        "typeLocal": "Maison",
        "surfaceM2": 52,
        "isVefa": false
      }
    ]
  },
  "8208af1f0ed8": {
    "id": "8208af1f0ed8",
    "label": "6 RUE DE LA BRECHE, Tourbes",
    "lat": 43.445644,
    "lng": 3.378818,
    "transactions": [
      {
        "date": "2024-06-28",
        "priceEur": 84000,
        "typeLocal": "Maison",
        "surfaceM2": 58,
        "isVefa": false
      }
    ]
  },
  "9b4b3ea91b94": {
    "id": "9b4b3ea91b94",
    "label": "7A RUE DE LA BRECHE, Tourbes",
    "lat": 43.445586,
    "lng": 3.37874,
    "transactions": [
      {
        "date": "2024-07-17",
        "priceEur": 185750,
        "typeLocal": "Maison",
        "surfaceM2": 71,
        "isVefa": false
      }
    ]
  },
  "d02f94ca84d6": {
    "id": "d02f94ca84d6",
    "label": "3 LOT LE CLOS DU VERDIER, Tourbes",
    "lat": 43.447186,
    "lng": 3.380207,
    "transactions": [
      {
        "date": "2024-07-24",
        "priceEur": 206000,
        "typeLocal": "Maison",
        "surfaceM2": 73,
        "isVefa": false
      }
    ]
  },
  "4847163bb362": {
    "id": "4847163bb362",
    "label": "1 IMP DES IRIS, Tourbes",
    "lat": 43.446384,
    "lng": 3.377167,
    "transactions": [
      {
        "date": "2024-08-06",
        "priceEur": 385000,
        "typeLocal": "Maison",
        "surfaceM2": 123,
        "isVefa": false
      },
      {
        "date": "2024-08-06",
        "priceEur": 385000,
        "typeLocal": "Maison",
        "surfaceM2": 123,
        "isVefa": false
      }
    ]
  },
  "35e03beb486d": {
    "id": "35e03beb486d",
    "label": "6 RUE DES ECOLES, Tourbes",
    "lat": 43.446684,
    "lng": 3.378736,
    "transactions": [
      {
        "date": "2024-09-03",
        "priceEur": 90000,
        "typeLocal": "Maison",
        "surfaceM2": 21,
        "isVefa": false
      }
    ]
  },
  "27f1ff183022": {
    "id": "27f1ff183022",
    "label": "26 RUE TOUR DES CAVES, Tourbes",
    "lat": 43.446968,
    "lng": 3.377385,
    "transactions": [
      {
        "date": "2024-09-24",
        "priceEur": 88500,
        "typeLocal": "Maison",
        "surfaceM2": 77,
        "isVefa": false
      }
    ]
  },
  "e534e60a935a": {
    "id": "e534e60a935a",
    "label": "15 CITE DE LA TOUR, Tourbes",
    "lat": 43.445562,
    "lng": 3.376502,
    "transactions": [
      {
        "date": "2024-10-03",
        "priceEur": 199000,
        "typeLocal": "Maison",
        "surfaceM2": 83,
        "isVefa": false
      }
    ]
  },
  "c0bc56775cf0": {
    "id": "c0bc56775cf0",
    "label": "4B RUE TOUR DES CAVES, Tourbes",
    "lat": 43.446347,
    "lng": 3.37917,
    "transactions": [
      {
        "date": "2024-10-04",
        "priceEur": 130000,
        "typeLocal": "Maison",
        "surfaceM2": 100,
        "isVefa": false
      }
    ]
  },
  "bdce1be3e1d0": {
    "id": "bdce1be3e1d0",
    "label": "1 IMP LAUTREC, Tourbes",
    "lat": 43.446761,
    "lng": 3.378458,
    "transactions": [
      {
        "date": "2024-10-02",
        "priceEur": 110000,
        "typeLocal": "Maison",
        "surfaceM2": 72,
        "isVefa": false
      }
    ]
  },
  "85431a14afd7": {
    "id": "85431a14afd7",
    "label": "5 CHE DE LA TERRE FINE, Tourbes",
    "lat": 43.448534,
    "lng": 3.378881,
    "transactions": [
      {
        "date": "2025-05-13",
        "priceEur": 512000,
        "typeLocal": "Maison",
        "surfaceM2": 169,
        "isVefa": false
      },
      {
        "date": "2025-05-13",
        "priceEur": 512000,
        "typeLocal": "Maison",
        "surfaceM2": 169,
        "isVefa": false
      },
      {
        "date": "2024-11-05",
        "priceEur": 537000,
        "typeLocal": "Maison",
        "surfaceM2": 169,
        "isVefa": false
      },
      {
        "date": "2024-11-05",
        "priceEur": 537000,
        "typeLocal": "Maison",
        "surfaceM2": 169,
        "isVefa": false
      }
    ]
  },
  "a11be44811ba": {
    "id": "a11be44811ba",
    "label": "6 RTE DE SAINT ROCH, Tourbes",
    "lat": 43.44716,
    "lng": 3.376363,
    "transactions": [
      {
        "date": "2025-01-24",
        "priceEur": 352250,
        "typeLocal": "Maison",
        "surfaceM2": 113,
        "isVefa": false
      },
      {
        "date": "2025-01-24",
        "priceEur": 352250,
        "typeLocal": "Maison",
        "surfaceM2": 113,
        "isVefa": false
      }
    ]
  },
  "6d2bd1101669": {
    "id": "6d2bd1101669",
    "label": "1 RUE DU FER A CHEVAL, Tourbes",
    "lat": 43.446337,
    "lng": 3.378316,
    "transactions": [
      {
        "date": "2025-03-31",
        "priceEur": 90000,
        "typeLocal": "Maison",
        "surfaceM2": 120,
        "isVefa": false
      }
    ]
  },
  "f24f2429b64b": {
    "id": "f24f2429b64b",
    "label": "36 RUE TOUR DES CAVES, Tourbes",
    "lat": 43.446617,
    "lng": 3.37762,
    "transactions": [
      {
        "date": "2025-03-25",
        "priceEur": 75000,
        "typeLocal": "Maison",
        "surfaceM2": 106,
        "isVefa": false
      }
    ]
  },
  "166397eff70a": {
    "id": "166397eff70a",
    "label": "6 RUE DU CHATEAU, Tourbes",
    "lat": 43.446642,
    "lng": 3.378053,
    "transactions": [
      {
        "date": "2025-04-25",
        "priceEur": 87000,
        "typeLocal": "Maison",
        "surfaceM2": 80,
        "isVefa": false
      }
    ]
  },
  "5393d5f8b50b": {
    "id": "5393d5f8b50b",
    "label": "38 RUE TOUR DES CAVES, Tourbes",
    "lat": 43.446537,
    "lng": 3.377668,
    "transactions": [
      {
        "date": "2025-05-05",
        "priceEur": 162000,
        "typeLocal": "Maison",
        "surfaceM2": 50,
        "isVefa": false
      }
    ]
  },
  "7561b8d84ff4": {
    "id": "7561b8d84ff4",
    "label": "19 GR GRANDE RUE, Tourbes",
    "lat": 43.446534,
    "lng": 3.378874,
    "transactions": [
      {
        "date": "2025-05-23",
        "priceEur": 107000,
        "typeLocal": "Maison",
        "surfaceM2": 50,
        "isVefa": false
      }
    ]
  }
}