{
  "98e7c124ae60": {
    "id": "98e7c124ae60",
    "label": "10 RUE DE LA BRECHE, Laroque",
    "lat": 43.92279,
    "lng": 3.723958,
    "transactions": [
      {
        "date": "2020-08-21",
        "priceEur": 95000,
        "typeLocal": "Appartement",
        "surfaceM2": 54,
        "isVefa": false
      },
      {
        "date": "2020-08-21",
        "priceEur": 95000,
        "typeLocal": "Appartement",
        "surfaceM2": 45,
        "isVefa": false
      }
    ]
  },
  "1bb0c9ff1ff7": {
    "id": "1bb0c9ff1ff7",
    "label": "240 RUE DU MAZET, Laroque",
    "lat": 43.926272,
    "lng": 3.721763,
    "transactions": [
      {
        "date": "2020-09-10",
        "priceEur": 89000,
        "typeLocal": "Maison",
        "surfaceM2": 68,
        "isVefa": false
      }
    ]
  },
  "5825751a5ed7": {
    "id": "5825751a5ed7",
    "label": "6 RUE DU COULET ST JEAN, Laroque",
    "lat": 43.922644,
    "lng": 3.723847,
    "transactions": [
      {
        "date": "2020-11-20",
        "priceEur": 83000,
        "typeLocal": "Maison",
        "surfaceM2": 48,
        "isVefa": false
      }
    ]
  },
  "de7682e8c2b9": {
    "id": "de7682e8c2b9",
    "label": "255 AV DE L'EUROPE, Laroque",
    "lat": 43.92573,
    "lng": 3.718328,
    "transactions": [
      {
        "date": "2020-11-27",
        "priceEur": 280000,
        "typeLocal": "Maison",
        "surfaceM2": 90,
        "isVefa": false
      }
    ]
  },
  "b99f25c8262d": {
    "id": "b99f25c8262d",
    "label": "6 LOT LES SOLEIADES, Laroque",
    "lat": 43.927835,
    "lng": 3.721245,
    "transactions": [
      {
        "date": "2020-12-18",
        "priceEur": 240900,
        "typeLocal": "Maison",
        "surfaceM2": 103,
        "isVefa": false
      }
    ]
  },
  "cca5779dd8c7": {
    "id": "cca5779dd8c7",
    "label": "6047 RUE DES ECOLES, Laroque",
    "lat": 43.924549,
    "lng": 3.720893,
    "transactions": [
      {
        "date": "2020-12-29",
        "priceEur": 200000,
        "typeLocal": "Maison",
        "surfaceM2": 157,
        "isVefa": false
      }
    ]
  },
  "057a8260e52c": {
    "id": "057a8260e52c",
    "label": "13 LOT AUBANEL, Laroque",
    "lat": 43.928725,
    "lng": 3.716958,
    "transactions": [
      {
        "date": "2021-02-17",
        "priceEur": 170000,
        "typeLocal": "Maison",
        "surfaceM2": 89,
        "isVefa": false
      }
    ]
  },
  "56eca3697885": {
    "id": "56eca3697885",
    "label": "5830 LE VIGNE, Laroque",
    "lat": 43.926608,
    "lng": 3.718933,
    "transactions": [
      {
        "date": "2021-06-16",
        "priceEur": 355000,
        "typeLocal": "Maison",
        "surfaceM2": 101,
        "isVefa": false
      },
      {
        "date": "2021-06-16",
        "priceEur": 355000,
        "typeLocal": "Maison",
        "surfaceM2": 101,
        "isVefa": false
      }
    ]
  },
  "e551192b2c91": {
    "id": "e551192b2c91",
    "label": "4 PL DE L EGLISE, Laroque",
    "lat": 43.922413,
    "lng": 3.723445,
    "transactions": [
      {
        "date": "2022-07-22",
        "priceEur": 122890,
        "typeLocal": "Appartement",
        "surfaceM2": 80,
        "isVefa": false
      },
      {
        "date": "2021-12-06",
        "priceEur": 94000,
        "typeLocal": "Appartement",
        "surfaceM2": 80,
        "isVefa": false
      },
      {
        "date": "2021-08-16",
        "priceEur": 47000,
        "typeLocal": "Appartement",
        "surfaceM2": 34,
        "isVefa": false
      },
      {
        "date": "2021-06-28",
        "priceEur": 60000,
        "typeLocal": "Appartement",
        "surfaceM2": 50,
        "isVefa": false
      }
    ]
  },
  "55b69aa48541": {
    "id": "55b69aa48541",
    "label": "347 CHE DES VIGNES, Laroque",
    "lat": 43.927933,
    "lng": 3.722864,
    "transactions": [
      {
        "date": "2022-02-02",
        "priceEur": 208000,
        "typeLocal": "Maison",
        "surfaceM2": 95,
        "isVefa": false
      },
      {
        "date": "2021-09-10",
        "priceEur": 243800,
        "typeLocal": "Maison",
        "surfaceM2": 95,
        "isVefa": false
      }
    ]
  },
  "b8a56d0df48e": {
    "id": "b8a56d0df48e",
    "label": "990 AV DES GARRIGUES, Laroque",
    "lat": 43.928623,
    "lng": 3.723469,
    "transactions": [
      {
        "date": "2021-06-18",
        "priceEur": 200,
        "typeLocal": "Maison",
        "surfaceM2": 182,
        "isVefa": false
      }
    ]
  },
  "c3620b239ff8": {
    "id": "c3620b239ff8",
    "label": "1 CHE DES VIGNES, Laroque",
    "lat": 43.924847,
    "lng": 3.723608,
    "transactions": [
      {
        "date": "2021-09-24",
        "priceEur": 15000,
        "typeLocal": "Maison",
        "surfaceM2": 29,
        "isVefa": false
      }
    ]
  },
  "8f309ea02037": {
    "id": "8f309ea02037",
    "label": "1 RUE DES BARRYS, Laroque",
    "lat": 43.922992,
    "lng": 3.723252,
    "transactions": [
      {
        "date": "2021-09-30",
        "priceEur": 314800,
        "typeLocal": "Maison",
        "surfaceM2": 87,
        "isVefa": false
      }
    ]
  },
  "a6634cb8899c": {
    "id": "a6634cb8899c",
    "label": "6 LOT LES IRIS, Laroque",
    "lat": 43.929101,
    "lng": 3.719585,
    "transactions": [
      {
        "date": "2021-11-05",
        "priceEur": 355000,
        "typeLocal": "Maison",
        "surfaceM2": 174,
        "isVefa": false
      }
    ]
  },
  "bceeb76ec9c7": {
    "id": "bceeb76ec9c7",
    "label": "156 AV DE L'EUROPE, Laroque",
    "lat": 43.925256,
    "lng": 3.719389,
    "transactions": [
      {
        "date": "2021-11-17",
        "priceEur": 248000,
        "typeLocal": "Maison",
        "surfaceM2": 86,
        "isVefa": false
      }
    ]
  },
  "2ad31ee41b73": {
    "id": "2ad31ee41b73",
    "label": "7 LOT LES SOLEIADES, Laroque",
    "lat": 43.927912,
    "lng": 3.721128,
    "transactions": [
      {
        "date": "2021-11-23",
        "priceEur": 211870,
        "typeLocal": "Maison",
        "surfaceM2": 84,
        "isVefa": false
      }
    ]
  },
  "65acbd9ba998": {
    "id": "65acbd9ba998",
    "label": "1 LOT LE THAURAC, Laroque",
    "lat": 43.928586,
    "lng": 3.718272,
    "transactions": [
      {
        "date": "2022-02-01",
        "priceEur": 240000,
        "typeLocal": "Maison",
        "surfaceM2": 91,
        "isVefa": false
      }
    ]
  },
  "53bcc3720cfe": {
    "id": "53bcc3720cfe",
    "label": "37 LOT AUBANEL, Laroque",
    "lat": 43.927499,
    "lng": 3.71646,
    "transactions": [
      {
        "date": "2022-01-24",
        "priceEur": 207800,
        "typeLocal": "Maison",
        "surfaceM2": 77,
        "isVefa": false
      }
    ]
  },
  "505687689225": {
    "id": "505687689225",
    "label": "6026 LOT LOU PLANAS, Laroque",
    "lat": 43.926668,
    "lng": 3.716945,
    "transactions": [
      {
        "date": "2022-02-23",
        "priceEur": 424000,
        "typeLocal": "Maison",
        "surfaceM2": 161,
        "isVefa": false
      }
    ]
  },
  "df045374c8fe": {
    "id": "df045374c8fe",
    "label": "1044 AV DES GARRIGUES, Laroque",
    "lat": 43.92925,
    "lng": 3.724204,
    "transactions": [
      {
        "date": "2022-03-08",
        "priceEur": 190000,
        "typeLocal": "Maison",
        "surfaceM2": 86,
        "isVefa": false
      },
      {
        "date": "2022-03-08",
        "priceEur": 190000,
        "typeLocal": "Maison",
        "surfaceM2": 86,
        "isVefa": false
      }
    ]
  },
  "47b3647661b1": {
    "id": "47b3647661b1",
    "label": "6 LOT METGE, Laroque",
    "lat": 43.926795,
    "lng": 3.716707,
    "transactions": [
      {
        "date": "2022-05-16",
        "priceEur": 189000,
        "typeLocal": "Maison",
        "surfaceM2": 95,
        "isVefa": false
      }
    ]
  },
  "84041102df29": {
    "id": "84041102df29",
    "label": "12 LOT LOU PLANAS, Laroque",
    "lat": 43.926622,
    "lng": 3.718206,
    "transactions": [
      {
        "date": "2023-10-17",
        "priceEur": 369260,
        "typeLocal": "Maison",
        "surfaceM2": 98,
        "isVefa": false
      },
      {
        "date": "2022-07-22",
        "priceEur": 260000,
        "typeLocal": "Maison",
        "surfaceM2": 98,
        "isVefa": false
      }
    ]
  },
  "5f379ed0d651": {
    "id": "5f379ed0d651",
    "label": "60 AV DE L'EUROPE, Laroque",
    "lat": 43.924784,
    "lng": 3.720378,
    "transactions": [
      {
        "date": "2022-08-12",
        "priceEur": 202500,
        "typeLocal": "Maison",
        "surfaceM2": 80,
        "isVefa": false
      }
    ]
  },
  "cc5cbe2e6a8b": {
    "id": "cc5cbe2e6a8b",
    "label": "6 RUE DE LA BRECHE, Laroque",
    "lat": 43.922688,
    "lng": 3.72375,
    "transactions": [
      {
        "date": "2022-08-23",
        "priceEur": 102000,
        "typeLocal": "Maison",
        "surfaceM2": 95,
        "isVefa": false
      }
    ]
  },
  "efc6fcd62ba3": {
    "id": "efc6fcd62ba3",
    "label": "758 AV DE L'EUROPE, Laroque",
    "lat": 43.928671,
    "lng": 3.714224,
    "transactions": [
      {
        "date": "2022-12-23",
        "priceEur": 136610,
        "typeLocal": "Appartement",
        "surfaceM2": 70,
        "isVefa": false
      }
    ]
  },
  "b6a69a22b35d": {
    "id": "b6a69a22b35d",
    "label": "1 LOT AUBANEL, Laroque",
    "lat": 43.928172,
    "lng": 3.715653,
    "transactions": [
      {
        "date": "2023-02-28",
        "priceEur": 334825,
        "typeLocal": "Maison",
        "surfaceM2": 104,
        "isVefa": false
      }
    ]
  },
  "985ebda23f4b": {
    "id": "985ebda23f4b",
    "label": "4 LOT LES IRIS, Laroque",
    "lat": 43.928902,
    "lng": 3.719823,
    "transactions": [
      {
        "date": "2023-04-05",
        "priceEur": 280000,
        "typeLocal": "Maison",
        "surfaceM2": 155,
        "isVefa": false
      }
    ]
  },
  "0ee8ae59b0bc": {
    "id": "0ee8ae59b0bc",
    "label": "540 RUE CARRIERE OBSCURE, Laroque",
    "lat": 43.929149,
    "lng": 3.720014,
    "transactions": [
      {
        "date": "2023-04-21",
        "priceEur": 150000,
        "typeLocal": "Maison",
        "surfaceM2": 120,
        "isVefa": false
      }
    ]
  },
  "a59190c16c9e": {
    "id": "a59190c16c9e",
    "label": "400 AV DES PLATANES, Laroque",
    "lat": 43.922094,
    "lng": 3.72421,
    "transactions": [
      {
        "date": "2023-08-31",
        "priceEur": 110000,
        "typeLocal": "Appartement",
        "surfaceM2": 43,
        "isVefa": false
      },
      {
        "date": "2023-08-31",
        "priceEur": 110000,
        "typeLocal": "Appartement",
        "surfaceM2": 42,
        "isVefa": false
      },
      {
        "date": "2023-05-15",
        "priceEur": 79000,
        "typeLocal": "Appartement",
        "surfaceM2": 47,
        "isVefa": false
      }
    ]
  },
  "2c6a705e7330": {
    "id": "2c6a705e7330",
    "label": "680 AV DE L'EUROPE, Laroque",
    "lat": 43.928065,
    "lng": 3.714567,
    "transactions": [
      {
        "date": "2023-04-28",
        "priceEur": 300000,
        "typeLocal": "Maison",
        "surfaceM2": 120,
        "isVefa": false
      }
    ]
  },
  "9f523dadba3e": {
    "id": "9f523dadba3e",
    "label": "12 RUE DU PONT D EMMA, Laroque",
    "lat": 43.923454,
    "lng": 3.724233,
    "transactions": [
      {
        "date": "2023-07-18",
        "priceEur": 130000,
        "typeLocal": "Maison",
        "surfaceM2": 79,
        "isVefa": false
      }
    ]
  },
  "1f1afd2630d3": {
    "id": "1f1afd2630d3",
    "label": "27 LOT AUBANEL, Laroque",
    "lat": 43.92865,
    "lng": 3.717563,
    "transactions": [
      {
        "date": "2023-08-24",
        "priceEur": 220000,
        "typeLocal": "Maison",
        "surfaceM2": 108,
        "isVefa": false
      }
    ]
  },
  "5bc78681807b": {
    "id": "5bc78681807b",
    "label": "3 LOT LES SOLEIADES, Laroque",
    "lat": 43.927313,
    "lng": 3.721281,
    "transactions": [
      {
        "date": "2023-09-13",
        "priceEur": 192000,
        "typeLocal": "Maison",
        "surfaceM2": 60,
        "isVefa": false
      }
    ]
  },
  "2a423288675e": {
    "id": "2a423288675e",
    "label": "23 LOT AUBANEL, Laroque",
    "lat": 43.92916,
    "lng": 3.717954,
    "transactions": [
      {
        "date": "2023-10-12",
        "priceEur": 258000,
        "typeLocal": "Maison",
        "surfaceM2": 83,
        "isVefa": false
      },
      {
        "date": "2023-10-12",
        "priceEur": 258000,
        "typeLocal": "Maison",
        "surfaceM2": 83,
        "isVefa": false
      }
    ]
  },
  "283915ee71ca": {
    "id": "283915ee71ca",
    "label": "3 RUE DES BARRYS, Laroque",
    "lat": 43.922983,
    "lng": 3.723325,
    "transactions": [
      {
        "date": "2023-11-03",
        "priceEur": 130000,
        "typeLocal": "Maison",
        "surfaceM2": 87,
        "isVefa": false
      }
    ]
  },
  "f278821f489c": {
    "id": "f278821f489c",
    "label": "5 RUE DU COULET ST JEAN, Laroque",
    "lat": 43.922595,
    "lng": 3.72394,
    "transactions": [
      {
        "date": "2023-12-27",
        "priceEur": 91324,
        "typeLocal": "Maison",
        "surfaceM2": 85,
        "isVefa": false
      }
    ]
  },
  "0ea59c0c7fd5": {
    "id": "0ea59c0c7fd5",
    "label": "185 AV DE L'EUROPE, Laroque",
    "lat": 43.925325,
    "lng": 3.718955,
    "transactions": [
      {
        "date": "2024-01-12",
        "priceEur": 132650,
        "typeLocal": "Maison",
        "surfaceM2": 68,
        "isVefa": false
      }
    ]
  },
  "3245723c071e": {
    "id": "3245723c071e",
    "label": "7 RUE DE LA MADELEINE, Laroque",
    "lat": 43.922194,
    "lng": 3.723747,
    "transactions": [
      {
        "date": "2024-05-13",
        "priceEur": 70000,
        "typeLocal": "Appartement",
        "surfaceM2": 1,
        "isVefa": false
      },
      {
        "date": "2024-05-13",
        "priceEur": 70000,
        "typeLocal": "Appartement",
        "surfaceM2": 89,
        "isVefa": false
      }
    ]
  },
  "0d33de6090a3": {
    "id": "0d33de6090a3",
    "label": "9 LOT AUBANEL, Laroque",
    "lat": 43.92865,
    "lng": 3.716377,
    "transactions": [
      {
        "date": "2024-07-04",
        "priceEur": 280000,
        "typeLocal": "Maison",
        "surfaceM2": 88,
        "isVefa": false
      }
    ]
  },
  "4bda2352fa0b": {
    "id": "4bda2352fa0b",
    "label": "7 RUE LA PLACE, Laroque",
    "lat": 43.922933,
    "lng": 3.723743,
    "transactions": [
      {
        "date": "2025-02-13",
        "priceEur": 98000,
        "typeLocal": "Appartement",
        "surfaceM2": 54,
        "isVefa": false
      },
      {
        "date": "2025-02-13",
        "priceEur": 98000,
        "typeLocal": "Appartement",
        "surfaceM2": 68,
        "isVefa": false
      },
      {
        "date": "2025-02-13",
        "priceEur": 98000,
        "typeLocal": "Appartement",
        "surfaceM2": 19,
        "isVefa": false
      }
    ]
  },
  "1fdc900c81e4": {
    "id": "1fdc900c81e4",
    "label": "5 LOT LE THAURAC, Laroque",
    "lat": 43.928892,
    "lng": 3.718619,
    "transactions": [
      {
        "date": "2025-03-25",
        "priceEur": 150000,
        "typeLocal": "Maison",
        "surfaceM2": 91,
        "isVefa": false
      }
    ]
  }
}