{
  "75bc99b208db": {
    "id": "75bc99b208db",
    "label": "21 RUE DES CENTAURES, Gigean",
    "lat": 43.502558,
    "lng": 3.720519,
    "transactions": [
      {
        "date": "2020-08-10",
        "priceEur": 331600,
        "typeLocal": "Maison",
        "surfaceM2": 124,
        "isVefa": false
      }
    ]
  },
  "5f228f1f2147": {
    "id": "5f228f1f2147",
    "label": "1 RUE DE L'ESTELOU, Gigean",
    "lat": 43.501905,
    "lng": 3.713979,
    "transactions": [
      {
        "date": "2024-06-06",
        "priceEur": 123915,
        "typeLocal": "Appartement",
        "surfaceM2": 38,
        "isVefa": false
      },
      {
        "date": "2023-11-30",
        "priceEur": 128000,
        "typeLocal": "Appartement",
        "surfaceM2": 38,
        "isVefa": false
      },
      {
        "date": "2023-11-08",
        "priceEur": 147000,
        "typeLocal": "Appartement",
        "surfaceM2": 45,
        "isVefa": false
      },
      {
        "date": "2023-06-22",
        "priceEur": 152000,
        "typeLocal": "Appartement",
        "surfaceM2": 45,
        "isVefa": false
      },
      {
        "date": "2023-06-20",
        "priceEur": 116320,
        "typeLocal": "Appartement",
        "surfaceM2": 45,
        "isVefa": false
      },
      {
        "date": "2023-04-05",
        "priceEur": 117000,
        "typeLocal": "Appartement",
        "surfaceM2": 36,
        "isVefa": false
      },
      {
        "date": "2023-02-03",
        "priceEur": 100000,
        "typeLocal": "Appartement",
        "surfaceM2": 32,
        "isVefa": false
      },
      {
        "date": "2022-11-29",
        "priceEur": 106500,
        "typeLocal": "Appartement",
        "surfaceM2": 39,
        "isVefa": false
      },
      {
        "date": "2022-08-09",
        "priceEur": 134500,
        "typeLocal": "Appartement",
        "surfaceM2": 39,
        "isVefa": false
      },
      {
        "date": "2022-06-10",
        "priceEur": 123300,
        "typeLocal": "Appartement",
        "surfaceM2": 45,
        "isVefa": false
      },
      {
        "date": "2022-02-01",
        "priceEur": 150000,
        "typeLocal": "Appartement",
        "surfaceM2": 45,
        "isVefa": false
      },
      {
        "date": "2021-04-26",
        "priceEur": 153200,
        "typeLocal": "Appartement",
        "surfaceM2": 55,
        "isVefa": false
      },
      {
        "date": "2020-11-26",
        "priceEur": 110000,
        "typeLocal": "Appartement",
        "surfaceM2": 39,
        "isVefa": false
      },
      {
        "date": "2020-10-27",
        "priceEur": 210300,
        "typeLocal": "Appartement",
        "surfaceM2": 69,
        "isVefa": false
      },
      {
        "date": "2020-08-18",
        "priceEur": 118000,
        "typeLocal": "Appartement",
        "surfaceM2": 45,
        "isVefa": false
      }
    ]
  },
  "b68f9ff31616": {
    "id": "b68f9ff31616",
    "label": "15 RUE CITE VERS L AVENIR, Gigean",
    "lat": 43.501421,
    "lng": 3.713891,
    "transactions": [
      {
        "date": "2020-08-24",
        "priceEur": 109000,
        "typeLocal": "Appartement",
        "surfaceM2": 62,
        "isVefa": false
      }
    ]
  },
  "6002fe9956d1": {
    "id": "6002fe9956d1",
    "label": "14 RUE DE L OCCITANIE, Gigean",
    "lat": 43.503584,
    "lng": 3.716018,
    "transactions": [
      {
        "date": "2020-09-09",
        "priceEur": 300000,
        "typeLocal": "Maison",
        "surfaceM2": 92,
        "isVefa": false
      }
    ]
  },
  "9a492dbe6591": {
    "id": "9a492dbe6591",
    "label": "20 RUE DES AMARANTES, Gigean",
    "lat": 43.502761,
    "lng": 3.719871,
    "transactions": [
      {
        "date": "2020-09-29",
        "priceEur": 321100,
        "typeLocal": "Maison",
        "surfaceM2": 104,
        "isVefa": false
      }
    ]
  },
  "e5b9237376dc": {
    "id": "e5b9237376dc",
    "label": "23 RUE DE LA FONT, Gigean",
    "lat": 43.501686,
    "lng": 3.718769,
    "transactions": [
      {
        "date": "2020-10-07",
        "priceEur": 443532.22,
        "typeLocal": "Maison",
        "surfaceM2": 182,
        "isVefa": false
      },
      {
        "date": "2020-10-07",
        "priceEur": 443532.22,
        "typeLocal": "Maison",
        "surfaceM2": 182,
        "isVefa": false
      }
    ]
  },
  "43920acc6bce": {
    "id": "43920acc6bce",
    "label": "10 RUE DE COURNONTERRAL, Gigean",
    "lat": 43.503282,
    "lng": 3.713571,
    "transactions": [
      {
        "date": "2020-10-22",
        "priceEur": 284300,
        "typeLocal": "Appartement",
        "surfaceM2": 105,
        "isVefa": false
      }
    ]
  },
  "c42254006ccd": {
    "id": "c42254006ccd",
    "label": "5 PL DES COUREJOLLES, Gigean",
    "lat": 43.502356,
    "lng": 3.716716,
    "transactions": [
      {
        "date": "2020-11-06",
        "priceEur": 271300,
        "typeLocal": "Maison",
        "surfaceM2": 80,
        "isVefa": false
      }
    ]
  },
  "b24d0cae9140": {
    "id": "b24d0cae9140",
    "label": "14 RUE DES CENTAURES, Gigean",
    "lat": 43.502407,
    "lng": 3.719302,
    "transactions": [
      {
        "date": "2020-12-21",
        "priceEur": 294000,
        "typeLocal": "Maison",
        "surfaceM2": 98,
        "isVefa": false
      }
    ]
  },
  "1a933164a8c9": {
    "id": "1a933164a8c9",
    "label": "31 RUE DU CROUZET, Gigean",
    "lat": 43.502234,
    "lng": 3.717754,
    "transactions": [
      {
        "date": "2020-12-22",
        "priceEur": 225560,
        "typeLocal": "Maison",
        "surfaceM2": 84,
        "isVefa": false
      }
    ]
  },
  "280b421cad16": {
    "id": "280b421cad16",
    "label": "4 RUE DE MIREVAL, Gigean",
    "lat": 43.501078,
    "lng": 3.716905,
    "transactions": [
      {
        "date": "2021-01-14",
        "priceEur": 381560,
        "typeLocal": "Maison",
        "surfaceM2": 110,
        "isVefa": false
      }
    ]
  },
  "e11313ebf7fc": {
    "id": "e11313ebf7fc",
    "label": "1 RUE LOU GREGAOU, Gigean",
    "lat": 43.50339,
    "lng": 3.720075,
    "transactions": [
      {
        "date": "2021-01-15",
        "priceEur": 319400,
        "typeLocal": "Maison",
        "surfaceM2": 106,
        "isVefa": false
      }
    ]
  },
  "a8d28ff98dc2": {
    "id": "a8d28ff98dc2",
    "label": "35 RUE DE LA LYRE, Gigean",
    "lat": 43.503173,
    "lng": 3.719702,
    "transactions": [
      {
        "date": "2021-01-22",
        "priceEur": 278900,
        "typeLocal": "Maison",
        "surfaceM2": 97,
        "isVefa": false
      }
    ]
  },
  "f6e553694f5f": {
    "id": "f6e553694f5f",
    "label": "3 RUE DE LA CAVE COOPERATIVE, Gigean",
    "lat": 43.502518,
    "lng": 3.714932,
    "transactions": [
      {
        "date": "2025-04-25",
        "priceEur": 110000,
        "typeLocal": "Appartement",
        "surfaceM2": 55,
        "isVefa": false
      },
      {
        "date": "2025-02-10",
        "priceEur": 178000,
        "typeLocal": "Appartement",
        "surfaceM2": 62,
        "isVefa": false
      },
      {
        "date": "2024-10-31",
        "priceEur": 99000,
        "typeLocal": "Appartement",
        "surfaceM2": 45,
        "isVefa": false
      },
      {
        "date": "2024-10-10",
        "priceEur": 130000,
        "typeLocal": "Appartement",
        "surfaceM2": 42,
        "isVefa": false
      },
      {
        "date": "2024-09-17",
        "priceEur": 161500,
        "typeLocal": "Appartement",
        "surfaceM2": 65,
        "isVefa": false
      },
      {
        "date": "2024-09-13",
        "priceEur": 124000,
        "typeLocal": "Appartement",
        "surfaceM2": 63,
        "isVefa": false
      },
      {
        "date": "2024-07-17",
        "priceEur": 183400,
        "typeLocal": "Appartement",
        "surfaceM2": 60,
        "isVefa": false
      },
      {
        "date": "2024-01-17",
        "priceEur": 159000,
        "typeLocal": "Appartement",
        "surfaceM2": 55,
        "isVefa": false
      },
      {
        "date": "2023-12-18",
        "priceEur": 197900,
        "typeLocal": "Appartement",
        "surfaceM2": 66,
        "isVefa": false
      },
      {
        "date": "2023-10-31",
        "priceEur": 125000,
        "typeLocal": "Appartement",
        "surfaceM2": 52,
        "isVefa": false
      },
      {
        "date": "2023-09-04",
        "priceEur": 100000,
        "typeLocal": "Appartement",
        "surfaceM2": 41,
        "isVefa": false
      },
      {
        "date": "2023-08-22",
        "priceEur": 155000,
        "typeLocal": "Appartement",
        "surfaceM2": 64,
        "isVefa": false
      },
      {
        "date": "2023-07-10",
        "priceEur": 95000,
        "typeLocal": "Appartement",
        "surfaceM2": 42,
        "isVefa": false
      },
      {
        "date": "2023-07-07",
        "priceEur": 107000,
        "typeLocal": "Appartement",
        "surfaceM2": 41,
        "isVefa": false
      },
      {
        "date": "2023-06-26",
        "priceEur": 141660,
        "typeLocal": "Appartement",
        "surfaceM2": 52,
        "isVefa": false
      },
      {
        "date": "2023-06-05",
        "priceEur": 120000,
        "typeLocal": "Appartement",
        "surfaceM2": 57,
        "isVefa": false
      },
      {
        "date": "2023-04-26",
        "priceEur": 125000,
        "typeLocal": "Appartement",
        "surfaceM2": 41,
        "isVefa": false
      },
      {
        "date": "2023-02-24",
        "priceEur": 123000,
        "typeLocal": "Appartement",
        "surfaceM2": 46,
        "isVefa": false
      },
      {
        "date": "2022-11-18",
        "priceEur": 115000,
        "typeLocal": "Appartement",
        "surfaceM2": 42,
        "isVefa": false
      },
      {
        "date": "2022-10-13",
        "priceEur": 138000,
        "typeLocal": "Appartement",
        "surfaceM2": 43,
        "isVefa": false
      },
      {
        "date": "2022-05-25",
        "priceEur": 126950,
        "typeLocal": "Appartement",
        "surfaceM2": 42,
        "isVefa": false
      },
      {
        "date": "2021-09-23",
        "priceEur": 125500,
        "typeLocal": "Appartement",
        "surfaceM2": 41,
        "isVefa": false
      },
      {
        "date": "2021-09-15",
        "priceEur": 164400,
        "typeLocal": "Appartement",
        "surfaceM2": 62,
        "isVefa": false
      },
      {
        "date": "2021-05-25",
        "priceEur": 156486,
        "typeLocal": "Appartement",
        "surfaceM2": 65,
        "isVefa": false
      },
      {
        "date": "2021-04-14",
        "priceEur": 153000,
        "typeLocal": "Appartement",
        "surfaceM2": 66,
        "isVefa": false
      }
    ]
  },
  "27af2e179766": {
    "id": "27af2e179766",
    "label": "5 RUE FOUR DE GRILLE, Gigean",
    "lat": 43.503755,
    "lng": 3.714281,
    "transactions": [
      {
        "date": "2021-04-01",
        "priceEur": 377200,
        "typeLocal": "Maison",
        "surfaceM2": 94,
        "isVefa": false
      }
    ]
  },
  "bf5281c17020": {
    "id": "bf5281c17020",
    "label": "10 RUE DES AMARANTES, Gigean",
    "lat": 43.503126,
    "lng": 3.718983,
    "transactions": [
      {
        "date": "2023-06-19",
        "priceEur": 384420,
        "typeLocal": "Maison",
        "surfaceM2": 95,
        "isVefa": false
      },
      {
        "date": "2021-05-03",
        "priceEur": 293550,
        "typeLocal": "Maison",
        "surfaceM2": 95,
        "isVefa": false
      }
    ]
  },
  "d8b69f268e61": {
    "id": "d8b69f268e61",
    "label": "6D RUE DE L OCCITANIE, Gigean",
    "lat": 43.502913,
    "lng": 3.715428,
    "transactions": [
      {
        "date": "2021-08-26",
        "priceEur": 326400,
        "typeLocal": "Maison",
        "surfaceM2": 98,
        "isVefa": false
      }
    ]
  },
  "491cf4bc7f3c": {
    "id": "491cf4bc7f3c",
    "label": "3 RUE DE LA FONT, Gigean",
    "lat": 43.501306,
    "lng": 3.717164,
    "transactions": [
      {
        "date": "2021-08-31",
        "priceEur": 375000,
        "typeLocal": "Maison",
        "surfaceM2": 99,
        "isVefa": false
      }
    ]
  },
  "1148aa1612f6": {
    "id": "1148aa1612f6",
    "label": "23 RUE DE LA LYRE, Gigean",
    "lat": 43.504017,
    "lng": 3.720107,
    "transactions": [
      {
        "date": "2021-10-25",
        "priceEur": 319800,
        "typeLocal": "Maison",
        "surfaceM2": 97,
        "isVefa": false
      }
    ]
  },
  "f589952d3d0b": {
    "id": "f589952d3d0b",
    "label": "29 RUE DU CROUZET, Gigean",
    "lat": 43.502232,
    "lng": 3.717876,
    "transactions": [
      {
        "date": "2021-11-22",
        "priceEur": 265000,
        "typeLocal": "Maison",
        "surfaceM2": 90,
        "isVefa": false
      }
    ]
  },
  "4ae116a461ca": {
    "id": "4ae116a461ca",
    "label": "5877 RUE FOUR DE GRILLE, Gigean",
    "lat": 43.505575,
    "lng": 3.717037,
    "transactions": [
      {
        "date": "2021-11-26",
        "priceEur": 149000,
        "typeLocal": "Maison",
        "surfaceM2": 85,
        "isVefa": false
      }
    ]
  },
  "f57652962d41": {
    "id": "f57652962d41",
    "label": "10 RUE DE LA LYRE, Gigean",
    "lat": 43.503785,
    "lng": 3.719643,
    "transactions": [
      {
        "date": "2021-12-03",
        "priceEur": 285000,
        "typeLocal": "Maison",
        "surfaceM2": 76,
        "isVefa": false
      }
    ]
  },
  "9c93be303d9c": {
    "id": "9c93be303d9c",
    "label": "10 RUE LOU GREGAOU, Gigean",
    "lat": 43.503561,
    "lng": 3.720853,
    "transactions": [
      {
        "date": "2021-12-08",
        "priceEur": 406620,
        "typeLocal": "Maison",
        "surfaceM2": 99,
        "isVefa": false
      }
    ]
  },
  "a5135bfd3a05": {
    "id": "a5135bfd3a05",
    "label": "19 RUE DE LA LYRE, Gigean",
    "lat": 43.504182,
    "lng": 3.719932,
    "transactions": [
      {
        "date": "2022-04-15",
        "priceEur": 300050,
        "typeLocal": "Maison",
        "surfaceM2": 85,
        "isVefa": false
      }
    ]
  },
  "b14019c7a8d8": {
    "id": "b14019c7a8d8",
    "label": "3 RUE DE LA LYRE, Gigean",
    "lat": 43.504049,
    "lng": 3.718796,
    "transactions": [
      {
        "date": "2022-05-31",
        "priceEur": 395761,
        "typeLocal": "Maison",
        "surfaceM2": 136,
        "isVefa": false
      }
    ]
  },
  "c75352b070af": {
    "id": "c75352b070af",
    "label": "25 RUE CITE VERS L AVENIR, Gigean",
    "lat": 43.501381,
    "lng": 3.714586,
    "transactions": [
      {
        "date": "2025-01-13",
        "priceEur": 102000,
        "typeLocal": "Appartement",
        "surfaceM2": 72,
        "isVefa": false
      },
      {
        "date": "2024-12-27",
        "priceEur": 152580,
        "typeLocal": "Appartement",
        "surfaceM2": 72,
        "isVefa": false
      },
      {
        "date": "2023-12-01",
        "priceEur": 157200,
        "typeLocal": "Appartement",
        "surfaceM2": 72,
        "isVefa": false
      },
      {
        "date": "2022-06-23",
        "priceEur": 165200,
        "typeLocal": "Appartement",
        "surfaceM2": 72,
        "isVefa": false
      }
    ]
  },
  "f210f9080440": {
    "id": "f210f9080440",
    "label": "33 RUE DU CROUZET, Gigean",
    "lat": 43.502091,
    "lng": 3.717605,
    "transactions": [
      {
        "date": "2022-08-30",
        "priceEur": 345000,
        "typeLocal": "Maison",
        "surfaceM2": 96,
        "isVefa": false
      }
    ]
  },
  "c9badb704635": {
    "id": "c9badb704635",
    "label": "15 RUE DE MIREVAL, Gigean",
    "lat": 43.502148,
    "lng": 3.719216,
    "transactions": [
      {
        "date": "2022-11-30",
        "priceEur": 337650,
        "typeLocal": "Maison",
        "surfaceM2": 83,
        "isVefa": false
      }
    ]
  },
  "d2b3c19c0dc5": {
    "id": "d2b3c19c0dc5",
    "label": "2 RUE LOU GREGAOU, Gigean",
    "lat": 43.503474,
    "lng": 3.720454,
    "transactions": [
      {
        "date": "2023-01-17",
        "priceEur": 245000,
        "typeLocal": "Maison",
        "surfaceM2": 81,
        "isVefa": false
      }
    ]
  },
  "082da1a2bae8": {
    "id": "082da1a2bae8",
    "label": "17 RUE DES CENTAURES, Gigean",
    "lat": 43.502518,
    "lng": 3.720169,
    "transactions": [
      {
        "date": "2023-01-20",
        "priceEur": 320720,
        "typeLocal": "Maison",
        "surfaceM2": 91,
        "isVefa": false
      }
    ]
  },
  "3cdf2363afe5": {
    "id": "3cdf2363afe5",
    "label": "5915F RUE FOUR DE GRILLE, Gigean",
    "lat": 43.504857,
    "lng": 3.715976,
    "transactions": [
      {
        "date": "2023-01-30",
        "priceEur": 412370,
        "typeLocal": "Maison",
        "surfaceM2": 115,
        "isVefa": false
      }
    ]
  },
  "4c40c7edaa37": {
    "id": "4c40c7edaa37",
    "label": "21 RUE DE LA FONT, Gigean",
    "lat": 43.50142,
    "lng": 3.718634,
    "transactions": [
      {
        "date": "2023-04-24",
        "priceEur": 142715,
        "typeLocal": "Maison",
        "surfaceM2": 103,
        "isVefa": false
      }
    ]
  },
  "1e33f62def98": {
    "id": "1e33f62def98",
    "label": "42 AV DE MONTPELLIER, Gigean",
    "lat": 43.500796,
    "lng": 3.715123,
    "transactions": [
      {
        "date": "2023-05-24",
        "priceEur": 243500,
        "typeLocal": "Appartement",
        "surfaceM2": 86,
        "isVefa": false
      },
      {
        "date": "2023-05-24",
        "priceEur": 243500,
        "typeLocal": "Appartement",
        "surfaceM2": 65,
        "isVefa": false
      }
    ]
  },
  "95384f728009": {
    "id": "95384f728009",
    "label": "54C AV DE MONTPELLIER, Gigean",
    "lat": 43.502305,
    "lng": 3.716146,
    "transactions": [
      {
        "date": "2023-06-01",
        "priceEur": 402700,
        "typeLocal": "Maison",
        "surfaceM2": 124,
        "isVefa": false
      }
    ]
  },
  "f11b641d6d50": {
    "id": "f11b641d6d50",
    "label": "3 RUE DES AMARANTES, Gigean",
    "lat": 43.50376,
    "lng": 3.719067,
    "transactions": [
      {
        "date": "2023-06-27",
        "priceEur": 307000,
        "typeLocal": "Maison",
        "surfaceM2": 81,
        "isVefa": false
      }
    ]
  },
  "51d565589fb3": {
    "id": "51d565589fb3",
    "label": "6 RUE DE LA LYRE, Gigean",
    "lat": 43.504053,
    "lng": 3.719585,
    "transactions": [
      {
        "date": "2024-04-08",
        "priceEur": 311200,
        "typeLocal": "Maison",
        "surfaceM2": 91,
        "isVefa": false
      }
    ]
  },
  "9f5479b1fb8e": {
    "id": "9f5479b1fb8e",
    "label": "8 RUE DES CHASSEURS, Gigean",
    "lat": 43.505575,
    "lng": 3.717037,
    "transactions": [
      {
        "date": "2024-08-07",
        "priceEur": 312693,
        "typeLocal": "Maison",
        "surfaceM2": 82,
        "isVefa": false
      }
    ]
  },
  "4bcb35dceaeb": {
    "id": "4bcb35dceaeb",
    "label": "25 RUE LOU GREGAOU, Gigean",
    "lat": 43.50375,
    "lng": 3.721313,
    "transactions": [
      {
        "date": "2024-09-16",
        "priceEur": 403844,
        "typeLocal": "Maison",
        "surfaceM2": 95,
        "isVefa": false
      }
    ]
  },
  "98091164ecf7": {
    "id": "98091164ecf7",
    "label": "24 RUE DES CENTAURES, Gigean",
    "lat": 43.502238,
    "lng": 3.720377,
    "transactions": [
      {
        "date": "2024-12-16",
        "priceEur": 394600,
        "typeLocal": "Maison",
        "surfaceM2": 100,
        "isVefa": false
      }
    ]
  },
  "a333b1afd3c2": {
    "id": "a333b1afd3c2",
    "label": "16 RUE DE L OCCITANIE, Gigean",
    "lat": 43.503548,
    "lng": 3.716214,
    "transactions": [
      {
        "date": "2025-05-23",
        "priceEur": 310100,
        "typeLocal": "Maison",
        "surfaceM2": 128,
        "isVefa": false
      }
    ]
  }
}