{
  "463ea81ef757": {
    "id": "463ea81ef757",
    "label": "10 RUE PIERRE DE COUBERTIN, Frontignan",
    "lat": 43.431575,
    "lng": 3.72186,
    "transactions": [
      {
        "date": "2020-10-14",
        "priceEur": 429000,
        "typeLocal": "Maison",
        "surfaceM2": 169,
        "isVefa": false
      }
    ]
  },
  "0a2670c8fa8b": {
    "id": "0a2670c8fa8b",
    "label": "8 RUE PIERRE DE COUBERTIN, Frontignan",
    "lat": 43.431654,
    "lng": 3.722206,
    "transactions": [
      {
        "date": "2020-09-29",
        "priceEur": 253000,
        "typeLocal": "Maison",
        "surfaceM2": 75,
        "isVefa": false
      }
    ]
  },
  "456d0160a5b4": {
    "id": "456d0160a5b4",
    "label": "10B IMP DES ROCAILLES, Frontignan",
    "lat": 43.430881,
    "lng": 3.723994,
    "transactions": [
      {
        "date": "2021-06-04",
        "priceEur": 400000,
        "typeLocal": "Maison",
        "surfaceM2": 120,
        "isVefa": false
      }
    ]
  },
  "56a9d1e07096": {
    "id": "56a9d1e07096",
    "label": "12 IMP DES ROCAILLES, Frontignan",
    "lat": 43.430848,
    "lng": 3.723786,
    "transactions": [
      {
        "date": "2021-06-18",
        "priceEur": 307300,
        "typeLocal": "Maison",
        "surfaceM2": 95,
        "isVefa": false
      }
    ]
  },
  "468575086312": {
    "id": "468575086312",
    "label": "17 RUE DE SATURNE, Frontignan",
    "lat": 43.429372,
    "lng": 3.724342,
    "transactions": [
      {
        "date": "2021-06-25",
        "priceEur": 281700,
        "typeLocal": "Maison",
        "surfaceM2": 92,
        "isVefa": false
      }
    ]
  },
  "fa98962bb9ff": {
    "id": "fa98962bb9ff",
    "label": "6 IMP DES ROCAILLES, Frontignan",
    "lat": 43.430704,
    "lng": 3.724286,
    "transactions": [
      {
        "date": "2021-07-16",
        "priceEur": 321000,
        "typeLocal": "Maison",
        "surfaceM2": 88,
        "isVefa": false
      }
    ]
  },
  "7d64df3c9733": {
    "id": "7d64df3c9733",
    "label": "21 RUE DES TENNIS, Frontignan",
    "lat": 43.432498,
    "lng": 3.721297,
    "transactions": [
      {
        "date": "2022-12-20",
        "priceEur": 400000,
        "typeLocal": "Maison",
        "surfaceM2": 119,
        "isVefa": false
      }
    ]
  },
  "cb1a098bc83a": {
    "id": "cb1a098bc83a",
    "label": "91 RTE DE BALARUC LA PEYRADE, Frontignan",
    "lat": 43.432989,
    "lng": 3.722254,
    "transactions": [
      {
        "date": "2023-01-12",
        "priceEur": 320000,
        "typeLocal": "Maison",
        "surfaceM2": 89,
        "isVefa": false
      }
    ]
  },
  "035e2a8cde17": {
    "id": "035e2a8cde17",
    "label": "9023 RTE DE BALARUC LA PEYRADE, Frontignan",
    "lat": 43.434307,
    "lng": 3.720928,
    "transactions": [
      {
        "date": "2025-03-28",
        "priceEur": 360000,
        "typeLocal": "Maison",
        "surfaceM2": 247,
        "isVefa": false
      },
      {
        "date": "2024-05-23",
        "priceEur": 330000,
        "typeLocal": "Maison",
        "surfaceM2": 247,
        "isVefa": false
      }
    ]
  },
  "e85016fd62d4": {
    "id": "e85016fd62d4",
    "label": "17 RUE DES TENNIS, Frontignan",
    "lat": 43.432155,
    "lng": 3.721371,
    "transactions": [
      {
        "date": "2024-07-22",
        "priceEur": 435000,
        "typeLocal": "Maison",
        "surfaceM2": 85,
        "isVefa": false
      }
    ]
  },
  "486dfec41eaa": {
    "id": "486dfec41eaa",
    "label": "4 RUE PIERRE DE COUBERTIN, Frontignan",
    "lat": 43.431897,
    "lng": 3.722596,
    "transactions": [
      {
        "date": "2024-12-23",
        "priceEur": 385000,
        "typeLocal": "Maison",
        "surfaceM2": 92,
        "isVefa": false
      }
    ]
  },
  "dfe54001e27f": {
    "id": "dfe54001e27f",
    "label": "1 CHE DE MEREVILLE, Frontignan",
    "lat": 43.429979,
    "lng": 3.72431,
    "transactions": [
      {
        "date": "2025-04-30",
        "priceEur": 199000,
        "typeLocal": "Appartement",
        "surfaceM2": 69,
        "isVefa": false
      },
      {
        "date": "2025-02-21",
        "priceEur": 186000,
        "typeLocal": "Appartement",
        "surfaceM2": 54,
        "isVefa": false
      },
      {
        "date": "2024-12-06",
        "priceEur": 230000,
        "typeLocal": "Appartement",
        "surfaceM2": 68,
        "isVefa": false
      }
    ]
  },
  "cf13dcc5e5a1": {
    "id": "cf13dcc5e5a1",
    "label": "23 RUE DES TENNIS, Frontignan",
    "lat": 43.432596,
    "lng": 3.721166,
    "transactions": [
      {
        "date": "2025-02-17",
        "priceEur": 405000,
        "typeLocal": "Maison",
        "surfaceM2": 85,
        "isVefa": false
      }
    ]
  },
  "a58f84267236": {
    "id": "a58f84267236",
    "label": "16 RUE PIERRE DE COUBERTIN, Frontignan",
    "lat": 43.430793,
    "lng": 3.722317,
    "transactions": [
      {
        "date": "2025-03-05",
        "priceEur": 292500,
        "typeLocal": "Maison",
        "surfaceM2": 89,
        "isVefa": false
      }
    ]
  }
}