{
  "d6bca4f2b89e": {
    "id": "d6bca4f2b89e",
    "label": "5868 LUGNE, Cessenon-sur-Orb",
    "lat": 43.470966,
    "lng": 3.027785,
    "transactions": [
      {
        "date": "2020-10-29",
        "priceEur": 84000,
        "typeLocal": "Maison",
        "surfaceM2": 80,
        "isVefa": false
      }
    ]
  },
  "dae8a21e19d2": {
    "id": "dae8a21e19d2",
    "label": "4 RUE DES DEUX ERABLES, Cessenon-sur-Orb",
    "lat": 43.471462,
    "lng": 3.029101,
    "transactions": [
      {
        "date": "2021-03-01",
        "priceEur": 317000,
        "typeLocal": "Maison",
        "surfaceM2": 232,
        "isVefa": false
      }
    ]
  },
  "697ff850da80": {
    "id": "697ff850da80",
    "label": "4 RTE DE ROQUEBRUN, Cessenon-sur-Orb",
    "lat": 43.47127,
    "lng": 3.03,
    "transactions": [
      {
        "date": "2021-04-23",
        "priceEur": 237000,
        "typeLocal": "Maison",
        "surfaceM2": 110,
        "isVefa": false
      }
    ]
  },
  "636a599258aa": {
    "id": "636a599258aa",
    "label": "14 RUE CALADE, Cessenon-sur-Orb",
    "lat": 43.471387,
    "lng": 3.028165,
    "transactions": [
      {
        "date": "2021-12-27",
        "priceEur": 45000,
        "typeLocal": "Maison",
        "surfaceM2": 50,
        "isVefa": false
      }
    ]
  },
  "8e829d1deb8a": {
    "id": "8e829d1deb8a",
    "label": "6 RUE DU PUITS, Cessenon-sur-Orb",
    "lat": 43.47109,
    "lng": 3.028474,
    "transactions": [
      {
        "date": "2023-03-21",
        "priceEur": 227100,
        "typeLocal": "Maison",
        "surfaceM2": 196,
        "isVefa": false
      }
    ]
  },
  "90ca33b26b70": {
    "id": "90ca33b26b70",
    "label": "11 RTE DE ROQUEBRUN, Cessenon-sur-Orb",
    "lat": 43.472638,
    "lng": 3.031963,
    "transactions": [
      {
        "date": "2023-07-28",
        "priceEur": 305000,
        "typeLocal": "Maison",
        "surfaceM2": 56,
        "isVefa": false
      },
      {
        "date": "2023-07-28",
        "priceEur": 305000,
        "typeLocal": "Appartement",
        "surfaceM2": 112,
        "isVefa": false
      },
      {
        "date": "2023-07-28",
        "priceEur": 305000,
        "typeLocal": "Appartement",
        "surfaceM2": 120,
        "isVefa": false
      }
    ]
  },
  "b8a31c3bd9a7": {
    "id": "b8a31c3bd9a7",
    "label": "5102F RUE CALADE, Cessenon-sur-Orb",
    "lat": 43.470476,
    "lng": 3.028258,
    "transactions": [
      {
        "date": "2023-11-23",
        "priceEur": 87050,
        "typeLocal": "Maison",
        "surfaceM2": 50,
        "isVefa": false
      }
    ]
  },
  "2a0d5dd92ea0": {
    "id": "2a0d5dd92ea0",
    "label": "8 RTE DE CESSENON, Cessenon-sur-Orb",
    "lat": 43.470359,
    "lng": 3.028309,
    "transactions": [
      {
        "date": "2023-11-16",
        "priceEur": 144100,
        "typeLocal": "Maison",
        "surfaceM2": 75,
        "isVefa": false
      },
      {
        "date": "2023-11-16",
        "priceEur": 144100,
        "typeLocal": "Maison",
        "surfaceM2": 75,
        "isVefa": false
      }
    ]
  },
  "c4d96de69306": {
    "id": "c4d96de69306",
    "label": "5 RUE DU PUITS, Cessenon-sur-Orb",
    "lat": 43.470965,
    "lng": 3.02843,
    "transactions": [
      {
        "date": "2024-03-15",
        "priceEur": 184150,
        "typeLocal": "Maison",
        "surfaceM2": 100,
        "isVefa": false
      }
    ]
  },
  "5b11adaa37f7": {
    "id": "5b11adaa37f7",
    "label": "4 RUE DU PUITS, Cessenon-sur-Orb",
    "lat": 43.471162,
    "lng": 3.028499,
    "transactions": [
      {
        "date": "2025-05-21",
        "priceEur": 80000,
        "typeLocal": "Maison",
        "surfaceM2": 70,
        "isVefa": false
      }
    ]
  }
}