{
  "ea40cb5fd95c": {
    "id": "ea40cb5fd95c",
    "label": "6 CHE VERDESCA, Gignac",
    "lat": 43.648196,
    "lng": 3.559728,
    "transactions": [
      {
        "date": "2022-08-30",
        "priceEur": 345000,
        "typeLocal": "Maison",
        "surfaceM2": 92,
        "isVefa": false
      },
      {
        "date": "2020-09-11",
        "priceEur": 267748,
        "typeLocal": "Maison",
        "surfaceM2": 92,
        "isVefa": false
      }
    ]
  },
  "3a310c2005dc": {
    "id": "3a310c2005dc",
    "label": "552 CHE VIEUX, Gignac",
    "lat": 43.647803,
    "lng": 3.562801,
    "transactions": [
      {
        "date": "2021-07-27",
        "priceEur": 408850,
        "typeLocal": "Maison",
        "surfaceM2": 110,
        "isVefa": false
      },
      {
        "date": "2021-07-27",
        "priceEur": 408850,
        "typeLocal": "Maison",
        "surfaceM2": 110,
        "isVefa": false
      }
    ]
  },
  "eb77b3d4a580": {
    "id": "eb77b3d4a580",
    "label": "90 CHE PIOCH COURBI, Gignac",
    "lat": 43.646381,
    "lng": 3.560069,
    "transactions": [
      {
        "date": "2021-08-16",
        "priceEur": 378120,
        "typeLocal": "Maison",
        "surfaceM2": 101,
        "isVefa": false
      },
      {
        "date": "2021-08-16",
        "priceEur": 378120,
        "typeLocal": "Maison",
        "surfaceM2": 101,
        "isVefa": false
      }
    ]
  },
  "37ca39b0c33e": {
    "id": "37ca39b0c33e",
    "label": "283 RUE PHILIPPE CHAPERT, Gignac",
    "lat": 43.649887,
    "lng": 3.559575,
    "transactions": [
      {
        "date": "2021-09-06",
        "priceEur": 302300,
        "typeLocal": "Maison",
        "surfaceM2": 88,
        "isVefa": false
      },
      {
        "date": "2021-09-06",
        "priceEur": 302300,
        "typeLocal": "Maison",
        "surfaceM2": 88,
        "isVefa": false
      }
    ]
  },
  "a43675cc8d54": {
    "id": "a43675cc8d54",
    "label": "461 CHE VIEUX, Gignac",
    "lat": 43.649379,
    "lng": 3.561989,
    "transactions": [
      {
        "date": "2022-02-17",
        "priceEur": 436400,
        "typeLocal": "Maison",
        "surfaceM2": 117,
        "isVefa": false
      },
      {
        "date": "2022-02-17",
        "priceEur": 436400,
        "typeLocal": "Maison",
        "surfaceM2": 117,
        "isVefa": false
      }
    ]
  },
  "c9b2e2c505f0": {
    "id": "c9b2e2c505f0",
    "label": "31 CHE SAINTE CLAIRE ROQUEYROL, Gignac",
    "lat": 43.650199,
    "lng": 3.560195,
    "transactions": [
      {
        "date": "2022-02-18",
        "priceEur": 183333.33,
        "typeLocal": "Maison",
        "surfaceM2": 87,
        "isVefa": false
      },
      {
        "date": "2022-02-18",
        "priceEur": 183333.33,
        "typeLocal": "Maison",
        "surfaceM2": 87,
        "isVefa": false
      }
    ]
  },
  "117f63acfc22": {
    "id": "117f63acfc22",
    "label": "30 CHE VERDESCA, Gignac",
    "lat": 43.647765,
    "lng": 3.559602,
    "transactions": [
      {
        "date": "2022-03-28",
        "priceEur": 318740,
        "typeLocal": "Maison",
        "surfaceM2": 88,
        "isVefa": false
      }
    ]
  },
  "be9fd29df63c": {
    "id": "be9fd29df63c",
    "label": "6427F CHE DU MAS DE THIBAUT, Gignac",
    "lat": 43.645547,
    "lng": 3.563453,
    "transactions": [
      {
        "date": "2022-08-26",
        "priceEur": 417000,
        "typeLocal": "Maison",
        "surfaceM2": 120,
        "isVefa": false
      },
      {
        "date": "2022-08-26",
        "priceEur": 417000,
        "typeLocal": "Maison",
        "surfaceM2": 120,
        "isVefa": false
      }
    ]
  },
  "f9a68d0741d4": {
    "id": "f9a68d0741d4",
    "label": "10 CHE VERDESCA, Gignac",
    "lat": 43.648273,
    "lng": 3.560102,
    "transactions": [
      {
        "date": "2022-09-14",
        "priceEur": 449300,
        "typeLocal": "Maison",
        "surfaceM2": 125,
        "isVefa": false
      }
    ]
  },
  "cedc73351051": {
    "id": "cedc73351051",
    "label": "28 CHE VERDESCA, Gignac",
    "lat": 43.647789,
    "lng": 3.559734,
    "transactions": [
      {
        "date": "2022-12-16",
        "priceEur": 313500,
        "typeLocal": "Maison",
        "surfaceM2": 68,
        "isVefa": false
      }
    ]
  },
  "21fae68b8bf9": {
    "id": "21fae68b8bf9",
    "label": "135 CHE PIOCH COURBI, Gignac",
    "lat": 43.647021,
    "lng": 3.560762,
    "transactions": [
      {
        "date": "2024-06-07",
        "priceEur": 375100,
        "typeLocal": "Maison",
        "surfaceM2": 150,
        "isVefa": false
      }
    ]
  },
  "a6f3b4f2a931": {
    "id": "a6f3b4f2a931",
    "label": "340 PIOCH COURBI, Gignac",
    "lat": 43.645817,
    "lng": 3.56372,
    "transactions": [
      {
        "date": "2025-03-18",
        "priceEur": 685000,
        "typeLocal": "Maison",
        "surfaceM2": 228,
        "isVefa": false
      },
      {
        "date": "2025-03-18",
        "priceEur": 685000,
        "typeLocal": "Maison",
        "surfaceM2": 228,
        "isVefa": false
      }
    ]
  }
}