{
  "689b0660a550": {
    "id": "689b0660a550",
    "label": "2 CAR DE LA CROIX ROUGE, Rouvray-Catillon",
    "lat": 49.57301,
    "lng": 1.479514,
    "transactions": [
      {
        "date": "2021-02-27",
        "priceEur": 45000,
        "typeLocal": "Maison",
        "surfaceM2": 148,
        "isVefa": false
      }
    ]
  },
  "e9a436c1908b": {
    "id": "e9a436c1908b",
    "label": "144 RUE JEHAN DE ROUVRAY, Rouvray-Catillon",
    "lat": 49.572664,
    "lng": 1.48162,
    "transactions": [
      {
        "date": "2021-06-11",
        "priceEur": 18000,
        "typeLocal": "Maison",
        "surfaceM2": 50,
        "isVefa": false
      }
    ]
  },
  "e5e4d07a3dde": {
    "id": "e5e4d07a3dde",
    "label": "246 RUE D HUCLEU, Rouvray-Catillon",
    "lat": 49.574453,
    "lng": 1.47752,
    "transactions": [
      {
        "date": "2021-09-22",
        "priceEur": 193000,
        "typeLocal": "Maison",
        "surfaceM2": 120,
        "isVefa": false
      }
    ]
  },
  "1964cfab2921": {
    "id": "1964cfab2921",
    "label": "249 RUE JEHAN DE ROUVRAY, Rouvray-Catillon",
    "lat": 49.572857,
    "lng": 1.483011,
    "transactions": [
      {
        "date": "2021-09-16",
        "priceEur": 138500,
        "typeLocal": "Maison",
        "surfaceM2": 100,
        "isVefa": false
      }
    ]
  },
  "0310e81f0329": {
    "id": "0310e81f0329",
    "label": "100 RTE DE BOSC EDELINE, Rouvray-Catillon",
    "lat": 49.573087,
    "lng": 1.478622,
    "transactions": [
      {
        "date": "2022-05-12",
        "priceEur": 148000,
        "typeLocal": "Maison",
        "surfaceM2": 125,
        "isVefa": false
      }
    ]
  },
  "6e5da3d84f92": {
    "id": "6e5da3d84f92",
    "label": "143 RUE D HUCLEU, Rouvray-Catillon",
    "lat": 49.573763,
    "lng": 1.477219,
    "transactions": [
      {
        "date": "2022-06-10",
        "priceEur": 203300,
        "typeLocal": "Maison",
        "surfaceM2": 126,
        "isVefa": false
      }
    ]
  },
  "0ffc767f88c3": {
    "id": "0ffc767f88c3",
    "label": "77 RUE D HUCLEU, Rouvray-Catillon",
    "lat": 49.573298,
    "lng": 1.478248,
    "transactions": [
      {
        "date": "2022-07-13",
        "priceEur": 138000,
        "typeLocal": "Maison",
        "surfaceM2": 115,
        "isVefa": false
      }
    ]
  },
  "b644a221d42f": {
    "id": "b644a221d42f",
    "label": "260 RUE ANDRE DE CHENIER, Rouvray-Catillon",
    "lat": 49.574506,
    "lng": 1.482608,
    "transactions": [
      {
        "date": "2023-02-17",
        "priceEur": 218500,
        "typeLocal": "Maison",
        "surfaceM2": 160,
        "isVefa": false
      }
    ]
  },
  "186b6ba8f0eb": {
    "id": "186b6ba8f0eb",
    "label": "169 RUE JEHAN DE ROUVRAY, Rouvray-Catillon",
    "lat": 49.572865,
    "lng": 1.482128,
    "transactions": [
      {
        "date": "2024-09-02",
        "priceEur": 120000,
        "typeLocal": "Maison",
        "surfaceM2": 95,
        "isVefa": false
      }
    ]
  }
}