{
  "c55ee9fa49f1": {
    "id": "c55ee9fa49f1",
    "label": "11 IMP HOUYVET, Sainte-Adresse",
    "lat": 49.514116,
    "lng": 0.085533,
    "transactions": [
      {
        "date": "2020-07-08",
        "priceEur": 621000,
        "typeLocal": "Maison",
        "surfaceM2": 200,
        "isVefa": false
      }
    ]
  },
  "6b4ebf3b5682": {
    "id": "6b4ebf3b5682",
    "label": "11 RLE DU VALLON, Sainte-Adresse",
    "lat": 49.515174,
    "lng": 0.080944,
    "transactions": [
      {
        "date": "2020-08-07",
        "priceEur": 330000,
        "typeLocal": "Maison",
        "surfaceM2": 133,
        "isVefa": false
      }
    ]
  },
  "58854147f4e1": {
    "id": "58854147f4e1",
    "label": "43 RUE JEAN BOULARD, Sainte-Adresse",
    "lat": 49.516537,
    "lng": 0.083805,
    "transactions": [
      {
        "date": "2020-08-03",
        "priceEur": 612000,
        "typeLocal": "Maison",
        "surfaceM2": 175,
        "isVefa": false
      }
    ]
  },
  "79158502180e": {
    "id": "79158502180e",
    "label": "61 RTE D OCTEVILLE, Sainte-Adresse",
    "lat": 49.515205,
    "lng": 0.085882,
    "transactions": [
      {
        "date": "2020-08-17",
        "priceEur": 700000,
        "typeLocal": "Maison",
        "surfaceM2": 209,
        "isVefa": false
      }
    ]
  },
  "847cc41647e9": {
    "id": "847cc41647e9",
    "label": "1 RUE DES FERMES, Sainte-Adresse",
    "lat": 49.51371,
    "lng": 0.078973,
    "transactions": [
      {
        "date": "2023-04-05",
        "priceEur": 197580,
        "typeLocal": "Appartement",
        "surfaceM2": 66,
        "isVefa": false
      },
      {
        "date": "2020-11-07",
        "priceEur": 280000,
        "typeLocal": "Appartement",
        "surfaceM2": 103,
        "isVefa": false
      },
      {
        "date": "2020-08-21",
        "priceEur": 175000,
        "typeLocal": "Appartement",
        "surfaceM2": 66,
        "isVefa": false
      }
    ]
  },
  "75c4e679f015": {
    "id": "75c4e679f015",
    "label": "2 ALL MARTIN-LUTHER KING, Le Havre",
    "lat": 49.516822,
    "lng": 0.087574,
    "transactions": [
      {
        "date": "2021-06-16",
        "priceEur": 277000,
        "typeLocal": "Appartement",
        "surfaceM2": 120,
        "isVefa": false
      },
      {
        "date": "2020-11-25",
        "priceEur": 58000,
        "typeLocal": "Appartement",
        "surfaceM2": 25,
        "isVefa": false
      },
      {
        "date": "2020-09-18",
        "priceEur": 155000,
        "typeLocal": "Appartement",
        "surfaceM2": 81,
        "isVefa": false
      }
    ]
  },
  "7a51cee81d54": {
    "id": "7a51cee81d54",
    "label": "10 RUE DU VAGABOND BIEN AIME, Sainte-Adresse",
    "lat": 49.512697,
    "lng": 0.083999,
    "transactions": [
      {
        "date": "2025-04-30",
        "priceEur": 405000,
        "typeLocal": "Maison",
        "surfaceM2": 133,
        "isVefa": false
      },
      {
        "date": "2020-10-02",
        "priceEur": 354000,
        "typeLocal": "Maison",
        "surfaceM2": 133,
        "isVefa": false
      }
    ]
  },
  "fe454e5d075e": {
    "id": "fe454e5d075e",
    "label": "4 ALL MARTIN-LUTHER KING, Le Havre",
    "lat": 49.516822,
    "lng": 0.087574,
    "transactions": [
      {
        "date": "2021-10-13",
        "priceEur": 62000,
        "typeLocal": "Appartement",
        "surfaceM2": 25,
        "isVefa": false
      },
      {
        "date": "2021-02-03",
        "priceEur": 165600,
        "typeLocal": "Appartement",
        "surfaceM2": 69,
        "isVefa": false
      },
      {
        "date": "2020-09-15",
        "priceEur": 262000,
        "typeLocal": "Appartement",
        "surfaceM2": 120,
        "isVefa": false
      }
    ]
  },
  "e8b54e0451c8": {
    "id": "e8b54e0451c8",
    "label": "1 RUE D IGNAUVAL, Sainte-Adresse",
    "lat": 49.512492,
    "lng": 0.084147,
    "transactions": [
      {
        "date": "2020-09-30",
        "priceEur": 217500,
        "typeLocal": "Maison",
        "surfaceM2": 135,
        "isVefa": false
      },
      {
        "date": "2020-09-30",
        "priceEur": 435000,
        "typeLocal": "Maison",
        "surfaceM2": 135,
        "isVefa": false
      }
    ]
  },
  "648c42fa0718": {
    "id": "648c42fa0718",
    "label": "30 RUE ALBERT SAMAIN, Le Havre",
    "lat": 49.517039,
    "lng": 0.087359,
    "transactions": [
      {
        "date": "2025-05-21",
        "priceEur": 155000,
        "typeLocal": "Appartement",
        "surfaceM2": 93,
        "isVefa": false
      },
      {
        "date": "2025-04-29",
        "priceEur": 171050,
        "typeLocal": "Appartement",
        "surfaceM2": 98,
        "isVefa": false
      },
      {
        "date": "2023-11-08",
        "priceEur": 173000,
        "typeLocal": "Appartement",
        "surfaceM2": 98,
        "isVefa": false
      },
      {
        "date": "2022-03-04",
        "priceEur": 175000,
        "typeLocal": "Appartement",
        "surfaceM2": 76,
        "isVefa": false
      },
      {
        "date": "2022-01-18",
        "priceEur": 129000,
        "typeLocal": "Appartement",
        "surfaceM2": 62,
        "isVefa": false
      },
      {
        "date": "2020-11-24",
        "priceEur": 60000,
        "typeLocal": "Appartement",
        "surfaceM2": 49,
        "isVefa": false
      }
    ]
  },
  "268c57079a5f": {
    "id": "268c57079a5f",
    "label": "3 PL HYACINTHE CANDON, Sainte-Adresse",
    "lat": 49.512349,
    "lng": 0.083567,
    "transactions": [
      {
        "date": "2025-06-17",
        "priceEur": 198000,
        "typeLocal": "Appartement",
        "surfaceM2": 55,
        "isVefa": false
      },
      {
        "date": "2022-07-04",
        "priceEur": 220000,
        "typeLocal": "Appartement",
        "surfaceM2": 88,
        "isVefa": false
      },
      {
        "date": "2020-11-26",
        "priceEur": 187000,
        "typeLocal": "Appartement",
        "surfaceM2": 69,
        "isVefa": false
      }
    ]
  },
  "47a271f382d6": {
    "id": "47a271f382d6",
    "label": "9 IMP AUX VERTS, Sainte-Adresse",
    "lat": 49.514141,
    "lng": 0.085004,
    "transactions": [
      {
        "date": "2023-09-19",
        "priceEur": 486000,
        "typeLocal": "Maison",
        "surfaceM2": 50,
        "isVefa": false
      },
      {
        "date": "2020-11-27",
        "priceEur": 212000,
        "typeLocal": "Maison",
        "surfaceM2": 50,
        "isVefa": false
      }
    ]
  },
  "59743a2b94af": {
    "id": "59743a2b94af",
    "label": "13 RUE LECHEVALLIER, Sainte-Adresse",
    "lat": 49.512689,
    "lng": 0.086101,
    "transactions": [
      {
        "date": "2020-11-12",
        "priceEur": 1140000,
        "typeLocal": "Maison",
        "surfaceM2": 400,
        "isVefa": false
      }
    ]
  },
  "ffa1d29772cf": {
    "id": "ffa1d29772cf",
    "label": "16 RUE JOSEPH CANDON, Sainte-Adresse",
    "lat": 49.515075,
    "lng": 0.085034,
    "transactions": [
      {
        "date": "2020-12-07",
        "priceEur": 238000,
        "typeLocal": "Maison",
        "surfaceM2": 72,
        "isVefa": false
      }
    ]
  },
  "827e9332dd7d": {
    "id": "827e9332dd7d",
    "label": "1 RUE PLATEAU DE DOLLEMARD, Sainte-Adresse",
    "lat": 49.516049,
    "lng": 0.076999,
    "transactions": [
      {
        "date": "2025-01-31",
        "priceEur": 229500,
        "typeLocal": "Appartement",
        "surfaceM2": 82,
        "isVefa": false
      },
      {
        "date": "2021-07-09",
        "priceEur": 218000,
        "typeLocal": "Appartement",
        "surfaceM2": 98,
        "isVefa": false
      },
      {
        "date": "2020-12-14",
        "priceEur": 200000,
        "typeLocal": "Appartement",
        "surfaceM2": 93,
        "isVefa": false
      }
    ]
  },
  "b446adb5cfc8": {
    "id": "b446adb5cfc8",
    "label": "4 RUE JEAN BOULARD PROLONGEE, Sainte-Adresse",
    "lat": 49.516904,
    "lng": 0.080333,
    "transactions": [
      {
        "date": "2020-12-03",
        "priceEur": 550000,
        "typeLocal": "Maison",
        "surfaceM2": 190,
        "isVefa": false
      }
    ]
  },
  "308a7ea505ea": {
    "id": "308a7ea505ea",
    "label": "84 RUE D IGNAUVAL, Sainte-Adresse",
    "lat": 49.515934,
    "lng": 0.078138,
    "transactions": [
      {
        "date": "2020-12-16",
        "priceEur": 370000,
        "typeLocal": "Maison",
        "surfaceM2": 151,
        "isVefa": false
      }
    ]
  },
  "41e6a7abb65a": {
    "id": "41e6a7abb65a",
    "label": "37 RTE D OCTEVILLE, Sainte-Adresse",
    "lat": 49.512244,
    "lng": 0.086448,
    "transactions": [
      {
        "date": "2021-02-02",
        "priceEur": 422000,
        "typeLocal": "Maison",
        "surfaceM2": 200,
        "isVefa": false
      }
    ]
  },
  "24d622d4efc8": {
    "id": "24d622d4efc8",
    "label": "3 RUE SAINT JEAN, Sainte-Adresse",
    "lat": 49.512936,
    "lng": 0.084979,
    "transactions": [
      {
        "date": "2021-02-25",
        "priceEur": 446000,
        "typeLocal": "Maison",
        "surfaceM2": 140,
        "isVefa": false
      }
    ]
  },
  "f0546fde61a3": {
    "id": "f0546fde61a3",
    "label": "25 RUE JEAN BOULARD, Sainte-Adresse",
    "lat": 49.516987,
    "lng": 0.08132,
    "transactions": [
      {
        "date": "2025-01-27",
        "priceEur": 352070,
        "typeLocal": "Appartement",
        "surfaceM2": 111,
        "isVefa": false
      },
      {
        "date": "2024-05-22",
        "priceEur": 325000,
        "typeLocal": "Appartement",
        "surfaceM2": 78,
        "isVefa": false
      },
      {
        "date": "2023-08-07",
        "priceEur": 420000,
        "typeLocal": "Appartement",
        "surfaceM2": 110,
        "isVefa": false
      },
      {
        "date": "2022-05-31",
        "priceEur": 136000,
        "typeLocal": "Appartement",
        "surfaceM2": 43,
        "isVefa": false
      },
      {
        "date": "2021-04-02",
        "priceEur": 340600,
        "typeLocal": "Appartement",
        "surfaceM2": 96,
        "isVefa": false
      }
    ]
  },
  "7dd13711b315": {
    "id": "7dd13711b315",
    "label": "22 RUE DE LA CAVEE HAIZE, Sainte-Adresse",
    "lat": 49.516855,
    "lng": 0.077866,
    "transactions": [
      {
        "date": "2021-04-13",
        "priceEur": 250000,
        "typeLocal": "Maison",
        "surfaceM2": 100,
        "isVefa": false
      }
    ]
  },
  "c4592ad7606b": {
    "id": "c4592ad7606b",
    "label": "4 IMP JEAN BOULARD, Sainte-Adresse",
    "lat": 49.514967,
    "lng": 0.083499,
    "transactions": [
      {
        "date": "2021-04-09",
        "priceEur": 206000,
        "typeLocal": "Maison",
        "surfaceM2": 57,
        "isVefa": false
      }
    ]
  },
  "f84d9c6d56fc": {
    "id": "f84d9c6d56fc",
    "label": "7 RUE RENE DELILLE, Sainte-Adresse",
    "lat": 49.514955,
    "lng": 0.078507,
    "transactions": [
      {
        "date": "2021-03-18",
        "priceEur": 165900,
        "typeLocal": "Appartement",
        "surfaceM2": 82,
        "isVefa": false
      }
    ]
  },
  "622f470474a1": {
    "id": "622f470474a1",
    "label": "1T RUE JOSEPH CANDON, Sainte-Adresse",
    "lat": 49.514473,
    "lng": 0.08402,
    "transactions": [
      {
        "date": "2021-04-02",
        "priceEur": 441000,
        "typeLocal": "Maison",
        "surfaceM2": 105,
        "isVefa": false
      }
    ]
  },
  "ef86761b456b": {
    "id": "ef86761b456b",
    "label": "21 RUE DES FERMES, Sainte-Adresse",
    "lat": 49.512831,
    "lng": 0.077247,
    "transactions": [
      {
        "date": "2025-02-05",
        "priceEur": 400000,
        "typeLocal": "Maison",
        "surfaceM2": 63,
        "isVefa": false
      },
      {
        "date": "2021-03-09",
        "priceEur": 230000,
        "typeLocal": "Maison",
        "surfaceM2": 63,
        "isVefa": false
      }
    ]
  },
  "55356eeec2fc": {
    "id": "55356eeec2fc",
    "label": "1 IMP DU VAGABOND BIEN AIME, Sainte-Adresse",
    "lat": 49.513281,
    "lng": 0.08301,
    "transactions": [
      {
        "date": "2021-05-12",
        "priceEur": 423010,
        "typeLocal": "Maison",
        "surfaceM2": 140,
        "isVefa": false
      }
    ]
  },
  "a83cf4a566d3": {
    "id": "a83cf4a566d3",
    "label": "2 RUE JEAN BAPTISTE PAUL FREMONT, Sainte-Adresse",
    "lat": 49.513932,
    "lng": 0.084271,
    "transactions": [
      {
        "date": "2021-06-07",
        "priceEur": 212000,
        "typeLocal": "Maison",
        "surfaceM2": 88,
        "isVefa": false
      }
    ]
  },
  "28f76b9ebd34": {
    "id": "28f76b9ebd34",
    "label": "9 RUE LECHEVALLIER, Sainte-Adresse",
    "lat": 49.512553,
    "lng": 0.085666,
    "transactions": [
      {
        "date": "2021-06-11",
        "priceEur": 351000,
        "typeLocal": "Maison",
        "surfaceM2": 95,
        "isVefa": false
      }
    ]
  },
  "715d273da8a9": {
    "id": "715d273da8a9",
    "label": "21 RUE JEAN BOULARD PROLONGEE, Sainte-Adresse",
    "lat": 49.516462,
    "lng": 0.078888,
    "transactions": [
      {
        "date": "2021-06-25",
        "priceEur": 407000,
        "typeLocal": "Maison",
        "surfaceM2": 150,
        "isVefa": false
      }
    ]
  },
  "ba25f84451d2": {
    "id": "ba25f84451d2",
    "label": "86 RUE D IGNAUVAL, Sainte-Adresse",
    "lat": 49.515842,
    "lng": 0.07771,
    "transactions": [
      {
        "date": "2021-07-08",
        "priceEur": 1250000,
        "typeLocal": "Appartement",
        "surfaceM2": 61,
        "isVefa": false
      },
      {
        "date": "2021-07-08",
        "priceEur": 1250000,
        "typeLocal": "Appartement",
        "surfaceM2": 43,
        "isVefa": false
      },
      {
        "date": "2021-07-08",
        "priceEur": 1250000,
        "typeLocal": "Appartement",
        "surfaceM2": 52,
        "isVefa": false
      },
      {
        "date": "2021-07-08",
        "priceEur": 1250000,
        "typeLocal": "Appartement",
        "surfaceM2": 33,
        "isVefa": false
      }
    ]
  },
  "9d1417f9420f": {
    "id": "9d1417f9420f",
    "label": "5 PL HYACINTHE CANDON, Sainte-Adresse",
    "lat": 49.512349,
    "lng": 0.083567,
    "transactions": [
      {
        "date": "2022-09-26",
        "priceEur": 235600,
        "typeLocal": "Appartement",
        "surfaceM2": 88,
        "isVefa": false
      },
      {
        "date": "2021-06-30",
        "priceEur": 238000,
        "typeLocal": "Appartement",
        "surfaceM2": 84,
        "isVefa": false
      }
    ]
  },
  "709e11959201": {
    "id": "709e11959201",
    "label": "37 RUE DE VITANVAL, Sainte-Adresse",
    "lat": 49.511174,
    "lng": 0.084119,
    "transactions": [
      {
        "date": "2021-07-12",
        "priceEur": 752500,
        "typeLocal": "Maison",
        "surfaceM2": 135,
        "isVefa": false
      }
    ]
  },
  "199ba4000547": {
    "id": "199ba4000547",
    "label": "24 ALL MARTIN-LUTHER KING, Le Havre",
    "lat": 49.516139,
    "lng": 0.085968,
    "transactions": [
      {
        "date": "2021-06-29",
        "priceEur": 339000,
        "typeLocal": "Appartement",
        "surfaceM2": 110,
        "isVefa": false
      }
    ]
  },
  "fdc7bc5983ff": {
    "id": "fdc7bc5983ff",
    "label": "16 RUE D IGNAUVAL, Sainte-Adresse",
    "lat": 49.513507,
    "lng": 0.084463,
    "transactions": [
      {
        "date": "2021-07-12",
        "priceEur": 440000,
        "typeLocal": "Maison",
        "surfaceM2": 204,
        "isVefa": false
      }
    ]
  },
  "abee7aed633c": {
    "id": "abee7aed633c",
    "label": "9 SEN DE L'ERMITAGE, Sainte-Adresse",
    "lat": 49.51712,
    "lng": 0.080664,
    "transactions": [
      {
        "date": "2021-07-01",
        "priceEur": 445000,
        "typeLocal": "Maison",
        "surfaceM2": 114,
        "isVefa": false
      }
    ]
  },
  "2fc9a3791ccb": {
    "id": "2fc9a3791ccb",
    "label": "13 RUE JEAN BOULARD PROLONGEE, Sainte-Adresse",
    "lat": 49.516518,
    "lng": 0.079522,
    "transactions": [
      {
        "date": "2023-03-31",
        "priceEur": 190000,
        "typeLocal": "Maison",
        "surfaceM2": 100,
        "isVefa": false
      },
      {
        "date": "2021-06-30",
        "priceEur": 130000,
        "typeLocal": "Maison",
        "surfaceM2": 100,
        "isVefa": false
      }
    ]
  },
  "c0ec7bb9529e": {
    "id": "c0ec7bb9529e",
    "label": "8 RUE BEAULIEU, Sainte-Adresse",
    "lat": 49.511184,
    "lng": 0.081393,
    "transactions": [
      {
        "date": "2021-07-09",
        "priceEur": 252000,
        "typeLocal": "Maison",
        "surfaceM2": 57,
        "isVefa": false
      }
    ]
  },
  "d4cd7641e9b9": {
    "id": "d4cd7641e9b9",
    "label": "7 ALL MARTIN-LUTHER KING, Le Havre",
    "lat": 49.515789,
    "lng": 0.087268,
    "transactions": [
      {
        "date": "2021-07-28",
        "priceEur": 328000,
        "typeLocal": "Maison",
        "surfaceM2": 145,
        "isVefa": false
      }
    ]
  },
  "c57ab5425419": {
    "id": "c57ab5425419",
    "label": "8 ALL MARTIN-LUTHER KING, Le Havre",
    "lat": 49.516822,
    "lng": 0.087574,
    "transactions": [
      {
        "date": "2024-07-22",
        "priceEur": 75000,
        "typeLocal": "Appartement",
        "surfaceM2": 30,
        "isVefa": false
      },
      {
        "date": "2022-06-29",
        "priceEur": 111000,
        "typeLocal": "Appartement",
        "surfaceM2": 68,
        "isVefa": false
      },
      {
        "date": "2021-08-03",
        "priceEur": 83000,
        "typeLocal": "Appartement",
        "surfaceM2": 42,
        "isVefa": false
      }
    ]
  },
  "9f83a6a33d6d": {
    "id": "9f83a6a33d6d",
    "label": "17 RUE JEAN BOULARD PROLONGEE, Sainte-Adresse",
    "lat": 49.516509,
    "lng": 0.079207,
    "transactions": [
      {
        "date": "2021-07-27",
        "priceEur": 320000,
        "typeLocal": "Maison",
        "surfaceM2": 110,
        "isVefa": false
      }
    ]
  },
  "7a834c5e32c2": {
    "id": "7a834c5e32c2",
    "label": "13 SEN DES HOMMES D ARMES, Sainte-Adresse",
    "lat": 49.511715,
    "lng": 0.081899,
    "transactions": [
      {
        "date": "2021-08-24",
        "priceEur": 125000,
        "typeLocal": "Maison",
        "surfaceM2": 56,
        "isVefa": false
      }
    ]
  },
  "6b717b748275": {
    "id": "6b717b748275",
    "label": "17 RUE JOSEPH CANDON, Sainte-Adresse",
    "lat": 49.515277,
    "lng": 0.084352,
    "transactions": [
      {
        "date": "2021-08-26",
        "priceEur": 294500,
        "typeLocal": "Maison",
        "surfaceM2": 100,
        "isVefa": false
      }
    ]
  },
  "37d0adb283e4": {
    "id": "37d0adb283e4",
    "label": "3 IMP DU VAGABOND BIEN AIME, Sainte-Adresse",
    "lat": 49.513365,
    "lng": 0.083143,
    "transactions": [
      {
        "date": "2021-10-13",
        "priceEur": 269000,
        "typeLocal": "Maison",
        "surfaceM2": 67,
        "isVefa": false
      }
    ]
  },
  "b6fa72d0c054": {
    "id": "b6fa72d0c054",
    "label": "1B RUE DE LA CAVEE HAIZE, Sainte-Adresse",
    "lat": 49.516116,
    "lng": 0.07752,
    "transactions": [
      {
        "date": "2024-07-19",
        "priceEur": 210000,
        "typeLocal": "Maison",
        "surfaceM2": 129,
        "isVefa": false
      },
      {
        "date": "2021-08-18",
        "priceEur": 102500,
        "typeLocal": "Maison",
        "surfaceM2": 69,
        "isVefa": false
      }
    ]
  },
  "78c71f6f4eb5": {
    "id": "78c71f6f4eb5",
    "label": "55 RUE CAUCHOISE, Le Havre",
    "lat": 49.517329,
    "lng": 0.08584,
    "transactions": [
      {
        "date": "2021-09-28",
        "priceEur": 353000,
        "typeLocal": "Maison",
        "surfaceM2": 108,
        "isVefa": false
      }
    ]
  },
  "47d5ca36e4c9": {
    "id": "47d5ca36e4c9",
    "label": "22 RUE D IGNAUVAL, Sainte-Adresse",
    "lat": 49.513959,
    "lng": 0.084056,
    "transactions": [
      {
        "date": "2021-11-19",
        "priceEur": 270000,
        "typeLocal": "Maison",
        "surfaceM2": 83,
        "isVefa": false
      }
    ]
  },
  "f14f32b3f1fc": {
    "id": "f14f32b3f1fc",
    "label": "2 RUE LECHEVALLIER, Sainte-Adresse",
    "lat": 49.512187,
    "lng": 0.085018,
    "transactions": [
      {
        "date": "2021-11-08",
        "priceEur": 320320,
        "typeLocal": "Maison",
        "surfaceM2": 121,
        "isVefa": false
      }
    ]
  },
  "5ca96dbe6e62": {
    "id": "5ca96dbe6e62",
    "label": "6 ALL MARTIN-LUTHER KING, Le Havre",
    "lat": 49.516822,
    "lng": 0.087574,
    "transactions": [
      {
        "date": "2024-06-06",
        "priceEur": 178000,
        "typeLocal": "Appartement",
        "surfaceM2": 61,
        "isVefa": false
      },
      {
        "date": "2024-04-23",
        "priceEur": 124890,
        "typeLocal": "Appartement",
        "surfaceM2": 45,
        "isVefa": false
      },
      {
        "date": "2022-03-01",
        "priceEur": 192200,
        "typeLocal": "Appartement",
        "surfaceM2": 81,
        "isVefa": false
      },
      {
        "date": "2022-01-20",
        "priceEur": 116000,
        "typeLocal": "Appartement",
        "surfaceM2": 68,
        "isVefa": false
      },
      {
        "date": "2021-12-07",
        "priceEur": 65300,
        "typeLocal": "Appartement",
        "surfaceM2": 34,
        "isVefa": false
      }
    ]
  },
  "fb9fe35fd654": {
    "id": "fb9fe35fd654",
    "label": "28 RUE DU VAGABOND BIEN AIME, Sainte-Adresse",
    "lat": 49.514701,
    "lng": 0.081154,
    "transactions": [
      {
        "date": "2021-12-21",
        "priceEur": 140000,
        "typeLocal": "Maison",
        "surfaceM2": 59,
        "isVefa": false
      }
    ]
  },
  "bd3c24d73512": {
    "id": "bd3c24d73512",
    "label": "44 ALL MARTIN-LUTHER KING, Le Havre",
    "lat": 49.514882,
    "lng": 0.087774,
    "transactions": [
      {
        "date": "2022-02-03",
        "priceEur": 90000,
        "typeLocal": "Appartement",
        "surfaceM2": 50,
        "isVefa": false
      }
    ]
  },
  "587eb3c7824d": {
    "id": "587eb3c7824d",
    "label": "19 RUE DES 4 FRERES BIARD, Sainte-Adresse",
    "lat": 49.512226,
    "lng": 0.077862,
    "transactions": [
      {
        "date": "2025-04-10",
        "priceEur": 486000,
        "typeLocal": "Maison",
        "surfaceM2": 136,
        "isVefa": false
      },
      {
        "date": "2022-02-04",
        "priceEur": 440000,
        "typeLocal": "Maison",
        "surfaceM2": 136,
        "isVefa": false
      }
    ]
  },
  "4832cf528b94": {
    "id": "4832cf528b94",
    "label": "8 RUE JOSEPH CANDON, Sainte-Adresse",
    "lat": 49.514827,
    "lng": 0.085285,
    "transactions": [
      {
        "date": "2022-04-04",
        "priceEur": 336120,
        "typeLocal": "Maison",
        "surfaceM2": 92,
        "isVefa": false
      }
    ]
  },
  "d93111e039c6": {
    "id": "d93111e039c6",
    "label": "20 RUE DE BLEVILLE, Sainte-Adresse",
    "lat": 49.515574,
    "lng": 0.078415,
    "transactions": [
      {
        "date": "2022-04-15",
        "priceEur": 180000,
        "typeLocal": "Maison",
        "surfaceM2": 89,
        "isVefa": false
      }
    ]
  },
  "d53a26761f12": {
    "id": "d53a26761f12",
    "label": "27 RUE JOSEPH CANDON, Sainte-Adresse",
    "lat": 49.515277,
    "lng": 0.084352,
    "transactions": [
      {
        "date": "2022-04-06",
        "priceEur": 368000,
        "typeLocal": "Maison",
        "surfaceM2": 100,
        "isVefa": false
      }
    ]
  },
  "20f89378ca10": {
    "id": "20f89378ca10",
    "label": "65 RTE D OCTEVILLE, Sainte-Adresse",
    "lat": 49.515701,
    "lng": 0.085419,
    "transactions": [
      {
        "date": "2022-05-16",
        "priceEur": 508000,
        "typeLocal": "Maison",
        "surfaceM2": 133,
        "isVefa": false
      }
    ]
  },
  "f7349b85af44": {
    "id": "f7349b85af44",
    "label": "6 RUE DES FERMES, Sainte-Adresse",
    "lat": 49.514347,
    "lng": 0.07892,
    "transactions": [
      {
        "date": "2022-05-23",
        "priceEur": 121700,
        "typeLocal": "Maison",
        "surfaceM2": 70,
        "isVefa": false
      }
    ]
  },
  "c4de8d33f01e": {
    "id": "c4de8d33f01e",
    "label": "3 RUE CDT LEVAVASSEUR, Sainte-Adresse",
    "lat": 49.511464,
    "lng": 0.077165,
    "transactions": [
      {
        "date": "2022-05-31",
        "priceEur": 382500,
        "typeLocal": "Maison",
        "surfaceM2": 112,
        "isVefa": false
      }
    ]
  },
  "e0e1fbd5dd68": {
    "id": "e0e1fbd5dd68",
    "label": "6 RUE RENE DELILLE, Sainte-Adresse",
    "lat": 49.514764,
    "lng": 0.077486,
    "transactions": [
      {
        "date": "2022-06-15",
        "priceEur": 273000,
        "typeLocal": "Maison",
        "surfaceM2": 100,
        "isVefa": false
      }
    ]
  },
  "fa0ff4d8604f": {
    "id": "fa0ff4d8604f",
    "label": "101 RUE D IGNAUVAL, Sainte-Adresse",
    "lat": 49.514876,
    "lng": 0.077297,
    "transactions": [
      {
        "date": "2023-06-26",
        "priceEur": 269000,
        "typeLocal": "Maison",
        "surfaceM2": 72,
        "isVefa": false
      },
      {
        "date": "2022-07-04",
        "priceEur": 220000,
        "typeLocal": "Maison",
        "surfaceM2": 80,
        "isVefa": false
      }
    ]
  },
  "19290ea17f58": {
    "id": "19290ea17f58",
    "label": "8 RUE CDT E LE GUENNEC, Sainte-Adresse",
    "lat": 49.512212,
    "lng": 0.077572,
    "transactions": [
      {
        "date": "2022-07-08",
        "priceEur": 613000,
        "typeLocal": "Maison",
        "surfaceM2": 165,
        "isVefa": false
      }
    ]
  },
  "85891a2e5b22": {
    "id": "85891a2e5b22",
    "label": "4 PL HYACINTHE CANDON, Sainte-Adresse",
    "lat": 49.512151,
    "lng": 0.084709,
    "transactions": [
      {
        "date": "2022-07-01",
        "priceEur": 755000,
        "typeLocal": "Maison",
        "surfaceM2": 250,
        "isVefa": false
      }
    ]
  },
  "acd978822c0a": {
    "id": "acd978822c0a",
    "label": "2 RUE DE L ARSENAL, Sainte-Adresse",
    "lat": 49.514833,
    "lng": 0.080414,
    "transactions": [
      {
        "date": "2022-06-28",
        "priceEur": 348600,
        "typeLocal": "Maison",
        "surfaceM2": 102,
        "isVefa": false
      }
    ]
  },
  "0eec47282eaa": {
    "id": "0eec47282eaa",
    "label": "6 RUE CDT E LE GUENNEC, Sainte-Adresse",
    "lat": 49.512243,
    "lng": 0.077359,
    "transactions": [
      {
        "date": "2022-07-06",
        "priceEur": 385000,
        "typeLocal": "Maison",
        "surfaceM2": 143,
        "isVefa": false
      }
    ]
  },
  "0a6428c1b993": {
    "id": "0a6428c1b993",
    "label": "48B RUE DE LA CAVEE HAIZE, Le Havre",
    "lat": 49.518062,
    "lng": 0.077468,
    "transactions": [
      {
        "date": "2022-07-22",
        "priceEur": 240000,
        "typeLocal": "Maison",
        "surfaceM2": 107,
        "isVefa": false
      }
    ]
  },
  "0bc3501b5420": {
    "id": "0bc3501b5420",
    "label": "32 ALL MARTIN-LUTHER KING, Le Havre",
    "lat": 49.515527,
    "lng": 0.086477,
    "transactions": [
      {
        "date": "2022-08-10",
        "priceEur": 488800,
        "typeLocal": "Maison",
        "surfaceM2": 196,
        "isVefa": false
      }
    ]
  },
  "39bcbc13b991": {
    "id": "39bcbc13b991",
    "label": "4 RUE DES FERMES, Sainte-Adresse",
    "lat": 49.514449,
    "lng": 0.07907,
    "transactions": [
      {
        "date": "2024-12-23",
        "priceEur": 500000,
        "typeLocal": "Maison",
        "surfaceM2": 84,
        "isVefa": false
      },
      {
        "date": "2022-08-16",
        "priceEur": 239000,
        "typeLocal": "Maison",
        "surfaceM2": 110,
        "isVefa": false
      }
    ]
  },
  "bc459dc35f48": {
    "id": "bc459dc35f48",
    "label": "17 SEN AUGUSTIN FRESNEL, Le Havre",
    "lat": 49.517318,
    "lng": 0.07927,
    "transactions": [
      {
        "date": "2022-08-22",
        "priceEur": 170000,
        "typeLocal": "Maison",
        "surfaceM2": 80,
        "isVefa": false
      }
    ]
  },
  "2c7a697e13fc": {
    "id": "2c7a697e13fc",
    "label": "75B RUE D IGNAUVAL, Sainte-Adresse",
    "lat": 49.515717,
    "lng": 0.078885,
    "transactions": [
      {
        "date": "2022-09-02",
        "priceEur": 295000,
        "typeLocal": "Maison",
        "surfaceM2": 66,
        "isVefa": false
      }
    ]
  },
  "a74db7621682": {
    "id": "a74db7621682",
    "label": "20 RUE JACQUES HAMON, Le Havre",
    "lat": 49.517284,
    "lng": 0.082395,
    "transactions": [
      {
        "date": "2022-09-02",
        "priceEur": 375000,
        "typeLocal": "Maison",
        "surfaceM2": 126,
        "isVefa": false
      }
    ]
  },
  "a3b3015be9a4": {
    "id": "a3b3015be9a4",
    "label": "7 RUE CDT LEVAVASSEUR, Sainte-Adresse",
    "lat": 49.511449,
    "lng": 0.077623,
    "transactions": [
      {
        "date": "2022-09-02",
        "priceEur": 431000,
        "typeLocal": "Maison",
        "surfaceM2": 150,
        "isVefa": false
      }
    ]
  },
  "4c519346b1b5": {
    "id": "4c519346b1b5",
    "label": "9 RUE DE LA CAVEE HAIZE, Sainte-Adresse",
    "lat": 49.516871,
    "lng": 0.077158,
    "transactions": [
      {
        "date": "2023-04-24",
        "priceEur": 230000,
        "typeLocal": "Appartement",
        "surfaceM2": 73,
        "isVefa": false
      },
      {
        "date": "2023-03-08",
        "priceEur": 144000,
        "typeLocal": "Appartement",
        "surfaceM2": 48,
        "isVefa": false
      },
      {
        "date": "2023-02-13",
        "priceEur": 222000,
        "typeLocal": "Appartement",
        "surfaceM2": 64,
        "isVefa": false
      },
      {
        "date": "2023-02-13",
        "priceEur": 211650,
        "typeLocal": "Appartement",
        "surfaceM2": 74,
        "isVefa": false
      },
      {
        "date": "2022-09-21",
        "priceEur": 186290,
        "typeLocal": "Appartement",
        "surfaceM2": 73,
        "isVefa": false
      }
    ]
  },
  "10c4e10a8485": {
    "id": "10c4e10a8485",
    "label": "5 RUE RENE DELILLE, Sainte-Adresse",
    "lat": 49.514955,
    "lng": 0.078507,
    "transactions": [
      {
        "date": "2022-09-16",
        "priceEur": 145000,
        "typeLocal": "Appartement",
        "surfaceM2": 71,
        "isVefa": false
      }
    ]
  },
  "7cc93fb0bbdb": {
    "id": "7cc93fb0bbdb",
    "label": "65 RUE CAUCHOISE, Le Havre",
    "lat": 49.517008,
    "lng": 0.084537,
    "transactions": [
      {
        "date": "2022-09-30",
        "priceEur": 335000,
        "typeLocal": "Maison",
        "surfaceM2": 115,
        "isVefa": false
      }
    ]
  },
  "aca0a1d78d34": {
    "id": "aca0a1d78d34",
    "label": "11 RUE CDT E LE GUENNEC, Sainte-Adresse",
    "lat": 49.512687,
    "lng": 0.07793,
    "transactions": [
      {
        "date": "2022-10-18",
        "priceEur": 392000,
        "typeLocal": "Maison",
        "surfaceM2": 84,
        "isVefa": false
      }
    ]
  },
  "72d06f5436ae": {
    "id": "72d06f5436ae",
    "label": "1T RUE FERDINAND KOECHLIN, Sainte-Adresse",
    "lat": 49.514006,
    "lng": 0.083168,
    "transactions": [
      {
        "date": "2022-10-19",
        "priceEur": 347000,
        "typeLocal": "Maison",
        "surfaceM2": 99,
        "isVefa": false
      }
    ]
  },
  "4e72b101130f": {
    "id": "4e72b101130f",
    "label": "67 RUE D IGNAUVAL, Sainte-Adresse",
    "lat": 49.515809,
    "lng": 0.080091,
    "transactions": [
      {
        "date": "2022-10-28",
        "priceEur": 425000,
        "typeLocal": "Maison",
        "surfaceM2": 106,
        "isVefa": false
      }
    ]
  },
  "bd745e3675a3": {
    "id": "bd745e3675a3",
    "label": "11 RUE JEAN BOULARD PROLONGEE, Sainte-Adresse",
    "lat": 49.516527,
    "lng": 0.079666,
    "transactions": [
      {
        "date": "2022-12-01",
        "priceEur": 370000,
        "typeLocal": "Maison",
        "surfaceM2": 57,
        "isVefa": false
      }
    ]
  },
  "2f9b86f006ba": {
    "id": "2f9b86f006ba",
    "label": "86T RUE D IGNAUVAL, Sainte-Adresse",
    "lat": 49.515628,
    "lng": 0.077263,
    "transactions": [
      {
        "date": "2022-12-16",
        "priceEur": 256000,
        "typeLocal": "Maison",
        "surfaceM2": 95,
        "isVefa": false
      }
    ]
  },
  "9b049beadb3c": {
    "id": "9b049beadb3c",
    "label": "7 SEN LEMONNIER, Sainte-Adresse",
    "lat": 49.51446,
    "lng": 0.085612,
    "transactions": [
      {
        "date": "2023-01-12",
        "priceEur": 436300,
        "typeLocal": "Maison",
        "surfaceM2": 105,
        "isVefa": false
      }
    ]
  },
  "58a370610e6f": {
    "id": "58a370610e6f",
    "label": "16 RUE DES FERMES, Sainte-Adresse",
    "lat": 49.513727,
    "lng": 0.077872,
    "transactions": [
      {
        "date": "2023-03-08",
        "priceEur": 525000,
        "typeLocal": "Maison",
        "surfaceM2": 150,
        "isVefa": false
      }
    ]
  },
  "6e469ed57db3": {
    "id": "6e469ed57db3",
    "label": "3 IMP DES FERMES, Sainte-Adresse",
    "lat": 49.513151,
    "lng": 0.078085,
    "transactions": [
      {
        "date": "2023-03-10",
        "priceEur": 220000,
        "typeLocal": "Maison",
        "surfaceM2": 66,
        "isVefa": false
      }
    ]
  },
  "0c0a28cd7f00": {
    "id": "0c0a28cd7f00",
    "label": "2 RUE SAINT JEAN, Sainte-Adresse",
    "lat": 49.512649,
    "lng": 0.084699,
    "transactions": [
      {
        "date": "2023-03-20",
        "priceEur": 419000,
        "typeLocal": "Maison",
        "surfaceM2": 113,
        "isVefa": false
      }
    ]
  },
  "0a47ee9d1c51": {
    "id": "0a47ee9d1c51",
    "label": "2 RUE JEAN BOULARD, Sainte-Adresse",
    "lat": 49.514882,
    "lng": 0.083226,
    "transactions": [
      {
        "date": "2023-03-28",
        "priceEur": 660000,
        "typeLocal": "Maison",
        "surfaceM2": 144,
        "isVefa": false
      }
    ]
  },
  "1023ed732d9c": {
    "id": "1023ed732d9c",
    "label": "7 RUE DE LA CAVEE HAIZE, Sainte-Adresse",
    "lat": 49.516643,
    "lng": 0.076913,
    "transactions": [
      {
        "date": "2023-03-16",
        "priceEur": 560950,
        "typeLocal": "Maison",
        "surfaceM2": 141,
        "isVefa": false
      }
    ]
  },
  "0d848fc53883": {
    "id": "0d848fc53883",
    "label": "2 RUE DE LA SOLITUDE, Sainte-Adresse",
    "lat": 49.511581,
    "lng": 0.083647,
    "transactions": [
      {
        "date": "2023-05-12",
        "priceEur": 580000,
        "typeLocal": "Maison",
        "surfaceM2": 142,
        "isVefa": false
      }
    ]
  },
  "759c1c8fa291": {
    "id": "759c1c8fa291",
    "label": "46 ALL MARTIN-LUTHER KING, Le Havre",
    "lat": 49.514882,
    "lng": 0.087774,
    "transactions": [
      {
        "date": "2023-05-17",
        "priceEur": 105300,
        "typeLocal": "Appartement",
        "surfaceM2": 50,
        "isVefa": false
      }
    ]
  },
  "e5ce7c367174": {
    "id": "e5ce7c367174",
    "label": "29 RTE D OCTEVILLE, Sainte-Adresse",
    "lat": 49.511549,
    "lng": 0.085775,
    "transactions": [
      {
        "date": "2023-06-06",
        "priceEur": 600000,
        "typeLocal": "Maison",
        "surfaceM2": 135,
        "isVefa": false
      }
    ]
  },
  "c79accd5fdcf": {
    "id": "c79accd5fdcf",
    "label": "71 RUE D IGNAUVAL, Sainte-Adresse",
    "lat": 49.515811,
    "lng": 0.079515,
    "transactions": [
      {
        "date": "2023-06-12",
        "priceEur": 620000,
        "typeLocal": "Maison",
        "surfaceM2": 91,
        "isVefa": false
      }
    ]
  },
  "9e793c72e2ea": {
    "id": "9e793c72e2ea",
    "label": "4 SEN LEMONNIER, Sainte-Adresse",
    "lat": 49.514357,
    "lng": 0.085287,
    "transactions": [
      {
        "date": "2023-07-28",
        "priceEur": 273000,
        "typeLocal": "Maison",
        "surfaceM2": 70,
        "isVefa": false
      }
    ]
  },
  "1701a969d2cf": {
    "id": "1701a969d2cf",
    "label": "4B RUE SAINT JEAN, Sainte-Adresse",
    "lat": 49.512659,
    "lng": 0.085005,
    "transactions": [
      {
        "date": "2023-08-04",
        "priceEur": 389000,
        "typeLocal": "Maison",
        "surfaceM2": 111,
        "isVefa": false
      }
    ]
  },
  "037cbbe51b0f": {
    "id": "037cbbe51b0f",
    "label": "23 ALL MARTIN-LUTHER KING, Le Havre",
    "lat": 49.516167,
    "lng": 0.08644,
    "transactions": [
      {
        "date": "2023-08-25",
        "priceEur": 322000,
        "typeLocal": "Maison",
        "surfaceM2": 106,
        "isVefa": false
      }
    ]
  },
  "52a8e6295aee": {
    "id": "52a8e6295aee",
    "label": "39 RUE JEAN BOULARD, Sainte-Adresse",
    "lat": 49.516728,
    "lng": 0.083086,
    "transactions": [
      {
        "date": "2023-09-01",
        "priceEur": 52500,
        "typeLocal": "Appartement",
        "surfaceM2": 25,
        "isVefa": false
      }
    ]
  },
  "9073403137b3": {
    "id": "9073403137b3",
    "label": "22 RUE DU VAGABOND BIEN AIME, Sainte-Adresse",
    "lat": 49.514157,
    "lng": 0.082939,
    "transactions": [
      {
        "date": "2023-09-15",
        "priceEur": 380000,
        "typeLocal": "Maison",
        "surfaceM2": 108,
        "isVefa": false
      }
    ]
  },
  "d893f5cabc03": {
    "id": "d893f5cabc03",
    "label": "10 RUE LECHEVALLIER, Sainte-Adresse",
    "lat": 49.512251,
    "lng": 0.085787,
    "transactions": [
      {
        "date": "2023-09-25",
        "priceEur": 264000,
        "typeLocal": "Maison",
        "surfaceM2": 32,
        "isVefa": false
      }
    ]
  },
  "79fe65ec55e7": {
    "id": "79fe65ec55e7",
    "label": "29 RUE JEAN BOULARD PROLONGEE, Sainte-Adresse",
    "lat": 49.516844,
    "lng": 0.078096,
    "transactions": [
      {
        "date": "2023-10-06",
        "priceEur": 215000,
        "typeLocal": "Maison",
        "surfaceM2": 50,
        "isVefa": false
      }
    ]
  },
  "b6fed8e3bcea": {
    "id": "b6fed8e3bcea",
    "label": "17 RUE DOCTEUR BAUDOUIN, Le Havre",
    "lat": 49.517812,
    "lng": 0.083917,
    "transactions": [
      {
        "date": "2023-11-08",
        "priceEur": 295000,
        "typeLocal": "Maison",
        "surfaceM2": 108,
        "isVefa": false
      }
    ]
  },
  "ae603b51c7d3": {
    "id": "ae603b51c7d3",
    "label": "4 RUE DE L ARSENAL, Sainte-Adresse",
    "lat": 49.51498,
    "lng": 0.08052,
    "transactions": [
      {
        "date": "2024-02-23",
        "priceEur": 154000,
        "typeLocal": "Maison",
        "surfaceM2": 33,
        "isVefa": false
      },
      {
        "date": "2023-11-08",
        "priceEur": 110000,
        "typeLocal": "Maison",
        "surfaceM2": 33,
        "isVefa": false
      }
    ]
  },
  "1b1745aee2a0": {
    "id": "1b1745aee2a0",
    "label": "6 RUE DE LA SOLITUDE, Sainte-Adresse",
    "lat": 49.510944,
    "lng": 0.082657,
    "transactions": [
      {
        "date": "2023-10-30",
        "priceEur": 860000,
        "typeLocal": "Maison",
        "surfaceM2": 158,
        "isVefa": false
      }
    ]
  },
  "7601f50f93e7": {
    "id": "7601f50f93e7",
    "label": "32 RUE DE LA CAVEE HAIZE, Le Havre",
    "lat": 49.517844,
    "lng": 0.077193,
    "transactions": [
      {
        "date": "2023-11-22",
        "priceEur": 456000,
        "typeLocal": "Maison",
        "surfaceM2": 140,
        "isVefa": false
      }
    ]
  },
  "82c49cead79d": {
    "id": "82c49cead79d",
    "label": "5 SEN DES HOMMES D ARMES, Sainte-Adresse",
    "lat": 49.511571,
    "lng": 0.082811,
    "transactions": [
      {
        "date": "2023-11-30",
        "priceEur": 580000,
        "typeLocal": "Maison",
        "surfaceM2": 110,
        "isVefa": false
      }
    ]
  },
  "95c432db53a3": {
    "id": "95c432db53a3",
    "label": "33 RUE D IGNAUVAL, Sainte-Adresse",
    "lat": 49.51391,
    "lng": 0.083642,
    "transactions": [
      {
        "date": "2023-12-22",
        "priceEur": 160250,
        "typeLocal": "Maison",
        "surfaceM2": 77,
        "isVefa": false
      }
    ]
  },
  "f4e3d054a5bc": {
    "id": "f4e3d054a5bc",
    "label": "7 IMP DU VAGABOND BIEN AIME, Sainte-Adresse",
    "lat": 49.513401,
    "lng": 0.083299,
    "transactions": [
      {
        "date": "2024-01-11",
        "priceEur": 150000,
        "typeLocal": "Maison",
        "surfaceM2": 57,
        "isVefa": false
      }
    ]
  },
  "fd440254e20e": {
    "id": "fd440254e20e",
    "label": "15 RUE CDT LEVAVASSEUR, Sainte-Adresse",
    "lat": 49.511005,
    "lng": 0.078297,
    "transactions": [
      {
        "date": "2024-02-09",
        "priceEur": 290000,
        "typeLocal": "Maison",
        "surfaceM2": 83,
        "isVefa": false
      }
    ]
  },
  "1c9f3d53974c": {
    "id": "1c9f3d53974c",
    "label": "3 RUE EUSTACHE LIBERT, Sainte-Adresse",
    "lat": 49.512039,
    "lng": 0.085288,
    "transactions": [
      {
        "date": "2024-02-26",
        "priceEur": 360000,
        "typeLocal": "Maison",
        "surfaceM2": 123,
        "isVefa": false
      }
    ]
  },
  "ea1c308375f0": {
    "id": "ea1c308375f0",
    "label": "10B RUE DES FERMES, Sainte-Adresse",
    "lat": 49.514133,
    "lng": 0.078488,
    "transactions": [
      {
        "date": "2024-03-08",
        "priceEur": 145000,
        "typeLocal": "Maison",
        "surfaceM2": 103,
        "isVefa": false
      }
    ]
  },
  "1f17b62db6e5": {
    "id": "1f17b62db6e5",
    "label": "3 ALL MARTIN-LUTHER KING, Le Havre",
    "lat": 49.515432,
    "lng": 0.087375,
    "transactions": [
      {
        "date": "2024-03-15",
        "priceEur": 408850,
        "typeLocal": "Maison",
        "surfaceM2": 150,
        "isVefa": false
      }
    ]
  },
  "9736f0b1326c": {
    "id": "9736f0b1326c",
    "label": "4 IMP HOUYVET, Sainte-Adresse",
    "lat": 49.513793,
    "lng": 0.084891,
    "transactions": [
      {
        "date": "2024-03-18",
        "priceEur": 376700,
        "typeLocal": "Maison",
        "surfaceM2": 116,
        "isVefa": false
      }
    ]
  },
  "97c12207b59d": {
    "id": "97c12207b59d",
    "label": "4 RUE DES 4 FRERES BIARD, Sainte-Adresse",
    "lat": 49.511035,
    "lng": 0.078838,
    "transactions": [
      {
        "date": "2024-05-03",
        "priceEur": 365000,
        "typeLocal": "Maison",
        "surfaceM2": 157,
        "isVefa": false
      }
    ]
  },
  "1c95785786e8": {
    "id": "1c95785786e8",
    "label": "12 RUE BEAULIEU, Sainte-Adresse",
    "lat": 49.511426,
    "lng": 0.081562,
    "transactions": [
      {
        "date": "2024-05-03",
        "priceEur": 338000,
        "typeLocal": "Maison",
        "surfaceM2": 57,
        "isVefa": false
      }
    ]
  },
  "8b61d4772e82": {
    "id": "8b61d4772e82",
    "label": "75 RUE D IGNAUVAL, Sainte-Adresse",
    "lat": 49.515713,
    "lng": 0.07904,
    "transactions": [
      {
        "date": "2024-05-14",
        "priceEur": 150005,
        "typeLocal": "Maison",
        "surfaceM2": 178,
        "isVefa": false
      }
    ]
  },
  "de42ac69abf9": {
    "id": "de42ac69abf9",
    "label": "1 IMP LECHEVALLIER, Sainte-Adresse",
    "lat": 49.512155,
    "lng": 0.085443,
    "transactions": [
      {
        "date": "2024-06-18",
        "priceEur": 173000,
        "typeLocal": "Maison",
        "surfaceM2": 38,
        "isVefa": false
      }
    ]
  },
  "0aa1461a3089": {
    "id": "0aa1461a3089",
    "label": "11 SEN LEMONNIER, Sainte-Adresse",
    "lat": 49.514276,
    "lng": 0.085877,
    "transactions": [
      {
        "date": "2024-06-28",
        "priceEur": 90000,
        "typeLocal": "Maison",
        "surfaceM2": 56,
        "isVefa": false
      }
    ]
  },
  "a2c7f9423eb2": {
    "id": "a2c7f9423eb2",
    "label": "1B RUE DES FERMES, Sainte-Adresse",
    "lat": 49.514069,
    "lng": 0.079327,
    "transactions": [
      {
        "date": "2024-07-19",
        "priceEur": 599000,
        "typeLocal": "Maison",
        "surfaceM2": 161,
        "isVefa": false
      }
    ]
  },
  "74b314889e21": {
    "id": "74b314889e21",
    "label": "39 RTE D OCTEVILLE, Sainte-Adresse",
    "lat": 49.512479,
    "lng": 0.086321,
    "transactions": [
      {
        "date": "2024-07-12",
        "priceEur": 630000,
        "typeLocal": "Maison",
        "surfaceM2": 158,
        "isVefa": false
      }
    ]
  },
  "54e17691f380": {
    "id": "54e17691f380",
    "label": "3 RUE DE L ARSENAL, Sainte-Adresse",
    "lat": 49.515106,
    "lng": 0.080124,
    "transactions": [
      {
        "date": "2024-09-02",
        "priceEur": 670000,
        "typeLocal": "Maison",
        "surfaceM2": 190,
        "isVefa": false
      }
    ]
  },
  "57ed68f6773c": {
    "id": "57ed68f6773c",
    "label": "48 ALL MARTIN-LUTHER KING, Le Havre",
    "lat": 49.514882,
    "lng": 0.087774,
    "transactions": [
      {
        "date": "2024-09-19",
        "priceEur": 175000,
        "typeLocal": "Appartement",
        "surfaceM2": 78,
        "isVefa": false
      }
    ]
  },
  "b50c332cba68": {
    "id": "b50c332cba68",
    "label": "29 SEN AUGUSTIN FRESNEL, Le Havre",
    "lat": 49.517398,
    "lng": 0.080056,
    "transactions": [
      {
        "date": "2024-09-12",
        "priceEur": 291000,
        "typeLocal": "Maison",
        "surfaceM2": 89,
        "isVefa": false
      }
    ]
  },
  "75c4df5c2cb5": {
    "id": "75c4df5c2cb5",
    "label": "12 RUE CHEF MECANICIEN MIJOTTE, Sainte-Adresse",
    "lat": 49.511655,
    "lng": 0.078481,
    "transactions": [
      {
        "date": "2024-09-27",
        "priceEur": 470000,
        "typeLocal": "Maison",
        "surfaceM2": 103,
        "isVefa": false
      }
    ]
  },
  "b04f2ad1e96e": {
    "id": "b04f2ad1e96e",
    "label": "8 SEN LEMONNIER, Sainte-Adresse",
    "lat": 49.514089,
    "lng": 0.085809,
    "transactions": [
      {
        "date": "2024-09-18",
        "priceEur": 488000,
        "typeLocal": "Maison",
        "surfaceM2": 162,
        "isVefa": false
      }
    ]
  },
  "5ecf17d4ad35": {
    "id": "5ecf17d4ad35",
    "label": "14 RUE D IGNAUVAL, Sainte-Adresse",
    "lat": 49.513052,
    "lng": 0.084512,
    "transactions": [
      {
        "date": "2024-12-02",
        "priceEur": 850000,
        "typeLocal": "Maison",
        "surfaceM2": 200,
        "isVefa": false
      }
    ]
  },
  "f783dab56faf": {
    "id": "f783dab56faf",
    "label": "30 ALL MARTIN-LUTHER KING, Le Havre",
    "lat": 49.515655,
    "lng": 0.086364,
    "transactions": [
      {
        "date": "2024-12-27",
        "priceEur": 411300,
        "typeLocal": "Maison",
        "surfaceM2": 137,
        "isVefa": false
      }
    ]
  },
  "61861352c269": {
    "id": "61861352c269",
    "label": "6 IMP JEAN BOULARD, Sainte-Adresse",
    "lat": 49.515025,
    "lng": 0.083429,
    "transactions": [
      {
        "date": "2025-01-08",
        "priceEur": 125000,
        "typeLocal": "Maison",
        "surfaceM2": 96,
        "isVefa": false
      }
    ]
  },
  "5c87ec12f3bd": {
    "id": "5c87ec12f3bd",
    "label": "6 RUE JEAN BAPTISTE PAUL FREMONT, Sainte-Adresse",
    "lat": 49.514206,
    "lng": 0.084337,
    "transactions": [
      {
        "date": "2025-01-27",
        "priceEur": 93500,
        "typeLocal": "Maison",
        "surfaceM2": 40,
        "isVefa": false
      }
    ]
  },
  "e7a9660c1555": {
    "id": "e7a9660c1555",
    "label": "18 RUE DE LA CAVEE HAIZE, Sainte-Adresse",
    "lat": 49.516568,
    "lng": 0.077864,
    "transactions": [
      {
        "date": "2025-01-16",
        "priceEur": 237100,
        "typeLocal": "Maison",
        "surfaceM2": 117,
        "isVefa": false
      }
    ]
  },
  "5b7ea8159b7c": {
    "id": "5b7ea8159b7c",
    "label": "23 RUE DES FERMES, Sainte-Adresse",
    "lat": 49.512764,
    "lng": 0.076981,
    "transactions": [
      {
        "date": "2025-02-05",
        "priceEur": 400000,
        "typeLocal": "Maison",
        "surfaceM2": 120,
        "isVefa": false
      }
    ]
  },
  "03bcb2c4245b": {
    "id": "03bcb2c4245b",
    "label": "2 SEN DES HOMMES D ARMES, Sainte-Adresse",
    "lat": 49.512019,
    "lng": 0.083265,
    "transactions": [
      {
        "date": "2025-02-10",
        "priceEur": 935000,
        "typeLocal": "Maison",
        "surfaceM2": 369,
        "isVefa": false
      }
    ]
  },
  "915b7f2c99e7": {
    "id": "915b7f2c99e7",
    "label": "2 IMP JEAN BOULARD, Sainte-Adresse",
    "lat": 49.514906,
    "lng": 0.083569,
    "transactions": [
      {
        "date": "2025-02-21",
        "priceEur": 165000,
        "typeLocal": "Maison",
        "surfaceM2": 45,
        "isVefa": false
      }
    ]
  },
  "503c50605864": {
    "id": "503c50605864",
    "label": "1 RUE CDT LEVAVASSEUR, Sainte-Adresse",
    "lat": 49.511521,
    "lng": 0.076969,
    "transactions": [
      {
        "date": "2025-02-26",
        "priceEur": 355000,
        "typeLocal": "Maison",
        "surfaceM2": 74,
        "isVefa": false
      }
    ]
  },
  "e09be38e1b9e": {
    "id": "e09be38e1b9e",
    "label": "7 IMP DES FERMES, Sainte-Adresse",
    "lat": 49.513381,
    "lng": 0.078718,
    "transactions": [
      {
        "date": "2025-03-03",
        "priceEur": 281850,
        "typeLocal": "Maison",
        "surfaceM2": 67,
        "isVefa": false
      }
    ]
  },
  "52a382d6390c": {
    "id": "52a382d6390c",
    "label": "29 RUE JOSEPH CANDON, Sainte-Adresse",
    "lat": 49.515277,
    "lng": 0.084352,
    "transactions": [
      {
        "date": "2025-05-28",
        "priceEur": 377000,
        "typeLocal": "Maison",
        "surfaceM2": 100,
        "isVefa": false
      }
    ]
  },
  "ea37bbcd83ae": {
    "id": "ea37bbcd83ae",
    "label": "19 SEN AUGUSTIN FRESNEL, Le Havre",
    "lat": 49.517326,
    "lng": 0.079421,
    "transactions": [
      {
        "date": "2025-06-04",
        "priceEur": 71000,
        "typeLocal": "Maison",
        "surfaceM2": 39,
        "isVefa": false
      }
    ]
  }
}