{
  "218dffe60350": {
    "id": "218dffe60350",
    "label": "77 RUE DES AVOCETTES, Lunel",
    "lat": 43.670252,
    "lng": 4.142513,
    "transactions": [
      {
        "date": "2020-08-05",
        "priceEur": 192000,
        "typeLocal": "Maison",
        "surfaceM2": 68,
        "isVefa": false
      }
    ]
  },
  "908c8bdd3edc": {
    "id": "908c8bdd3edc",
    "label": "106 RUE DU GENEVRIER, Lunel",
    "lat": 43.675704,
    "lng": 4.14199,
    "transactions": [
      {
        "date": "2020-09-01",
        "priceEur": 210000,
        "typeLocal": "Maison",
        "surfaceM2": 60,
        "isVefa": false
      }
    ]
  },
  "739e704d15ef": {
    "id": "739e704d15ef",
    "label": "155 RUE VERLAINE, Lunel",
    "lat": 43.670941,
    "lng": 4.142596,
    "transactions": [
      {
        "date": "2023-02-08",
        "priceEur": 279000,
        "typeLocal": "Maison",
        "surfaceM2": 88,
        "isVefa": false
      },
      {
        "date": "2020-10-19",
        "priceEur": 216500,
        "typeLocal": "Maison",
        "surfaceM2": 88,
        "isVefa": false
      }
    ]
  },
  "90f782b48bed": {
    "id": "90f782b48bed",
    "label": "204 RUE PAUL VALERY, Lunel",
    "lat": 43.673427,
    "lng": 4.146537,
    "transactions": [
      {
        "date": "2021-01-08",
        "priceEur": 289000,
        "typeLocal": "Maison",
        "surfaceM2": 81,
        "isVefa": false
      }
    ]
  },
  "f78ad205959e": {
    "id": "f78ad205959e",
    "label": "77 RUE JOSEPH DELTEIL, Lunel",
    "lat": 43.673018,
    "lng": 4.146019,
    "transactions": [
      {
        "date": "2021-01-25",
        "priceEur": 371580,
        "typeLocal": "Maison",
        "surfaceM2": 78,
        "isVefa": false
      }
    ]
  },
  "139aade0e7b1": {
    "id": "139aade0e7b1",
    "label": "31 RUE DE LA CIBOULETTE, Lunel",
    "lat": 43.675237,
    "lng": 4.14295,
    "transactions": [
      {
        "date": "2021-02-10",
        "priceEur": 195500,
        "typeLocal": "Maison",
        "surfaceM2": 75,
        "isVefa": false
      }
    ]
  },
  "9b70444e751c": {
    "id": "9b70444e751c",
    "label": "134A RUE DES AIGRETTES, Lunel",
    "lat": 43.670252,
    "lng": 4.142513,
    "transactions": [
      {
        "date": "2021-02-09",
        "priceEur": 272840,
        "typeLocal": "Maison",
        "surfaceM2": 70,
        "isVefa": false
      }
    ]
  },
  "d0a00ebf6cae": {
    "id": "d0a00ebf6cae",
    "label": "4 RUE COLBERT, Lunel",
    "lat": 43.674448,
    "lng": 4.146054,
    "transactions": [
      {
        "date": "2021-02-05",
        "priceEur": 234000,
        "typeLocal": "Maison",
        "surfaceM2": 83,
        "isVefa": false
      }
    ]
  },
  "bee0cb2c77a7": {
    "id": "bee0cb2c77a7",
    "label": "222 CHE DU TRIANON, Lunel",
    "lat": 43.675675,
    "lng": 4.148493,
    "transactions": [
      {
        "date": "2021-02-25",
        "priceEur": 311900,
        "typeLocal": "Maison",
        "surfaceM2": 88,
        "isVefa": false
      }
    ]
  },
  "e84698f4689d": {
    "id": "e84698f4689d",
    "label": "700 BD DE SAINTE CLAIRE, Lunel",
    "lat": 43.674054,
    "lng": 4.144774,
    "transactions": [
      {
        "date": "2021-03-10",
        "priceEur": 270000,
        "typeLocal": "Maison",
        "surfaceM2": 114,
        "isVefa": false
      }
    ]
  },
  "e507cbb6e093": {
    "id": "e507cbb6e093",
    "label": "626 BD DE SAINTE CLAIRE, Lunel",
    "lat": 43.673567,
    "lng": 4.144145,
    "transactions": [
      {
        "date": "2021-04-08",
        "priceEur": 224000,
        "typeLocal": "Maison",
        "surfaceM2": 93,
        "isVefa": false
      }
    ]
  },
  "fb9ee436db22": {
    "id": "fb9ee436db22",
    "label": "13 IMP DARIUS MILHAUD, Lunel",
    "lat": 43.674013,
    "lng": 4.144643,
    "transactions": [
      {
        "date": "2025-02-11",
        "priceEur": 185000,
        "typeLocal": "Appartement",
        "surfaceM2": 40,
        "isVefa": false
      },
      {
        "date": "2025-02-11",
        "priceEur": 185000,
        "typeLocal": "Appartement",
        "surfaceM2": 45,
        "isVefa": false
      },
      {
        "date": "2021-04-16",
        "priceEur": 236000,
        "typeLocal": "Maison",
        "surfaceM2": 100,
        "isVefa": false
      }
    ]
  },
  "5042b4b3ebeb": {
    "id": "5042b4b3ebeb",
    "label": "248 RUE DES AIGRETTES, Lunel",
    "lat": 43.670252,
    "lng": 4.142513,
    "transactions": [
      {
        "date": "2021-06-03",
        "priceEur": 205000,
        "typeLocal": "Maison",
        "surfaceM2": 66,
        "isVefa": false
      }
    ]
  },
  "bf56bf479e5f": {
    "id": "bf56bf479e5f",
    "label": "83 RUE DU GENEVRIER, Lunel",
    "lat": 43.675428,
    "lng": 4.142262,
    "transactions": [
      {
        "date": "2021-06-28",
        "priceEur": 255700,
        "typeLocal": "Maison",
        "surfaceM2": 100,
        "isVefa": false
      }
    ]
  },
  "2f453a07b4ad": {
    "id": "2f453a07b4ad",
    "label": "40 BD DU GD TRIANON, Lunel",
    "lat": 43.674591,
    "lng": 4.145044,
    "transactions": [
      {
        "date": "2021-07-19",
        "priceEur": 285000,
        "typeLocal": "Maison",
        "surfaceM2": 84,
        "isVefa": false
      }
    ]
  },
  "fdf5861c8804": {
    "id": "fdf5861c8804",
    "label": "84 RUE DU GIROFLIER, Lunel",
    "lat": 43.675054,
    "lng": 4.143562,
    "transactions": [
      {
        "date": "2021-08-25",
        "priceEur": 320000,
        "typeLocal": "Maison",
        "surfaceM2": 106,
        "isVefa": false
      }
    ]
  },
  "6ce75403dea1": {
    "id": "6ce75403dea1",
    "label": "397 AV COLONEL SIMON, Lunel",
    "lat": 43.674129,
    "lng": 4.143151,
    "transactions": [
      {
        "date": "2021-10-19",
        "priceEur": 200000,
        "typeLocal": "Maison",
        "surfaceM2": 68,
        "isVefa": false
      },
      {
        "date": "2021-09-03",
        "priceEur": 380000,
        "typeLocal": "Maison",
        "surfaceM2": 68,
        "isVefa": false
      }
    ]
  },
  "fd9288a60e08": {
    "id": "fd9288a60e08",
    "label": "166 RUE BAUDELAIRE, Lunel",
    "lat": 43.671752,
    "lng": 4.14259,
    "transactions": [
      {
        "date": "2023-02-22",
        "priceEur": 279000,
        "typeLocal": "Maison",
        "surfaceM2": 75,
        "isVefa": false
      },
      {
        "date": "2021-09-23",
        "priceEur": 92500,
        "typeLocal": "Maison",
        "surfaceM2": 75,
        "isVefa": false
      }
    ]
  },
  "d4bae8afa332": {
    "id": "d4bae8afa332",
    "label": "178 RUE MARCEL PAGNOL, Lunel",
    "lat": 43.672423,
    "lng": 4.143975,
    "transactions": [
      {
        "date": "2021-09-23",
        "priceEur": 327150,
        "typeLocal": "Maison",
        "surfaceM2": 98,
        "isVefa": false
      }
    ]
  },
  "ebe646745031": {
    "id": "ebe646745031",
    "label": "85 RUE DU GIROFLIER, Lunel",
    "lat": 43.675022,
    "lng": 4.143914,
    "transactions": [
      {
        "date": "2021-10-28",
        "priceEur": 248000,
        "typeLocal": "Maison",
        "surfaceM2": 87,
        "isVefa": false
      }
    ]
  },
  "afb19ff07dca": {
    "id": "afb19ff07dca",
    "label": "192 RUE LA FONTAINE, Lunel",
    "lat": 43.670726,
    "lng": 4.143215,
    "transactions": [
      {
        "date": "2021-12-22",
        "priceEur": 296000,
        "typeLocal": "Maison",
        "surfaceM2": 73,
        "isVefa": false
      }
    ]
  },
  "c2cc9293d521": {
    "id": "c2cc9293d521",
    "label": "53 RUE DES AVOCETTES, Lunel",
    "lat": 43.670252,
    "lng": 4.142513,
    "transactions": [
      {
        "date": "2021-12-22",
        "priceEur": 222000,
        "typeLocal": "Maison",
        "surfaceM2": 66,
        "isVefa": false
      }
    ]
  },
  "8ec07200bf2e": {
    "id": "8ec07200bf2e",
    "label": "60 IMP LOUVOIS, Lunel",
    "lat": 43.674683,
    "lng": 4.148279,
    "transactions": [
      {
        "date": "2022-01-14",
        "priceEur": 289830,
        "typeLocal": "Maison",
        "surfaceM2": 87,
        "isVefa": false
      }
    ]
  },
  "ee452ca6f465": {
    "id": "ee452ca6f465",
    "label": "500 RUE PAUL VALERY, Lunel",
    "lat": 43.672959,
    "lng": 4.144655,
    "transactions": [
      {
        "date": "2022-01-19",
        "priceEur": 320000,
        "typeLocal": "Maison",
        "surfaceM2": 66,
        "isVefa": false
      }
    ]
  },
  "d0fa9f58c295": {
    "id": "d0fa9f58c295",
    "label": "164 RUE DES AIGRETTES, Lunel",
    "lat": 43.670252,
    "lng": 4.142513,
    "transactions": [
      {
        "date": "2022-01-25",
        "priceEur": 221510,
        "typeLocal": "Maison",
        "surfaceM2": 70,
        "isVefa": false
      }
    ]
  },
  "8df322b3eb1f": {
    "id": "8df322b3eb1f",
    "label": "14 PL ANDRE GIDE, Lunel",
    "lat": 43.672093,
    "lng": 4.145017,
    "transactions": [
      {
        "date": "2022-04-01",
        "priceEur": 244600,
        "typeLocal": "Maison",
        "surfaceM2": 87,
        "isVefa": false
      }
    ]
  },
  "13e4c06b265b": {
    "id": "13e4c06b265b",
    "label": "33 IMP DARIUS MILHAUD, Lunel",
    "lat": 43.674046,
    "lng": 4.144334,
    "transactions": [
      {
        "date": "2022-03-24",
        "priceEur": 227900,
        "typeLocal": "Maison",
        "surfaceM2": 145,
        "isVefa": false
      }
    ]
  },
  "b5932c0c8ae9": {
    "id": "b5932c0c8ae9",
    "label": "88 BD DU GD TRIANON, Lunel",
    "lat": 43.675097,
    "lng": 4.145267,
    "transactions": [
      {
        "date": "2022-05-03",
        "priceEur": 224000,
        "typeLocal": "Maison",
        "surfaceM2": 84,
        "isVefa": false
      }
    ]
  },
  "a0b96914b3d2": {
    "id": "a0b96914b3d2",
    "label": "482 RUE PAUL VALERY, Lunel",
    "lat": 43.672752,
    "lng": 4.144733,
    "transactions": [
      {
        "date": "2022-06-14",
        "priceEur": 346500,
        "typeLocal": "Maison",
        "surfaceM2": 108,
        "isVefa": false
      }
    ]
  },
  "121d8c24fbdd": {
    "id": "121d8c24fbdd",
    "label": "150 BD DU GD TRIANON, Lunel",
    "lat": 43.675484,
    "lng": 4.145234,
    "transactions": [
      {
        "date": "2023-11-03",
        "priceEur": 433000,
        "typeLocal": "Maison",
        "surfaceM2": 100,
        "isVefa": false
      },
      {
        "date": "2022-06-10",
        "priceEur": 373000,
        "typeLocal": "Maison",
        "surfaceM2": 100,
        "isVefa": false
      }
    ]
  },
  "e00c37aba99b": {
    "id": "e00c37aba99b",
    "label": "76 IMP LA FONTAINE, Lunel",
    "lat": 43.669563,
    "lng": 4.142457,
    "transactions": [
      {
        "date": "2022-06-03",
        "priceEur": 257000,
        "typeLocal": "Maison",
        "surfaceM2": 73,
        "isVefa": false
      }
    ]
  },
  "a40fbd8bebfe": {
    "id": "a40fbd8bebfe",
    "label": "47 RUE JOSEPH DELTEIL, Lunel",
    "lat": 43.672755,
    "lng": 4.145811,
    "transactions": [
      {
        "date": "2022-07-25",
        "priceEur": 259400,
        "typeLocal": "Maison",
        "surfaceM2": 106,
        "isVefa": false
      }
    ]
  },
  "aeb6a94e975e": {
    "id": "aeb6a94e975e",
    "label": "332 AV COLONEL SIMON, Lunel",
    "lat": 43.674674,
    "lng": 4.142512,
    "transactions": [
      {
        "date": "2022-08-04",
        "priceEur": 379000,
        "typeLocal": "Maison",
        "surfaceM2": 92,
        "isVefa": false
      }
    ]
  },
  "6ae0013b505a": {
    "id": "6ae0013b505a",
    "label": "524 BD DE SAINTE CLAIRE, Lunel",
    "lat": 43.673083,
    "lng": 4.143055,
    "transactions": [
      {
        "date": "2022-08-12",
        "priceEur": 308000,
        "typeLocal": "Maison",
        "surfaceM2": 117,
        "isVefa": false
      }
    ]
  },
  "e777a23f61a2": {
    "id": "e777a23f61a2",
    "label": "41 RUE DES AVOCETTES, Lunel",
    "lat": 43.670252,
    "lng": 4.142513,
    "transactions": [
      {
        "date": "2022-08-30",
        "priceEur": 255000,
        "typeLocal": "Maison",
        "surfaceM2": 66,
        "isVefa": false
      }
    ]
  },
  "54efd7698a04": {
    "id": "54efd7698a04",
    "label": "71 RUE DES AVOCETTES, Lunel",
    "lat": 43.670252,
    "lng": 4.142513,
    "transactions": [
      {
        "date": "2022-10-18",
        "priceEur": 308750,
        "typeLocal": "Maison",
        "surfaceM2": 90,
        "isVefa": false
      }
    ]
  },
  "70b18bb2ce19": {
    "id": "70b18bb2ce19",
    "label": "86 IMP LA FONTAINE, Lunel",
    "lat": 43.669868,
    "lng": 4.142587,
    "transactions": [
      {
        "date": "2022-10-21",
        "priceEur": 344570,
        "typeLocal": "Maison",
        "surfaceM2": 98,
        "isVefa": false
      }
    ]
  },
  "a77e65bc1fd0": {
    "id": "a77e65bc1fd0",
    "label": "135 BD DU GD TRIANON, Lunel",
    "lat": 43.675384,
    "lng": 4.145768,
    "transactions": [
      {
        "date": "2022-12-01",
        "priceEur": 350000,
        "typeLocal": "Maison",
        "surfaceM2": 80,
        "isVefa": false
      }
    ]
  },
  "a15faaab77ba": {
    "id": "a15faaab77ba",
    "label": "62 PL ANDRE GIDE, Lunel",
    "lat": 43.672093,
    "lng": 4.145017,
    "transactions": [
      {
        "date": "2022-12-12",
        "priceEur": 250000,
        "typeLocal": "Maison",
        "surfaceM2": 87,
        "isVefa": false
      }
    ]
  },
  "ff6db1fcfcbf": {
    "id": "ff6db1fcfcbf",
    "label": "106 RUE BAUDELAIRE, Lunel",
    "lat": 43.671796,
    "lng": 4.141967,
    "transactions": [
      {
        "date": "2022-12-16",
        "priceEur": 215000,
        "typeLocal": "Maison",
        "surfaceM2": 62,
        "isVefa": false
      }
    ]
  },
  "a3b00f6d773e": {
    "id": "a3b00f6d773e",
    "label": "175 RUE DE LA MARJOLAINE, Lunel",
    "lat": 43.675648,
    "lng": 4.143395,
    "transactions": [
      {
        "date": "2023-01-20",
        "priceEur": 321130,
        "typeLocal": "Maison",
        "surfaceM2": 129,
        "isVefa": false
      }
    ]
  },
  "f61122f7612f": {
    "id": "f61122f7612f",
    "label": "173 RUE VERLAINE, Lunel",
    "lat": 43.671128,
    "lng": 4.142948,
    "transactions": [
      {
        "date": "2024-10-10",
        "priceEur": 276300,
        "typeLocal": "Maison",
        "surfaceM2": 76,
        "isVefa": false
      },
      {
        "date": "2023-02-13",
        "priceEur": 280400,
        "typeLocal": "Maison",
        "surfaceM2": 76,
        "isVefa": false
      }
    ]
  },
  "f57da1275c7e": {
    "id": "f57da1275c7e",
    "label": "90 RUE DU GENEVRIER, Lunel",
    "lat": 43.675535,
    "lng": 4.141854,
    "transactions": [
      {
        "date": "2023-03-09",
        "priceEur": 397000,
        "typeLocal": "Maison",
        "surfaceM2": 89,
        "isVefa": false
      }
    ]
  },
  "1955b3475ebc": {
    "id": "1955b3475ebc",
    "label": "192 RUE PAUL VALERY, Lunel",
    "lat": 43.673549,
    "lng": 4.146368,
    "transactions": [
      {
        "date": "2023-02-27",
        "priceEur": 360000,
        "typeLocal": "Maison",
        "surfaceM2": 136,
        "isVefa": false
      }
    ]
  },
  "1576930a2dac": {
    "id": "1576930a2dac",
    "label": "189 RUE MOLIERE, Lunel",
    "lat": 43.670924,
    "lng": 4.144629,
    "transactions": [
      {
        "date": "2023-03-06",
        "priceEur": 368700,
        "typeLocal": "Maison",
        "surfaceM2": 92,
        "isVefa": false
      }
    ]
  },
  "760037de8d0b": {
    "id": "760037de8d0b",
    "label": "26 RUE JOSEPH DELTEIL, Lunel",
    "lat": 43.672696,
    "lng": 4.145292,
    "transactions": [
      {
        "date": "2023-03-25",
        "priceEur": 490000,
        "typeLocal": "Maison",
        "surfaceM2": 100,
        "isVefa": false
      },
      {
        "date": "2023-03-25",
        "priceEur": 490000,
        "typeLocal": "Maison",
        "surfaceM2": 58,
        "isVefa": false
      }
    ]
  },
  "013fb5c3576b": {
    "id": "013fb5c3576b",
    "label": "23 PL JULES ROMAINS, Lunel",
    "lat": 43.671992,
    "lng": 4.143872,
    "transactions": [
      {
        "date": "2023-03-23",
        "priceEur": 230000,
        "typeLocal": "Maison",
        "surfaceM2": 77,
        "isVefa": false
      }
    ]
  },
  "75bed1776b96": {
    "id": "75bed1776b96",
    "label": "181 RUE BAUDELAIRE, Lunel",
    "lat": 43.671517,
    "lng": 4.142617,
    "transactions": [
      {
        "date": "2023-04-13",
        "priceEur": 349750,
        "typeLocal": "Maison",
        "surfaceM2": 99,
        "isVefa": false
      }
    ]
  },
  "b83f05227077": {
    "id": "b83f05227077",
    "label": "157 RUE DU NOISY, Lunel",
    "lat": 43.67417,
    "lng": 4.142382,
    "transactions": [
      {
        "date": "2023-05-09",
        "priceEur": 260000,
        "typeLocal": "Maison",
        "surfaceM2": 76,
        "isVefa": false
      }
    ]
  },
  "27fe77a5fd72": {
    "id": "27fe77a5fd72",
    "label": "170 RUE BAUDELAIRE, Lunel",
    "lat": 43.671743,
    "lng": 4.143002,
    "transactions": [
      {
        "date": "2023-05-25",
        "priceEur": 371400,
        "typeLocal": "Maison",
        "surfaceM2": 100,
        "isVefa": false
      }
    ]
  },
  "14d3aa470bbf": {
    "id": "14d3aa470bbf",
    "label": "183 RUE MOLIERE, Lunel",
    "lat": 43.67098,
    "lng": 4.14482,
    "transactions": [
      {
        "date": "2023-06-28",
        "priceEur": 97844,
        "typeLocal": "Maison",
        "surfaceM2": 105,
        "isVefa": false
      }
    ]
  },
  "93eddd5f9950": {
    "id": "93eddd5f9950",
    "label": "63 RUE VAUBAN, Lunel",
    "lat": 43.674023,
    "lng": 4.146348,
    "transactions": [
      {
        "date": "2023-07-28",
        "priceEur": 351000,
        "typeLocal": "Maison",
        "surfaceM2": 82,
        "isVefa": false
      }
    ]
  },
  "5f8a321c8e07": {
    "id": "5f8a321c8e07",
    "label": "17 RUE MOLIERE, Lunel",
    "lat": 43.6713,
    "lng": 4.144029,
    "transactions": [
      {
        "date": "2023-09-07",
        "priceEur": 266000,
        "typeLocal": "Maison",
        "surfaceM2": 88,
        "isVefa": false
      }
    ]
  },
  "2f5fdf550b0c": {
    "id": "2f5fdf550b0c",
    "label": "235 RUE BAUDELAIRE, Lunel",
    "lat": 43.671049,
    "lng": 4.143437,
    "transactions": [
      {
        "date": "2023-09-25",
        "priceEur": 302450,
        "typeLocal": "Maison",
        "surfaceM2": 105,
        "isVefa": false
      }
    ]
  },
  "6e4f6d6ddbb1": {
    "id": "6e4f6d6ddbb1",
    "label": "51 RUE DE LA MARJOLAINE, Lunel",
    "lat": 43.674947,
    "lng": 4.142451,
    "transactions": [
      {
        "date": "2023-10-17",
        "priceEur": 260000,
        "typeLocal": "Maison",
        "surfaceM2": 110,
        "isVefa": false
      }
    ]
  },
  "42760a0f32d2": {
    "id": "42760a0f32d2",
    "label": "145 RUE DU NOISY, Lunel",
    "lat": 43.674082,
    "lng": 4.142371,
    "transactions": [
      {
        "date": "2023-10-24",
        "priceEur": 170000,
        "typeLocal": "Maison",
        "surfaceM2": 70,
        "isVefa": false
      }
    ]
  },
  "c599fe359036": {
    "id": "c599fe359036",
    "label": "307 RUE LA FONTAINE, Lunel",
    "lat": 43.671678,
    "lng": 4.143905,
    "transactions": [
      {
        "date": "2024-04-05",
        "priceEur": 256500,
        "typeLocal": "Maison",
        "surfaceM2": 76,
        "isVefa": false
      }
    ]
  },
  "703167c60683": {
    "id": "703167c60683",
    "label": "238 RUE DES AIGRETTES, Lunel",
    "lat": 43.670252,
    "lng": 4.142513,
    "transactions": [
      {
        "date": "2024-07-17",
        "priceEur": 185000,
        "typeLocal": "Maison",
        "surfaceM2": 66,
        "isVefa": false
      }
    ]
  },
  "b8ae153fd90f": {
    "id": "b8ae153fd90f",
    "label": "112 PL JEAN PAUL SARTRE, Lunel",
    "lat": 43.672896,
    "lng": 4.143945,
    "transactions": [
      {
        "date": "2024-08-19",
        "priceEur": 333200,
        "typeLocal": "Maison",
        "surfaceM2": 119,
        "isVefa": false
      }
    ]
  },
  "4cf8ceeee301": {
    "id": "4cf8ceeee301",
    "label": "134B RUE DES AIGRETTES, Lunel",
    "lat": 43.670252,
    "lng": 4.142513,
    "transactions": [
      {
        "date": "2024-09-23",
        "priceEur": 235000,
        "typeLocal": "Maison",
        "surfaceM2": 70,
        "isVefa": false
      }
    ]
  },
  "a94496d13a4d": {
    "id": "a94496d13a4d",
    "label": "20 RUE MARCEL PAGNOL, Lunel",
    "lat": 43.672506,
    "lng": 4.14277,
    "transactions": [
      {
        "date": "2024-09-30",
        "priceEur": 240000,
        "typeLocal": "Maison",
        "surfaceM2": 78,
        "isVefa": false
      }
    ]
  },
  "20757cae56d5": {
    "id": "20757cae56d5",
    "label": "20 RUE RIMBAUD, Lunel",
    "lat": 43.671415,
    "lng": 4.142165,
    "transactions": [
      {
        "date": "2025-01-28",
        "priceEur": 256000,
        "typeLocal": "Maison",
        "surfaceM2": 76,
        "isVefa": false
      }
    ]
  },
  "c7ed19bfeb96": {
    "id": "c7ed19bfeb96",
    "label": "76 RUE VAUBAN, Lunel",
    "lat": 43.674138,
    "lng": 4.146805,
    "transactions": [
      {
        "date": "2025-01-31",
        "priceEur": 240000,
        "typeLocal": "Maison",
        "surfaceM2": 86,
        "isVefa": false
      }
    ]
  },
  "b3f4222ac696": {
    "id": "b3f4222ac696",
    "label": "85 PL JEAN PAUL SARTRE, Lunel",
    "lat": 43.67281,
    "lng": 4.144518,
    "transactions": [
      {
        "date": "2025-03-26",
        "priceEur": 313550,
        "typeLocal": "Maison",
        "surfaceM2": 120,
        "isVefa": false
      }
    ]
  },
  "5ad92a4e5a94": {
    "id": "5ad92a4e5a94",
    "label": "381 AV COLONEL SIMON, Lunel",
    "lat": 43.673664,
    "lng": 4.142801,
    "transactions": [
      {
        "date": "2025-04-17",
        "priceEur": 330510,
        "typeLocal": "Maison",
        "surfaceM2": 122,
        "isVefa": false
      }
    ]
  }
}