{
  "e05372732363": {
    "id": "e05372732363",
    "label": "5 RUE LES HAUTS DU PUECH, Fabrègues",
    "lat": 43.548676,
    "lng": 3.766193,
    "transactions": [
      {
        "date": "2020-07-28",
        "priceEur": 450000,
        "typeLocal": "Maison",
        "surfaceM2": 118,
        "isVefa": false
      }
    ]
  },
  "ae3f29704725": {
    "id": "ae3f29704725",
    "label": "797 AV DE COURNONTERRAL, Fabrègues",
    "lat": 43.553874,
    "lng": 3.765193,
    "transactions": [
      {
        "date": "2020-07-24",
        "priceEur": 510900,
        "typeLocal": "Maison",
        "surfaceM2": 179,
        "isVefa": false
      }
    ]
  },
  "5e753c6ee303": {
    "id": "5e753c6ee303",
    "label": "75 RUE DU PONANT, Fabrègues",
    "lat": 43.552383,
    "lng": 3.766421,
    "transactions": [
      {
        "date": "2020-09-07",
        "priceEur": 392250,
        "typeLocal": "Maison",
        "surfaceM2": 121,
        "isVefa": false
      }
    ]
  },
  "bedc3dd4a2a5": {
    "id": "bedc3dd4a2a5",
    "label": "5165 RTE DE COURNONTERRAL, Fabrègues",
    "lat": 43.553679,
    "lng": 3.759201,
    "transactions": [
      {
        "date": "2020-08-18",
        "priceEur": 146215,
        "typeLocal": "Appartement",
        "surfaceM2": 76,
        "isVefa": false
      }
    ]
  },
  "619fc760f7f8": {
    "id": "619fc760f7f8",
    "label": "61F RTE DE COURNONTERRAL, Fabrègues",
    "lat": 43.556002,
    "lng": 3.766371,
    "transactions": [
      {
        "date": "2020-11-10",
        "priceEur": 80000,
        "typeLocal": "Maison",
        "surfaceM2": 60,
        "isVefa": false
      },
      {
        "date": "2020-11-10",
        "priceEur": 80000,
        "typeLocal": "Maison",
        "surfaceM2": 60,
        "isVefa": false
      }
    ]
  },
  "87d0d38bf27c": {
    "id": "87d0d38bf27c",
    "label": "426 CHE DES COURECHES, Fabrègues",
    "lat": 43.553081,
    "lng": 3.767245,
    "transactions": [
      {
        "date": "2020-12-14",
        "priceEur": 450000,
        "typeLocal": "Maison",
        "surfaceM2": 160,
        "isVefa": false
      }
    ]
  },
  "630f43a17e30": {
    "id": "630f43a17e30",
    "label": "5379 CHEMIN DE COURNON, Fabrègues",
    "lat": 43.553859,
    "lng": 3.766693,
    "transactions": [
      {
        "date": "2021-02-05",
        "priceEur": 543110,
        "typeLocal": "Maison",
        "surfaceM2": 168,
        "isVefa": false
      },
      {
        "date": "2021-02-05",
        "priceEur": 543110,
        "typeLocal": "Maison",
        "surfaceM2": 168,
        "isVefa": false
      }
    ]
  },
  "e1715e17578e": {
    "id": "e1715e17578e",
    "label": "290 CHE D AGNAC, Fabrègues",
    "lat": 43.549511,
    "lng": 3.7673,
    "transactions": [
      {
        "date": "2021-08-16",
        "priceEur": 485780,
        "typeLocal": "Maison",
        "surfaceM2": 114,
        "isVefa": false
      }
    ]
  },
  "e8cb08e9598b": {
    "id": "e8cb08e9598b",
    "label": "807 AV DE COURNONTERRAL, Fabrègues",
    "lat": 43.553924,
    "lng": 3.764779,
    "transactions": [
      {
        "date": "2021-10-29",
        "priceEur": 520000,
        "typeLocal": "Maison",
        "surfaceM2": 131,
        "isVefa": false
      }
    ]
  },
  "e21cb99259dc": {
    "id": "e21cb99259dc",
    "label": "537 AV DE COURNONTERRAL, Fabrègues",
    "lat": 43.553712,
    "lng": 3.767883,
    "transactions": [
      {
        "date": "2022-09-16",
        "priceEur": 550000,
        "typeLocal": "Maison",
        "surfaceM2": 101,
        "isVefa": false
      }
    ]
  },
  "051553753821": {
    "id": "051553753821",
    "label": "240 CHE D AGNAC, Fabrègues",
    "lat": 43.549374,
    "lng": 3.767419,
    "transactions": [
      {
        "date": "2022-11-14",
        "priceEur": 378000,
        "typeLocal": "Maison",
        "surfaceM2": 93,
        "isVefa": false
      }
    ]
  },
  "1a2205d84266": {
    "id": "1a2205d84266",
    "label": "4 LOT LES TERRES BLANCHES, Fabrègues",
    "lat": 43.549945,
    "lng": 3.768079,
    "transactions": [
      {
        "date": "2022-11-08",
        "priceEur": 406440,
        "typeLocal": "Maison",
        "surfaceM2": 96,
        "isVefa": false
      }
    ]
  },
  "bdf569036fe0": {
    "id": "bdf569036fe0",
    "label": "2 LOT LES TERRES BLANCHES, Fabrègues",
    "lat": 43.550084,
    "lng": 3.767875,
    "transactions": [
      {
        "date": "2023-05-15",
        "priceEur": 305400,
        "typeLocal": "Maison",
        "surfaceM2": 75,
        "isVefa": false
      }
    ]
  },
  "6a660be7811a": {
    "id": "6a660be7811a",
    "label": "6 RTE DE COURNONTERRAL, Fabrègues",
    "lat": 43.553996,
    "lng": 3.764432,
    "transactions": [
      {
        "date": "2023-11-29",
        "priceEur": 626750,
        "typeLocal": "Maison",
        "surfaceM2": 175,
        "isVefa": false
      },
      {
        "date": "2023-11-29",
        "priceEur": 626750,
        "typeLocal": "Maison",
        "surfaceM2": 175,
        "isVefa": false
      }
    ]
  }
}