{
  "0e9dbc0b87cc": {
    "id": "0e9dbc0b87cc",
    "label": "19 RUE DE L ABBE LEMIRE, La Madeleine",
    "lat": 50.65342,
    "lng": 3.075083,
    "transactions": [
      {
        "date": "2025-02-25",
        "priceEur": 138310,
        "typeLocal": "Appartement",
        "surfaceM2": 38,
        "isVefa": false
      },
      {
        "date": "2024-10-17",
        "priceEur": 228750,
        "typeLocal": "Appartement",
        "surfaceM2": 73,
        "isVefa": false
      },
      {
        "date": "2024-06-04",
        "priceEur": 150250,
        "typeLocal": "Appartement",
        "surfaceM2": 55,
        "isVefa": false
      },
      {
        "date": "2023-11-09",
        "priceEur": 171364.16,
        "typeLocal": "Appartement",
        "surfaceM2": 56,
        "isVefa": false
      },
      {
        "date": "2023-10-26",
        "priceEur": 205000,
        "typeLocal": "Appartement",
        "surfaceM2": 56,
        "isVefa": false
      },
      {
        "date": "2023-09-19",
        "priceEur": 216500,
        "typeLocal": "Appartement",
        "surfaceM2": 56,
        "isVefa": false
      },
      {
        "date": "2023-09-15",
        "priceEur": 339100,
        "typeLocal": "Appartement",
        "surfaceM2": 105,
        "isVefa": false
      },
      {
        "date": "2023-04-18",
        "priceEur": 108000,
        "typeLocal": "Appartement",
        "surfaceM2": 41,
        "isVefa": false
      },
      {
        "date": "2021-10-21",
        "priceEur": 140000,
        "typeLocal": "Appartement",
        "surfaceM2": 56,
        "isVefa": false
      },
      {
        "date": "2021-10-01",
        "priceEur": 186000,
        "typeLocal": "Appartement",
        "surfaceM2": 73,
        "isVefa": false
      },
      {
        "date": "2020-09-15",
        "priceEur": 153000,
        "typeLocal": "Appartement",
        "surfaceM2": 56,
        "isVefa": false
      },
      {
        "date": "2020-07-10",
        "priceEur": 280000,
        "typeLocal": "Appartement",
        "surfaceM2": 125,
        "isVefa": false
      },
      {
        "date": "2020-07-09",
        "priceEur": 146000,
        "typeLocal": "Appartement",
        "surfaceM2": 56,
        "isVefa": false
      }
    ]
  },
  "09d5ad1e8f6d": {
    "id": "09d5ad1e8f6d",
    "label": "33 RUE JEAN MERMOZ, La Madeleine",
    "lat": 50.657398,
    "lng": 3.075579,
    "transactions": [
      {
        "date": "2020-07-16",
        "priceEur": 145000,
        "typeLocal": "Maison",
        "surfaceM2": 63,
        "isVefa": false
      }
    ]
  },
  "af024921e464": {
    "id": "af024921e464",
    "label": "185 RUE DU GENERAL DE GAULLE, La Madeleine",
    "lat": 50.656235,
    "lng": 3.073568,
    "transactions": [
      {
        "date": "2020-07-09",
        "priceEur": 109970,
        "typeLocal": "Appartement",
        "surfaceM2": 43,
        "isVefa": false
      }
    ]
  },
  "d8f1fa3ce41c": {
    "id": "d8f1fa3ce41c",
    "label": "62 RUE LEON TRULIN, La Madeleine",
    "lat": 50.655974,
    "lng": 3.066803,
    "transactions": [
      {
        "date": "2020-07-09",
        "priceEur": 425000,
        "typeLocal": "Maison",
        "surfaceM2": 140,
        "isVefa": false
      }
    ]
  },
  "c8b3b4b956ea": {
    "id": "c8b3b4b956ea",
    "label": "29 RUE DE L ABBE LEMIRE, La Madeleine",
    "lat": 50.65342,
    "lng": 3.075083,
    "transactions": [
      {
        "date": "2024-06-14",
        "priceEur": 204000,
        "typeLocal": "Appartement",
        "surfaceM2": 67,
        "isVefa": false
      },
      {
        "date": "2023-12-22",
        "priceEur": 257500,
        "typeLocal": "Appartement",
        "surfaceM2": 83,
        "isVefa": false
      },
      {
        "date": "2022-04-04",
        "priceEur": 225000,
        "typeLocal": "Appartement",
        "surfaceM2": 52,
        "isVefa": false
      },
      {
        "date": "2021-11-15",
        "priceEur": 249100,
        "typeLocal": "Appartement",
        "surfaceM2": 68,
        "isVefa": false
      },
      {
        "date": "2020-07-07",
        "priceEur": 165500,
        "typeLocal": "Appartement",
        "surfaceM2": 70,
        "isVefa": false
      }
    ]
  },
  "c641121b0fd1": {
    "id": "c641121b0fd1",
    "label": "2 RUE LAMARTINE, La Madeleine",
    "lat": 50.653671,
    "lng": 3.067938,
    "transactions": [
      {
        "date": "2025-01-13",
        "priceEur": 273350,
        "typeLocal": "Appartement",
        "surfaceM2": 74,
        "isVefa": false
      },
      {
        "date": "2022-07-28",
        "priceEur": 130000,
        "typeLocal": "Appartement",
        "surfaceM2": 52,
        "isVefa": false
      },
      {
        "date": "2021-11-17",
        "priceEur": 276000,
        "typeLocal": "Appartement",
        "surfaceM2": 70,
        "isVefa": false
      },
      {
        "date": "2021-06-07",
        "priceEur": 255000,
        "typeLocal": "Appartement",
        "surfaceM2": 71,
        "isVefa": false
      },
      {
        "date": "2020-08-14",
        "priceEur": 167000,
        "typeLocal": "Appartement",
        "surfaceM2": 55,
        "isVefa": false
      }
    ]
  },
  "2ec1c118b2b8": {
    "id": "2ec1c118b2b8",
    "label": "49 RUE DESMAZIERES, La Madeleine",
    "lat": 50.657197,
    "lng": 3.066672,
    "transactions": [
      {
        "date": "2020-07-28",
        "priceEur": 272800,
        "typeLocal": "Maison",
        "surfaceM2": 86,
        "isVefa": false
      }
    ]
  },
  "a1f6254083e2": {
    "id": "a1f6254083e2",
    "label": "2 ALL DU CHATEAU, La Madeleine",
    "lat": 50.65902,
    "lng": 3.075749,
    "transactions": [
      {
        "date": "2020-12-07",
        "priceEur": 125000,
        "typeLocal": "Appartement",
        "surfaceM2": 34,
        "isVefa": false
      },
      {
        "date": "2020-07-15",
        "priceEur": 224000,
        "typeLocal": "Appartement",
        "surfaceM2": 65,
        "isVefa": false
      }
    ]
  },
  "5167a7e79786": {
    "id": "5167a7e79786",
    "label": "7 RUE GEORGES CLEMENCEAU, La Madeleine",
    "lat": 50.654043,
    "lng": 3.067028,
    "transactions": [
      {
        "date": "2020-08-10",
        "priceEur": 374350,
        "typeLocal": "Maison",
        "surfaceM2": 156,
        "isVefa": false
      }
    ]
  },
  "95653e9c51e8": {
    "id": "95653e9c51e8",
    "label": "44 RUE SAINT JOSEPH, La Madeleine",
    "lat": 50.65594,
    "lng": 3.066588,
    "transactions": [
      {
        "date": "2020-08-26",
        "priceEur": 301500,
        "typeLocal": "Maison",
        "surfaceM2": 74,
        "isVefa": false
      }
    ]
  },
  "3f8aae8b5e8d": {
    "id": "3f8aae8b5e8d",
    "label": "226B RUE DU GENERAL DE GAULLE, La Madeleine",
    "lat": 50.657825,
    "lng": 3.074119,
    "transactions": [
      {
        "date": "2020-08-18",
        "priceEur": 460000,
        "typeLocal": "Appartement",
        "surfaceM2": 25,
        "isVefa": false
      },
      {
        "date": "2020-08-18",
        "priceEur": 460000,
        "typeLocal": "Appartement",
        "surfaceM2": 77,
        "isVefa": false
      }
    ]
  },
  "deb9b9c81654": {
    "id": "deb9b9c81654",
    "label": "24 RUE FONTAINE, La Madeleine",
    "lat": 50.654852,
    "lng": 3.076119,
    "transactions": [
      {
        "date": "2021-01-15",
        "priceEur": 425000,
        "typeLocal": "Appartement",
        "surfaceM2": 120,
        "isVefa": false
      },
      {
        "date": "2020-08-28",
        "priceEur": 278000,
        "typeLocal": "Appartement",
        "surfaceM2": 106,
        "isVefa": false
      }
    ]
  },
  "9fc824c02f3a": {
    "id": "9fc824c02f3a",
    "label": "67 RUE FONTAINE, La Madeleine",
    "lat": 50.656245,
    "lng": 3.075495,
    "transactions": [
      {
        "date": "2023-06-26",
        "priceEur": 384500,
        "typeLocal": "Maison",
        "surfaceM2": 94,
        "isVefa": false
      },
      {
        "date": "2020-09-04",
        "priceEur": 227000,
        "typeLocal": "Maison",
        "surfaceM2": 94,
        "isVefa": false
      }
    ]
  },
  "ed83ff551594": {
    "id": "ed83ff551594",
    "label": "25 RUE DE L ABBE LEMIRE, La Madeleine",
    "lat": 50.65342,
    "lng": 3.075083,
    "transactions": [
      {
        "date": "2025-02-20",
        "priceEur": 162000,
        "typeLocal": "Appartement",
        "surfaceM2": 52,
        "isVefa": false
      },
      {
        "date": "2022-12-28",
        "priceEur": 118000,
        "typeLocal": "Appartement",
        "surfaceM2": 36,
        "isVefa": false
      },
      {
        "date": "2022-09-22",
        "priceEur": 200000,
        "typeLocal": "Appartement",
        "surfaceM2": 68,
        "isVefa": false
      },
      {
        "date": "2021-10-15",
        "priceEur": 253000,
        "typeLocal": "Appartement",
        "surfaceM2": 68,
        "isVefa": false
      },
      {
        "date": "2021-07-07",
        "priceEur": 172000,
        "typeLocal": "Appartement",
        "surfaceM2": 67,
        "isVefa": false
      },
      {
        "date": "2021-06-16",
        "priceEur": 241000,
        "typeLocal": "Appartement",
        "surfaceM2": 67,
        "isVefa": false
      },
      {
        "date": "2020-09-02",
        "priceEur": 177800,
        "typeLocal": "Appartement",
        "surfaceM2": 67,
        "isVefa": false
      }
    ]
  },
  "5eacb32f5d7d": {
    "id": "5eacb32f5d7d",
    "label": "51 RUE FRANCOIS DE GUILLEBON, La Madeleine",
    "lat": 50.657895,
    "lng": 3.075761,
    "transactions": [
      {
        "date": "2024-09-11",
        "priceEur": 415000,
        "typeLocal": "Maison",
        "surfaceM2": 72,
        "isVefa": false
      },
      {
        "date": "2021-02-11",
        "priceEur": 230000,
        "typeLocal": "Maison",
        "surfaceM2": 72,
        "isVefa": false
      },
      {
        "date": "2020-09-15",
        "priceEur": 160000,
        "typeLocal": "Maison",
        "surfaceM2": 72,
        "isVefa": false
      }
    ]
  },
  "0d8bb2e419f8": {
    "id": "0d8bb2e419f8",
    "label": "12 RUE DE CONDE, La Madeleine",
    "lat": 50.65342,
    "lng": 3.075083,
    "transactions": [
      {
        "date": "2025-03-03",
        "priceEur": 248560,
        "typeLocal": "Appartement",
        "surfaceM2": 88,
        "isVefa": false
      },
      {
        "date": "2023-09-18",
        "priceEur": 147000,
        "typeLocal": "Appartement",
        "surfaceM2": 52,
        "isVefa": false
      },
      {
        "date": "2023-02-28",
        "priceEur": 317500,
        "typeLocal": "Appartement",
        "surfaceM2": 83,
        "isVefa": false
      },
      {
        "date": "2022-09-01",
        "priceEur": 140000,
        "typeLocal": "Appartement",
        "surfaceM2": 52,
        "isVefa": false
      },
      {
        "date": "2022-07-07",
        "priceEur": 240000,
        "typeLocal": "Appartement",
        "surfaceM2": 68,
        "isVefa": false
      },
      {
        "date": "2021-06-18",
        "priceEur": 190000,
        "typeLocal": "Appartement",
        "surfaceM2": 68,
        "isVefa": false
      },
      {
        "date": "2020-11-06",
        "priceEur": 220000,
        "typeLocal": "Appartement",
        "surfaceM2": 83,
        "isVefa": false
      },
      {
        "date": "2020-09-04",
        "priceEur": 219850,
        "typeLocal": "Appartement",
        "surfaceM2": 68,
        "isVefa": false
      }
    ]
  },
  "8c69a8dc7f3d": {
    "id": "8c69a8dc7f3d",
    "label": "16 RUE GAMBETTA, La Madeleine",
    "lat": 50.655416,
    "lng": 3.072866,
    "transactions": [
      {
        "date": "2020-09-01",
        "priceEur": 378900,
        "typeLocal": "Maison",
        "surfaceM2": 99,
        "isVefa": false
      }
    ]
  },
  "1ce39edd2553": {
    "id": "1ce39edd2553",
    "label": "41 RUE GEORGES CLEMENCEAU, La Madeleine",
    "lat": 50.65323,
    "lng": 3.067068,
    "transactions": [
      {
        "date": "2020-09-25",
        "priceEur": 331410,
        "typeLocal": "Maison",
        "surfaceM2": 120,
        "isVefa": false
      }
    ]
  },
  "db0913fb8328": {
    "id": "db0913fb8328",
    "label": "54 RUE DU CIMETIERE, La Madeleine",
    "lat": 50.659602,
    "lng": 3.065459,
    "transactions": [
      {
        "date": "2025-06-18",
        "priceEur": 190000,
        "typeLocal": "Appartement",
        "surfaceM2": 61,
        "isVefa": false
      },
      {
        "date": "2025-03-11",
        "priceEur": 233000,
        "typeLocal": "Appartement",
        "surfaceM2": 76,
        "isVefa": false
      },
      {
        "date": "2024-08-26",
        "priceEur": 233000,
        "typeLocal": "Appartement",
        "surfaceM2": 64,
        "isVefa": false
      },
      {
        "date": "2023-10-10",
        "priceEur": 242250,
        "typeLocal": "Appartement",
        "surfaceM2": 70,
        "isVefa": false
      },
      {
        "date": "2023-05-24",
        "priceEur": 267000,
        "typeLocal": "Appartement",
        "surfaceM2": 70,
        "isVefa": false
      },
      {
        "date": "2022-03-03",
        "priceEur": 234800,
        "typeLocal": "Appartement",
        "surfaceM2": 64,
        "isVefa": false
      },
      {
        "date": "2021-07-07",
        "priceEur": 181000,
        "typeLocal": "Appartement",
        "surfaceM2": 58,
        "isVefa": false
      },
      {
        "date": "2021-07-02",
        "priceEur": 363800,
        "typeLocal": "Appartement",
        "surfaceM2": 85,
        "isVefa": false
      },
      {
        "date": "2020-09-25",
        "priceEur": 223000,
        "typeLocal": "Appartement",
        "surfaceM2": 64,
        "isVefa": false
      }
    ]
  },
  "1f093d755304": {
    "id": "1f093d755304",
    "label": "1 RUE FONTAINE, La Madeleine",
    "lat": 50.654487,
    "lng": 3.075549,
    "transactions": [
      {
        "date": "2024-12-26",
        "priceEur": 212600,
        "typeLocal": "Appartement",
        "surfaceM2": 74,
        "isVefa": false
      },
      {
        "date": "2020-09-25",
        "priceEur": 208150,
        "typeLocal": "Appartement",
        "surfaceM2": 74,
        "isVefa": false
      }
    ]
  },
  "3d2bb0077424": {
    "id": "3d2bb0077424",
    "label": "8 RUE DE CONDE, La Madeleine",
    "lat": 50.65342,
    "lng": 3.075083,
    "transactions": [
      {
        "date": "2025-01-31",
        "priceEur": 180000,
        "typeLocal": "Appartement",
        "surfaceM2": 68,
        "isVefa": false
      },
      {
        "date": "2025-01-24",
        "priceEur": 172450,
        "typeLocal": "Appartement",
        "surfaceM2": 68,
        "isVefa": false
      },
      {
        "date": "2024-12-27",
        "priceEur": 195000,
        "typeLocal": "Appartement",
        "surfaceM2": 68,
        "isVefa": false
      },
      {
        "date": "2024-12-12",
        "priceEur": 132500,
        "typeLocal": "Appartement",
        "surfaceM2": 35,
        "isVefa": false
      },
      {
        "date": "2024-05-22",
        "priceEur": 180230,
        "typeLocal": "Appartement",
        "surfaceM2": 52,
        "isVefa": false
      },
      {
        "date": "2023-04-04",
        "priceEur": 259000,
        "typeLocal": "Appartement",
        "surfaceM2": 68,
        "isVefa": false
      },
      {
        "date": "2023-03-08",
        "priceEur": 245500,
        "typeLocal": "Appartement",
        "surfaceM2": 83,
        "isVefa": false
      },
      {
        "date": "2023-01-30",
        "priceEur": 186000,
        "typeLocal": "Appartement",
        "surfaceM2": 52,
        "isVefa": false
      },
      {
        "date": "2022-11-14",
        "priceEur": 155000,
        "typeLocal": "Appartement",
        "surfaceM2": 52,
        "isVefa": false
      },
      {
        "date": "2021-12-22",
        "priceEur": 180000,
        "typeLocal": "Appartement",
        "surfaceM2": 68,
        "isVefa": false
      },
      {
        "date": "2021-05-31",
        "priceEur": 185000,
        "typeLocal": "Appartement",
        "surfaceM2": 83,
        "isVefa": false
      },
      {
        "date": "2020-11-20",
        "priceEur": 114000,
        "typeLocal": "Appartement",
        "surfaceM2": 35,
        "isVefa": false
      },
      {
        "date": "2020-09-10",
        "priceEur": 200000,
        "typeLocal": "Appartement",
        "surfaceM2": 68,
        "isVefa": false
      }
    ]
  },
  "7e3193feed8c": {
    "id": "7e3193feed8c",
    "label": "41 RUE FELIX FAURE, La Madeleine",
    "lat": 50.65902,
    "lng": 3.066339,
    "transactions": [
      {
        "date": "2020-10-02",
        "priceEur": 258000,
        "typeLocal": "Maison",
        "surfaceM2": 86,
        "isVefa": false
      }
    ]
  },
  "b071250c1e4e": {
    "id": "b071250c1e4e",
    "label": "2 RUE DE CONDE, La Madeleine",
    "lat": 50.65342,
    "lng": 3.075083,
    "transactions": [
      {
        "date": "2024-10-09",
        "priceEur": 128200,
        "typeLocal": "Appartement",
        "surfaceM2": 34,
        "isVefa": false
      },
      {
        "date": "2024-08-07",
        "priceEur": 272550,
        "typeLocal": "Appartement",
        "surfaceM2": 83,
        "isVefa": false
      },
      {
        "date": "2023-04-20",
        "priceEur": 88032,
        "typeLocal": "Appartement",
        "surfaceM2": 83,
        "isVefa": false
      },
      {
        "date": "2022-05-30",
        "priceEur": 143200,
        "typeLocal": "Appartement",
        "surfaceM2": 35,
        "isVefa": false
      },
      {
        "date": "2022-03-11",
        "priceEur": 215000,
        "typeLocal": "Appartement",
        "surfaceM2": 86,
        "isVefa": false
      },
      {
        "date": "2021-12-21",
        "priceEur": 170350,
        "typeLocal": "Appartement",
        "surfaceM2": 55,
        "isVefa": false
      },
      {
        "date": "2021-10-13",
        "priceEur": 232500,
        "typeLocal": "Appartement",
        "surfaceM2": 71,
        "isVefa": false
      },
      {
        "date": "2021-09-14",
        "priceEur": 100000,
        "typeLocal": "Appartement",
        "surfaceM2": 35,
        "isVefa": false
      },
      {
        "date": "2021-03-15",
        "priceEur": 261000,
        "typeLocal": "Appartement",
        "surfaceM2": 83,
        "isVefa": false
      },
      {
        "date": "2020-09-29",
        "priceEur": 234000,
        "typeLocal": "Appartement",
        "surfaceM2": 83,
        "isVefa": false
      },
      {
        "date": "2020-09-23",
        "priceEur": 226500,
        "typeLocal": "Appartement",
        "surfaceM2": 71,
        "isVefa": false
      }
    ]
  },
  "e977cfd700ad": {
    "id": "e977cfd700ad",
    "label": "153 RUE DU GENERAL DE GAULLE, La Madeleine",
    "lat": 50.65383,
    "lng": 3.072954,
    "transactions": [
      {
        "date": "2020-09-21",
        "priceEur": 378000,
        "typeLocal": "Maison",
        "surfaceM2": 63,
        "isVefa": false
      }
    ]
  },
  "4085f7da8f16": {
    "id": "4085f7da8f16",
    "label": "39 RUE GODEFROY, La Madeleine",
    "lat": 50.657264,
    "lng": 3.072171,
    "transactions": [
      {
        "date": "2020-10-05",
        "priceEur": 190000,
        "typeLocal": "Maison",
        "surfaceM2": 54,
        "isVefa": false
      }
    ]
  },
  "238933abe193": {
    "id": "238933abe193",
    "label": "10 RUE DE VERDUN, La Madeleine",
    "lat": 50.65434,
    "lng": 3.065956,
    "transactions": [
      {
        "date": "2020-10-02",
        "priceEur": 355000,
        "typeLocal": "Maison",
        "surfaceM2": 70,
        "isVefa": false
      }
    ]
  },
  "3a18845f92e6": {
    "id": "3a18845f92e6",
    "label": "146 RUE DU GENERAL DE GAULLE, La Madeleine",
    "lat": 50.653462,
    "lng": 3.073467,
    "transactions": [
      {
        "date": "2020-10-19",
        "priceEur": 358000,
        "typeLocal": "Appartement",
        "surfaceM2": 40,
        "isVefa": false
      },
      {
        "date": "2020-10-19",
        "priceEur": 358000,
        "typeLocal": "Appartement",
        "surfaceM2": 35,
        "isVefa": false
      }
    ]
  },
  "c206a711399d": {
    "id": "c206a711399d",
    "label": "22 RUE DESMAZIERES, La Madeleine",
    "lat": 50.656486,
    "lng": 3.066317,
    "transactions": [
      {
        "date": "2020-10-29",
        "priceEur": 295300,
        "typeLocal": "Maison",
        "surfaceM2": 77,
        "isVefa": false
      }
    ]
  },
  "7a90d15be672": {
    "id": "7a90d15be672",
    "label": "7 RUE JEAN MERMOZ, La Madeleine",
    "lat": 50.656788,
    "lng": 3.07528,
    "transactions": [
      {
        "date": "2020-10-16",
        "priceEur": 320000,
        "typeLocal": "Maison",
        "surfaceM2": 104,
        "isVefa": false
      }
    ]
  },
  "bd7d0532ec68": {
    "id": "bd7d0532ec68",
    "label": "16 RUE JEANNE D ARC, La Madeleine",
    "lat": 50.658953,
    "lng": 3.067207,
    "transactions": [
      {
        "date": "2020-10-09",
        "priceEur": 155000,
        "typeLocal": "Maison",
        "surfaceM2": 58,
        "isVefa": false
      }
    ]
  },
  "5a0aed3a0e6a": {
    "id": "5a0aed3a0e6a",
    "label": "4 ALL DU CHATEAU, La Madeleine",
    "lat": 50.65902,
    "lng": 3.075749,
    "transactions": [
      {
        "date": "2020-10-06",
        "priceEur": 144000,
        "typeLocal": "Appartement",
        "surfaceM2": 43,
        "isVefa": false
      }
    ]
  },
  "db73c027fb65": {
    "id": "db73c027fb65",
    "label": "113 RUE KLEBER, La Madeleine",
    "lat": 50.657914,
    "lng": 3.068562,
    "transactions": [
      {
        "date": "2020-11-04",
        "priceEur": 175000,
        "typeLocal": "Maison",
        "surfaceM2": 77,
        "isVefa": false
      }
    ]
  },
  "265e6fae7170": {
    "id": "265e6fae7170",
    "label": "2 SQ STEENBERGEN, La Madeleine",
    "lat": 50.658522,
    "lng": 3.067187,
    "transactions": [
      {
        "date": "2020-11-10",
        "priceEur": 255000,
        "typeLocal": "Maison",
        "surfaceM2": 75,
        "isVefa": false
      }
    ]
  },
  "94d5b42fd3c1": {
    "id": "94d5b42fd3c1",
    "label": "65 RUE GAMBETTA, La Madeleine",
    "lat": 50.654817,
    "lng": 3.067251,
    "transactions": [
      {
        "date": "2023-12-27",
        "priceEur": 141430,
        "typeLocal": "Appartement",
        "surfaceM2": 61,
        "isVefa": false
      },
      {
        "date": "2020-11-17",
        "priceEur": 190000,
        "typeLocal": "Appartement",
        "surfaceM2": 61,
        "isVefa": false
      }
    ]
  },
  "578afa1782fe": {
    "id": "578afa1782fe",
    "label": "6 RUE CARNOT, La Madeleine",
    "lat": 50.65342,
    "lng": 3.075083,
    "transactions": [
      {
        "date": "2025-02-26",
        "priceEur": 158000,
        "typeLocal": "Appartement",
        "surfaceM2": 67,
        "isVefa": false
      },
      {
        "date": "2024-09-30",
        "priceEur": 99500,
        "typeLocal": "Appartement",
        "surfaceM2": 52,
        "isVefa": false
      },
      {
        "date": "2023-06-23",
        "priceEur": 204800,
        "typeLocal": "Appartement",
        "surfaceM2": 68,
        "isVefa": false
      },
      {
        "date": "2022-11-30",
        "priceEur": 106250,
        "typeLocal": "Appartement",
        "surfaceM2": 36,
        "isVefa": false
      },
      {
        "date": "2021-05-26",
        "priceEur": 138410,
        "typeLocal": "Appartement",
        "surfaceM2": 36,
        "isVefa": false
      },
      {
        "date": "2021-04-08",
        "priceEur": 237000,
        "typeLocal": "Appartement",
        "surfaceM2": 83,
        "isVefa": false
      },
      {
        "date": "2020-12-21",
        "priceEur": 271000,
        "typeLocal": "Appartement",
        "surfaceM2": 83,
        "isVefa": false
      },
      {
        "date": "2020-11-10",
        "priceEur": 143334,
        "typeLocal": "Appartement",
        "surfaceM2": 68,
        "isVefa": false
      }
    ]
  },
  "56cd0a1dace5": {
    "id": "56cd0a1dace5",
    "label": "224 RUE DU GENERAL DE GAULLE, La Madeleine",
    "lat": 50.657624,
    "lng": 3.0741,
    "transactions": [
      {
        "date": "2021-03-30",
        "priceEur": 144400,
        "typeLocal": "Appartement",
        "surfaceM2": 37,
        "isVefa": false
      },
      {
        "date": "2020-11-16",
        "priceEur": 115000,
        "typeLocal": "Appartement",
        "surfaceM2": 47,
        "isVefa": false
      }
    ]
  },
  "140ffa4a7811": {
    "id": "140ffa4a7811",
    "label": "48 RUE FELIX FAURE, La Madeleine",
    "lat": 50.658585,
    "lng": 3.066686,
    "transactions": [
      {
        "date": "2025-01-08",
        "priceEur": 266720,
        "typeLocal": "Maison",
        "surfaceM2": 86,
        "isVefa": false
      },
      {
        "date": "2021-10-21",
        "priceEur": 272000,
        "typeLocal": "Maison",
        "surfaceM2": 86,
        "isVefa": false
      },
      {
        "date": "2020-11-24",
        "priceEur": 234000,
        "typeLocal": "Maison",
        "surfaceM2": 86,
        "isVefa": false
      }
    ]
  },
  "aa4ce3e9b39c": {
    "id": "aa4ce3e9b39c",
    "label": "16 RUE THIERS, La Madeleine",
    "lat": 50.652971,
    "lng": 3.070207,
    "transactions": [
      {
        "date": "2021-12-10",
        "priceEur": 101000,
        "typeLocal": "Appartement",
        "surfaceM2": 20,
        "isVefa": false
      },
      {
        "date": "2021-09-09",
        "priceEur": 68000,
        "typeLocal": "Appartement",
        "surfaceM2": 17,
        "isVefa": false
      },
      {
        "date": "2020-11-18",
        "priceEur": 63000,
        "typeLocal": "Appartement",
        "surfaceM2": 17,
        "isVefa": false
      }
    ]
  },
  "5b38a9ffa71f": {
    "id": "5b38a9ffa71f",
    "label": "31 RUE JEANNE D ARC, La Madeleine",
    "lat": 50.65934,
    "lng": 3.067094,
    "transactions": [
      {
        "date": "2020-11-20",
        "priceEur": 168000,
        "typeLocal": "Maison",
        "surfaceM2": 58,
        "isVefa": false
      }
    ]
  },
  "db7f089fef2e": {
    "id": "db7f089fef2e",
    "label": "81B RUE DU PDT GEORGES POMPIDOU, La Madeleine",
    "lat": 50.653855,
    "lng": 3.068357,
    "transactions": [
      {
        "date": "2022-04-05",
        "priceEur": 137000,
        "typeLocal": "Appartement",
        "surfaceM2": 60,
        "isVefa": false
      },
      {
        "date": "2022-01-31",
        "priceEur": 144300,
        "typeLocal": "Appartement",
        "surfaceM2": 42,
        "isVefa": false
      },
      {
        "date": "2020-11-30",
        "priceEur": 185000,
        "typeLocal": "Appartement",
        "surfaceM2": 70,
        "isVefa": false
      }
    ]
  },
  "0b4ceda44357": {
    "id": "0b4ceda44357",
    "label": "72 AV JOFFRE, La Madeleine",
    "lat": 50.653185,
    "lng": 3.065513,
    "transactions": [
      {
        "date": "2021-06-14",
        "priceEur": 157900,
        "typeLocal": "Appartement",
        "surfaceM2": 61,
        "isVefa": false
      },
      {
        "date": "2020-12-07",
        "priceEur": 142000,
        "typeLocal": "Appartement",
        "surfaceM2": 61,
        "isVefa": false
      }
    ]
  },
  "089f25c35ce7": {
    "id": "089f25c35ce7",
    "label": "34 RUE DE LA PAIX, La Madeleine",
    "lat": 50.657168,
    "lng": 3.072435,
    "transactions": [
      {
        "date": "2020-12-08",
        "priceEur": 208200,
        "typeLocal": "Maison",
        "surfaceM2": 100,
        "isVefa": false
      }
    ]
  },
  "705a475bdca7": {
    "id": "705a475bdca7",
    "label": "38 RUE GAMBETTA, La Madeleine",
    "lat": 50.655349,
    "lng": 3.071783,
    "transactions": [
      {
        "date": "2020-12-07",
        "priceEur": 406000,
        "typeLocal": "Maison",
        "surfaceM2": 88,
        "isVefa": false
      }
    ]
  },
  "b3dfdef382fd": {
    "id": "b3dfdef382fd",
    "label": "2 RUE PASTEUR, La Madeleine",
    "lat": 50.65342,
    "lng": 3.075083,
    "transactions": [
      {
        "date": "2023-11-07",
        "priceEur": 115000,
        "typeLocal": "Appartement",
        "surfaceM2": 35,
        "isVefa": false
      },
      {
        "date": "2023-10-30",
        "priceEur": 22000,
        "typeLocal": "Appartement",
        "surfaceM2": 73,
        "isVefa": false
      },
      {
        "date": "2023-10-10",
        "priceEur": 177000,
        "typeLocal": "Appartement",
        "surfaceM2": 68,
        "isVefa": false
      },
      {
        "date": "2023-09-06",
        "priceEur": 129000,
        "typeLocal": "Appartement",
        "surfaceM2": 52,
        "isVefa": false
      },
      {
        "date": "2023-09-04",
        "priceEur": 195000,
        "typeLocal": "Appartement",
        "surfaceM2": 68,
        "isVefa": false
      },
      {
        "date": "2022-03-18",
        "priceEur": 209000,
        "typeLocal": "Appartement",
        "surfaceM2": 73,
        "isVefa": false
      },
      {
        "date": "2022-02-28",
        "priceEur": 144000,
        "typeLocal": "Appartement",
        "surfaceM2": 52,
        "isVefa": false
      },
      {
        "date": "2022-02-24",
        "priceEur": 140000,
        "typeLocal": "Appartement",
        "surfaceM2": 68,
        "isVefa": false
      },
      {
        "date": "2021-11-25",
        "priceEur": 250000,
        "typeLocal": "Appartement",
        "surfaceM2": 83,
        "isVefa": false
      },
      {
        "date": "2020-12-15",
        "priceEur": 232000,
        "typeLocal": "Appartement",
        "surfaceM2": 83,
        "isVefa": false
      }
    ]
  },
  "e7d39c3ee537": {
    "id": "e7d39c3ee537",
    "label": "10 RUE SAINT JOSEPH, La Madeleine",
    "lat": 50.65524,
    "lng": 3.067794,
    "transactions": [
      {
        "date": "2020-12-18",
        "priceEur": 153100,
        "typeLocal": "Appartement",
        "surfaceM2": 52,
        "isVefa": false
      }
    ]
  },
  "0cf4be27d0c2": {
    "id": "0cf4be27d0c2",
    "label": "16 RUE DES GANTOIS, La Madeleine",
    "lat": 50.653204,
    "lng": 3.068003,
    "transactions": [
      {
        "date": "2020-12-17",
        "priceEur": 352000,
        "typeLocal": "Appartement",
        "surfaceM2": 46,
        "isVefa": false
      },
      {
        "date": "2020-12-17",
        "priceEur": 352000,
        "typeLocal": "Appartement",
        "surfaceM2": 22,
        "isVefa": false
      }
    ]
  },
  "2e1f7a91d37a": {
    "id": "2e1f7a91d37a",
    "label": "70 AV JOFFRE, La Madeleine",
    "lat": 50.653185,
    "lng": 3.065513,
    "transactions": [
      {
        "date": "2022-09-09",
        "priceEur": 243000,
        "typeLocal": "Appartement",
        "surfaceM2": 76,
        "isVefa": false
      },
      {
        "date": "2021-05-17",
        "priceEur": 213000,
        "typeLocal": "Appartement",
        "surfaceM2": 70,
        "isVefa": false
      },
      {
        "date": "2020-12-15",
        "priceEur": 219000,
        "typeLocal": "Appartement",
        "surfaceM2": 70,
        "isVefa": false
      }
    ]
  },
  "179d08e14615": {
    "id": "179d08e14615",
    "label": "50 RUE FONTAINE, La Madeleine",
    "lat": 50.655559,
    "lng": 3.076038,
    "transactions": [
      {
        "date": "2020-12-18",
        "priceEur": 408500,
        "typeLocal": "Maison",
        "surfaceM2": 65,
        "isVefa": false
      }
    ]
  },
  "f1d9340ce972": {
    "id": "f1d9340ce972",
    "label": "15 RUE DE L ABBE LEMIRE, La Madeleine",
    "lat": 50.65342,
    "lng": 3.075083,
    "transactions": [
      {
        "date": "2025-04-29",
        "priceEur": 283000,
        "typeLocal": "Appartement",
        "surfaceM2": 86,
        "isVefa": false
      },
      {
        "date": "2025-02-26",
        "priceEur": 210237,
        "typeLocal": "Appartement",
        "surfaceM2": 83,
        "isVefa": false
      },
      {
        "date": "2024-09-13",
        "priceEur": 179000,
        "typeLocal": "Appartement",
        "surfaceM2": 68,
        "isVefa": false
      },
      {
        "date": "2021-09-16",
        "priceEur": 195000,
        "typeLocal": "Appartement",
        "surfaceM2": 83,
        "isVefa": false
      },
      {
        "date": "2021-05-12",
        "priceEur": 185000,
        "typeLocal": "Appartement",
        "surfaceM2": 83,
        "isVefa": false
      },
      {
        "date": "2020-12-18",
        "priceEur": 249950,
        "typeLocal": "Appartement",
        "surfaceM2": 86,
        "isVefa": false
      }
    ]
  },
  "ca40e4b8dd99": {
    "id": "ca40e4b8dd99",
    "label": "22 RUE EUGENE D HALLENDRE, La Madeleine",
    "lat": 50.658401,
    "lng": 3.069701,
    "transactions": [
      {
        "date": "2020-12-17",
        "priceEur": 270000,
        "typeLocal": "Maison",
        "surfaceM2": 79,
        "isVefa": false
      }
    ]
  },
  "5dd5f9987729": {
    "id": "5dd5f9987729",
    "label": "15 RUE FELIX FAURE, La Madeleine",
    "lat": 50.65868,
    "lng": 3.067693,
    "transactions": [
      {
        "date": "2020-12-21",
        "priceEur": 241570,
        "typeLocal": "Maison",
        "surfaceM2": 73,
        "isVefa": false
      }
    ]
  },
  "b0283c0f7054": {
    "id": "b0283c0f7054",
    "label": "6 ALL DU CHATEAU, La Madeleine",
    "lat": 50.65902,
    "lng": 3.075749,
    "transactions": [
      {
        "date": "2021-07-27",
        "priceEur": 151000,
        "typeLocal": "Appartement",
        "surfaceM2": 43,
        "isVefa": false
      },
      {
        "date": "2021-06-08",
        "priceEur": 258000,
        "typeLocal": "Appartement",
        "surfaceM2": 81,
        "isVefa": false
      },
      {
        "date": "2020-12-28",
        "priceEur": 132000,
        "typeLocal": "Appartement",
        "surfaceM2": 39,
        "isVefa": false
      }
    ]
  },
  "85d6065e9616": {
    "id": "85d6065e9616",
    "label": "26 RUE DE LA CONCORDE, La Madeleine",
    "lat": 50.658387,
    "lng": 3.075037,
    "transactions": [
      {
        "date": "2020-12-28",
        "priceEur": 369000,
        "typeLocal": "Maison",
        "surfaceM2": 109,
        "isVefa": false
      }
    ]
  },
  "7a8de2e70fca": {
    "id": "7a8de2e70fca",
    "label": "39 RUE GEORGES CLEMENCEAU, La Madeleine",
    "lat": 50.653284,
    "lng": 3.06709,
    "transactions": [
      {
        "date": "2021-01-14",
        "priceEur": 280000,
        "typeLocal": "Maison",
        "surfaceM2": 93,
        "isVefa": false
      }
    ]
  },
  "bd7c446422f5": {
    "id": "bd7c446422f5",
    "label": "153 RUE JEANNE MAILLOTTE, La Madeleine",
    "lat": 50.653408,
    "lng": 3.068652,
    "transactions": [
      {
        "date": "2021-01-22",
        "priceEur": 325000,
        "typeLocal": "Maison",
        "surfaceM2": 87,
        "isVefa": false
      }
    ]
  },
  "1f27a7517eb7": {
    "id": "1f27a7517eb7",
    "label": "10 RUE LAMARTINE, La Madeleine",
    "lat": 50.65331,
    "lng": 3.068033,
    "transactions": [
      {
        "date": "2023-04-14",
        "priceEur": 218000,
        "typeLocal": "Appartement",
        "surfaceM2": 62,
        "isVefa": false
      },
      {
        "date": "2021-01-18",
        "priceEur": 168500,
        "typeLocal": "Appartement",
        "surfaceM2": 62,
        "isVefa": false
      }
    ]
  },
  "fde0977fc63e": {
    "id": "fde0977fc63e",
    "label": "55 AV JOFFRE, La Madeleine",
    "lat": 50.653774,
    "lng": 3.066015,
    "transactions": [
      {
        "date": "2021-01-25",
        "priceEur": 248000,
        "typeLocal": "Maison",
        "surfaceM2": 108,
        "isVefa": false
      }
    ]
  },
  "6c926c870df6": {
    "id": "6c926c870df6",
    "label": "31 RUE DU MOULIN, La Madeleine",
    "lat": 50.653133,
    "lng": 3.071077,
    "transactions": [
      {
        "date": "2021-01-05",
        "priceEur": 250000,
        "typeLocal": "Maison",
        "surfaceM2": 59,
        "isVefa": false
      }
    ]
  },
  "a172e2b3e4b1": {
    "id": "a172e2b3e4b1",
    "label": "1A RUE DESAIX, La Madeleine",
    "lat": 50.657545,
    "lng": 3.074216,
    "transactions": [
      {
        "date": "2021-02-02",
        "priceEur": 220800,
        "typeLocal": "Maison",
        "surfaceM2": 112,
        "isVefa": false
      }
    ]
  },
  "0b6f3f807b6b": {
    "id": "0b6f3f807b6b",
    "label": "225 RUE DU GENERAL DE GAULLE, La Madeleine",
    "lat": 50.657428,
    "lng": 3.073504,
    "transactions": [
      {
        "date": "2021-08-26",
        "priceEur": 125000,
        "typeLocal": "Appartement",
        "surfaceM2": 60,
        "isVefa": false
      },
      {
        "date": "2021-01-29",
        "priceEur": 100000,
        "typeLocal": "Appartement",
        "surfaceM2": 60,
        "isVefa": false
      }
    ]
  },
  "1bc76883f145": {
    "id": "1bc76883f145",
    "label": "2 CITE CHANZY RUE CHANZY, La Madeleine",
    "lat": 50.65583,
    "lng": 3.07613,
    "transactions": [
      {
        "date": "2021-01-28",
        "priceEur": 258000,
        "typeLocal": "Maison",
        "surfaceM2": 68,
        "isVefa": false
      }
    ]
  },
  "50acea4ee8dc": {
    "id": "50acea4ee8dc",
    "label": "20 RUE THIERS, La Madeleine",
    "lat": 50.652975,
    "lng": 3.07003,
    "transactions": [
      {
        "date": "2021-01-22",
        "priceEur": 423000,
        "typeLocal": "Maison",
        "surfaceM2": 102,
        "isVefa": false
      }
    ]
  },
  "19980f6dbd12": {
    "id": "19980f6dbd12",
    "label": "88 RUE GAMBETTA, La Madeleine",
    "lat": 50.655132,
    "lng": 3.06733,
    "transactions": [
      {
        "date": "2023-05-09",
        "priceEur": 250000,
        "typeLocal": "Appartement",
        "surfaceM2": 92,
        "isVefa": false
      },
      {
        "date": "2022-07-25",
        "priceEur": 214600,
        "typeLocal": "Appartement",
        "surfaceM2": 63,
        "isVefa": false
      },
      {
        "date": "2021-02-15",
        "priceEur": 234900,
        "typeLocal": "Appartement",
        "surfaceM2": 92,
        "isVefa": false
      }
    ]
  },
  "44648f47a10c": {
    "id": "44648f47a10c",
    "label": "75 RUE DU PDT GEORGES POMPIDOU, La Madeleine",
    "lat": 50.653664,
    "lng": 3.069105,
    "transactions": [
      {
        "date": "2022-06-23",
        "priceEur": 76000,
        "typeLocal": "Appartement",
        "surfaceM2": 28,
        "isVefa": false
      },
      {
        "date": "2021-04-09",
        "priceEur": 88500,
        "typeLocal": "Appartement",
        "surfaceM2": 24,
        "isVefa": false
      },
      {
        "date": "2021-03-24",
        "priceEur": 80000,
        "typeLocal": "Appartement",
        "surfaceM2": 28,
        "isVefa": false
      },
      {
        "date": "2021-03-22",
        "priceEur": 104000,
        "typeLocal": "Appartement",
        "surfaceM2": 35,
        "isVefa": false
      },
      {
        "date": "2021-03-18",
        "priceEur": 115500,
        "typeLocal": "Appartement",
        "surfaceM2": 40,
        "isVefa": false
      },
      {
        "date": "2021-02-05",
        "priceEur": 76000,
        "typeLocal": "Appartement",
        "surfaceM2": 24,
        "isVefa": false
      }
    ]
  },
  "0e285c8ced93": {
    "id": "0e285c8ced93",
    "label": "10 RUE GUYNEMER, La Madeleine",
    "lat": 50.655061,
    "lng": 3.074782,
    "transactions": [
      {
        "date": "2022-03-21",
        "priceEur": 96000,
        "typeLocal": "Appartement",
        "surfaceM2": 34,
        "isVefa": false
      },
      {
        "date": "2021-10-30",
        "priceEur": 212400,
        "typeLocal": "Appartement",
        "surfaceM2": 65,
        "isVefa": false
      },
      {
        "date": "2021-01-29",
        "priceEur": 186000,
        "typeLocal": "Appartement",
        "surfaceM2": 65,
        "isVefa": false
      }
    ]
  },
  "1178cdc12236": {
    "id": "1178cdc12236",
    "label": "10 RUE GODEFROY, La Madeleine",
    "lat": 50.657776,
    "lng": 3.073112,
    "transactions": [
      {
        "date": "2021-11-12",
        "priceEur": 297000,
        "typeLocal": "Maison",
        "surfaceM2": 80,
        "isVefa": false
      },
      {
        "date": "2021-02-12",
        "priceEur": 155000,
        "typeLocal": "Maison",
        "surfaceM2": 80,
        "isVefa": false
      }
    ]
  },
  "82f21d79e379": {
    "id": "82f21d79e379",
    "label": "18 RUE KLEBER, La Madeleine",
    "lat": 50.655757,
    "lng": 3.070272,
    "transactions": [
      {
        "date": "2021-07-02",
        "priceEur": 195000,
        "typeLocal": "Maison",
        "surfaceM2": 78,
        "isVefa": false
      },
      {
        "date": "2021-02-18",
        "priceEur": 140000,
        "typeLocal": "Maison",
        "surfaceM2": 78,
        "isVefa": false
      }
    ]
  },
  "6282dda71815": {
    "id": "6282dda71815",
    "label": "242 RUE DU GENERAL DE GAULLE, La Madeleine",
    "lat": 50.65841,
    "lng": 3.074062,
    "transactions": [
      {
        "date": "2021-03-02",
        "priceEur": 240000,
        "typeLocal": "Maison",
        "surfaceM2": 60,
        "isVefa": false
      }
    ]
  },
  "81a0d553a981": {
    "id": "81a0d553a981",
    "label": "135 RUE DU PDT GEORGES POMPIDOU, La Madeleine",
    "lat": 50.654891,
    "lng": 3.065354,
    "transactions": [
      {
        "date": "2023-03-20",
        "priceEur": 250000,
        "typeLocal": "Maison",
        "surfaceM2": 70,
        "isVefa": false
      },
      {
        "date": "2021-03-10",
        "priceEur": 255450,
        "typeLocal": "Maison",
        "surfaceM2": 70,
        "isVefa": false
      }
    ]
  },
  "bcfaea9c17d4": {
    "id": "bcfaea9c17d4",
    "label": "39 RUE EUGENE D HALLENDRE, La Madeleine",
    "lat": 50.659162,
    "lng": 3.070373,
    "transactions": [
      {
        "date": "2021-03-03",
        "priceEur": 247000,
        "typeLocal": "Maison",
        "surfaceM2": 81,
        "isVefa": false
      }
    ]
  },
  "e32f94220409": {
    "id": "e32f94220409",
    "label": "2T RUE EUGENE D HALLENDRE, La Madeleine",
    "lat": 50.658283,
    "lng": 3.068814,
    "transactions": [
      {
        "date": "2021-04-02",
        "priceEur": 203000,
        "typeLocal": "Maison",
        "surfaceM2": 57,
        "isVefa": false
      }
    ]
  },
  "934cd855b52a": {
    "id": "934cd855b52a",
    "label": "37 AV JOFFRE, La Madeleine",
    "lat": 50.654265,
    "lng": 3.065504,
    "transactions": [
      {
        "date": "2021-11-15",
        "priceEur": 190000,
        "typeLocal": "Maison",
        "surfaceM2": 73,
        "isVefa": false
      },
      {
        "date": "2021-03-31",
        "priceEur": 122000,
        "typeLocal": "Maison",
        "surfaceM2": 73,
        "isVefa": false
      }
    ]
  },
  "cfa14995ec19": {
    "id": "cfa14995ec19",
    "label": "41 RUE GODEFROY, La Madeleine",
    "lat": 50.657215,
    "lng": 3.072122,
    "transactions": [
      {
        "date": "2022-11-02",
        "priceEur": 375000,
        "typeLocal": "Maison",
        "surfaceM2": 150,
        "isVefa": false
      },
      {
        "date": "2021-04-20",
        "priceEur": 362000,
        "typeLocal": "Maison",
        "surfaceM2": 150,
        "isVefa": false
      }
    ]
  },
  "2a9792d72d84": {
    "id": "2a9792d72d84",
    "label": "23 RUE DESAIX, La Madeleine",
    "lat": 50.657405,
    "lng": 3.075351,
    "transactions": [
      {
        "date": "2021-04-20",
        "priceEur": 575500,
        "typeLocal": "Maison",
        "surfaceM2": 132,
        "isVefa": false
      }
    ]
  },
  "3dee28436382": {
    "id": "3dee28436382",
    "label": "8 RUE GEORGES CLEMENCEAU, La Madeleine",
    "lat": 50.653977,
    "lng": 3.066492,
    "transactions": [
      {
        "date": "2021-04-26",
        "priceEur": 210000,
        "typeLocal": "Maison",
        "surfaceM2": 85,
        "isVefa": false
      }
    ]
  },
  "2e96a8e7c06b": {
    "id": "2e96a8e7c06b",
    "label": "21 RUE DE LA GARE, La Madeleine",
    "lat": 50.659877,
    "lng": 3.072972,
    "transactions": [
      {
        "date": "2021-05-06",
        "priceEur": 305000,
        "typeLocal": "Maison",
        "surfaceM2": 71,
        "isVefa": false
      }
    ]
  },
  "1497ceb1703e": {
    "id": "1497ceb1703e",
    "label": "16 RUE JEAN MERMOZ, La Madeleine",
    "lat": 50.656955,
    "lng": 3.075816,
    "transactions": [
      {
        "date": "2021-05-11",
        "priceEur": 299200,
        "typeLocal": "Maison",
        "surfaceM2": 80,
        "isVefa": false
      }
    ]
  },
  "822472080e0a": {
    "id": "822472080e0a",
    "label": "71 AV JOFFRE, La Madeleine",
    "lat": 50.653411,
    "lng": 3.066072,
    "transactions": [
      {
        "date": "2021-05-19",
        "priceEur": 301000,
        "typeLocal": "Maison",
        "surfaceM2": 112,
        "isVefa": false
      }
    ]
  },
  "6188542a468a": {
    "id": "6188542a468a",
    "label": "47 RES VICTOR HUGO, La Madeleine",
    "lat": 50.654562,
    "lng": 3.071099,
    "transactions": [
      {
        "date": "2025-04-29",
        "priceEur": 160000,
        "typeLocal": "Appartement",
        "surfaceM2": 65,
        "isVefa": false
      },
      {
        "date": "2025-04-25",
        "priceEur": 167050,
        "typeLocal": "Appartement",
        "surfaceM2": 65,
        "isVefa": false
      },
      {
        "date": "2024-10-18",
        "priceEur": 209000,
        "typeLocal": "Appartement",
        "surfaceM2": 75,
        "isVefa": false
      },
      {
        "date": "2024-10-11",
        "priceEur": 130500,
        "typeLocal": "Appartement",
        "surfaceM2": 75,
        "isVefa": false
      },
      {
        "date": "2024-07-05",
        "priceEur": 128000,
        "typeLocal": "Appartement",
        "surfaceM2": 65,
        "isVefa": false
      },
      {
        "date": "2024-06-14",
        "priceEur": 154000,
        "typeLocal": "Appartement",
        "surfaceM2": 65,
        "isVefa": false
      },
      {
        "date": "2023-09-29",
        "priceEur": 205000,
        "typeLocal": "Appartement",
        "surfaceM2": 65,
        "isVefa": false
      },
      {
        "date": "2023-03-13",
        "priceEur": 175000,
        "typeLocal": "Appartement",
        "surfaceM2": 75,
        "isVefa": false
      },
      {
        "date": "2022-09-23",
        "priceEur": 180000,
        "typeLocal": "Appartement",
        "surfaceM2": 75,
        "isVefa": false
      },
      {
        "date": "2022-07-22",
        "priceEur": 167500,
        "typeLocal": "Appartement",
        "surfaceM2": 65,
        "isVefa": false
      },
      {
        "date": "2022-03-03",
        "priceEur": 170500,
        "typeLocal": "Appartement",
        "surfaceM2": 75,
        "isVefa": false
      },
      {
        "date": "2021-12-22",
        "priceEur": 125000,
        "typeLocal": "Appartement",
        "surfaceM2": 65,
        "isVefa": false
      },
      {
        "date": "2021-05-04",
        "priceEur": 186000,
        "typeLocal": "Appartement",
        "surfaceM2": 65,
        "isVefa": false
      }
    ]
  },
  "b347e19e598a": {
    "id": "b347e19e598a",
    "label": "30 RUE GODEFROY, La Madeleine",
    "lat": 50.657637,
    "lng": 3.072458,
    "transactions": [
      {
        "date": "2021-05-17",
        "priceEur": 150000,
        "typeLocal": "Maison",
        "surfaceM2": 90,
        "isVefa": false
      }
    ]
  },
  "6759c910be25": {
    "id": "6759c910be25",
    "label": "27 RUE LEON TRULIN, La Madeleine",
    "lat": 50.655982,
    "lng": 3.067425,
    "transactions": [
      {
        "date": "2021-05-12",
        "priceEur": 303700,
        "typeLocal": "Maison",
        "surfaceM2": 80,
        "isVefa": false
      }
    ]
  },
  "dc609d0218b2": {
    "id": "dc609d0218b2",
    "label": "8 RUE PASTEUR, La Madeleine",
    "lat": 50.65342,
    "lng": 3.075083,
    "transactions": [
      {
        "date": "2023-12-28",
        "priceEur": 181500,
        "typeLocal": "Appartement",
        "surfaceM2": 52,
        "isVefa": false
      },
      {
        "date": "2023-12-26",
        "priceEur": 269200,
        "typeLocal": "Appartement",
        "surfaceM2": 83,
        "isVefa": false
      },
      {
        "date": "2023-05-25",
        "priceEur": 178500,
        "typeLocal": "Appartement",
        "surfaceM2": 67,
        "isVefa": false
      },
      {
        "date": "2022-07-28",
        "priceEur": 210000,
        "typeLocal": "Appartement",
        "surfaceM2": 68,
        "isVefa": false
      },
      {
        "date": "2022-01-24",
        "priceEur": 251500,
        "typeLocal": "Appartement",
        "surfaceM2": 68,
        "isVefa": false
      },
      {
        "date": "2021-11-03",
        "priceEur": 285000,
        "typeLocal": "Appartement",
        "surfaceM2": 109,
        "isVefa": false
      },
      {
        "date": "2021-10-29",
        "priceEur": 218500,
        "typeLocal": "Appartement",
        "surfaceM2": 83,
        "isVefa": false
      },
      {
        "date": "2021-04-30",
        "priceEur": 139000,
        "typeLocal": "Appartement",
        "surfaceM2": 52,
        "isVefa": false
      }
    ]
  },
  "a3ed1a2ef1f7": {
    "id": "a3ed1a2ef1f7",
    "label": "92 RUE GAMBETTA, La Madeleine",
    "lat": 50.65511,
    "lng": 3.06692,
    "transactions": [
      {
        "date": "2023-12-06",
        "priceEur": 205500,
        "typeLocal": "Appartement",
        "surfaceM2": 63,
        "isVefa": false
      },
      {
        "date": "2021-05-21",
        "priceEur": 166000,
        "typeLocal": "Appartement",
        "surfaceM2": 53,
        "isVefa": false
      }
    ]
  },
  "eddbd74c797a": {
    "id": "eddbd74c797a",
    "label": "13 RUE SAINT JOSEPH, La Madeleine",
    "lat": 50.655274,
    "lng": 3.067109,
    "transactions": [
      {
        "date": "2021-05-20",
        "priceEur": 278500,
        "typeLocal": "Maison",
        "surfaceM2": 76,
        "isVefa": false
      }
    ]
  },
  "6cd3629757f5": {
    "id": "6cd3629757f5",
    "label": "11 RUE EUGENE D HALLENDRE, La Madeleine",
    "lat": 50.659734,
    "lng": 3.069928,
    "transactions": [
      {
        "date": "2025-06-09",
        "priceEur": 107000,
        "typeLocal": "Appartement",
        "surfaceM2": 27,
        "isVefa": false
      },
      {
        "date": "2024-07-18",
        "priceEur": 228270,
        "typeLocal": "Appartement",
        "surfaceM2": 63,
        "isVefa": false
      },
      {
        "date": "2024-05-28",
        "priceEur": 172000,
        "typeLocal": "Appartement",
        "surfaceM2": 42,
        "isVefa": false
      },
      {
        "date": "2023-12-06",
        "priceEur": 150500,
        "typeLocal": "Appartement",
        "surfaceM2": 39,
        "isVefa": false
      },
      {
        "date": "2023-10-31",
        "priceEur": 217000,
        "typeLocal": "Appartement",
        "surfaceM2": 66,
        "isVefa": false
      },
      {
        "date": "2023-09-04",
        "priceEur": 154000,
        "typeLocal": "Appartement",
        "surfaceM2": 42,
        "isVefa": false
      },
      {
        "date": "2022-06-10",
        "priceEur": 171000,
        "typeLocal": "Appartement",
        "surfaceM2": 41,
        "isVefa": false
      },
      {
        "date": "2022-02-22",
        "priceEur": 239000,
        "typeLocal": "Appartement",
        "surfaceM2": 66,
        "isVefa": false
      },
      {
        "date": "2022-02-14",
        "priceEur": 102000,
        "typeLocal": "Appartement",
        "surfaceM2": 27,
        "isVefa": false
      },
      {
        "date": "2022-02-09",
        "priceEur": 144000,
        "typeLocal": "Appartement",
        "surfaceM2": 42,
        "isVefa": false
      },
      {
        "date": "2022-01-21",
        "priceEur": 160000,
        "typeLocal": "Appartement",
        "surfaceM2": 39,
        "isVefa": false
      },
      {
        "date": "2021-12-01",
        "priceEur": 161000,
        "typeLocal": "Appartement",
        "surfaceM2": 42,
        "isVefa": false
      },
      {
        "date": "2021-05-31",
        "priceEur": 210000,
        "typeLocal": "Appartement",
        "surfaceM2": 63,
        "isVefa": false
      }
    ]
  },
  "ee094504bda3": {
    "id": "ee094504bda3",
    "label": "56 RUE FONTAINE, La Madeleine",
    "lat": 50.655697,
    "lng": 3.075941,
    "transactions": [
      {
        "date": "2024-02-06",
        "priceEur": 185780,
        "typeLocal": "Appartement",
        "surfaceM2": 50,
        "isVefa": false
      },
      {
        "date": "2022-06-21",
        "priceEur": 116000,
        "typeLocal": "Appartement",
        "surfaceM2": 28,
        "isVefa": false
      },
      {
        "date": "2021-05-28",
        "priceEur": 163000,
        "typeLocal": "Appartement",
        "surfaceM2": 50,
        "isVefa": false
      }
    ]
  },
  "593e47102b36": {
    "id": "593e47102b36",
    "label": "40 RUE FONTAINE, La Madeleine",
    "lat": 50.65535,
    "lng": 3.07612,
    "transactions": [
      {
        "date": "2024-02-26",
        "priceEur": 224900,
        "typeLocal": "Appartement",
        "surfaceM2": 58,
        "isVefa": false
      },
      {
        "date": "2021-06-17",
        "priceEur": 225000,
        "typeLocal": "Appartement",
        "surfaceM2": 58,
        "isVefa": false
      }
    ]
  },
  "a966eefe72d2": {
    "id": "a966eefe72d2",
    "label": "86 RUE DE LA PAIX, La Madeleine",
    "lat": 50.656848,
    "lng": 3.07086,
    "transactions": [
      {
        "date": "2021-06-15",
        "priceEur": 243100,
        "typeLocal": "Maison",
        "surfaceM2": 51,
        "isVefa": false
      }
    ]
  },
  "7a44db3c393c": {
    "id": "7a44db3c393c",
    "label": "56 RUE DE LA PAIX, La Madeleine",
    "lat": 50.657049,
    "lng": 3.071598,
    "transactions": [
      {
        "date": "2021-06-21",
        "priceEur": 143000,
        "typeLocal": "Maison",
        "surfaceM2": 80,
        "isVefa": false
      }
    ]
  },
  "3e1366949265": {
    "id": "3e1366949265",
    "label": "11 RUE PASTEUR, La Madeleine",
    "lat": 50.654296,
    "lng": 3.075545,
    "transactions": [
      {
        "date": "2024-02-22",
        "priceEur": 253850,
        "typeLocal": "Appartement",
        "surfaceM2": 78,
        "isVefa": false
      },
      {
        "date": "2021-06-30",
        "priceEur": 250000,
        "typeLocal": "Appartement",
        "surfaceM2": 78,
        "isVefa": false
      }
    ]
  },
  "c8a3000b7f8f": {
    "id": "c8a3000b7f8f",
    "label": "14 RUE FRANCOIS DE GUILLEBON, La Madeleine",
    "lat": 50.65757,
    "lng": 3.074901,
    "transactions": [
      {
        "date": "2022-06-13",
        "priceEur": 338000,
        "typeLocal": "Maison",
        "surfaceM2": 65,
        "isVefa": false
      },
      {
        "date": "2021-06-28",
        "priceEur": 300000,
        "typeLocal": "Maison",
        "surfaceM2": 65,
        "isVefa": false
      }
    ]
  },
  "8f14dcef687b": {
    "id": "8f14dcef687b",
    "label": "45 RUE GODEFROY, La Madeleine",
    "lat": 50.657167,
    "lng": 3.071995,
    "transactions": [
      {
        "date": "2021-06-18",
        "priceEur": 279350,
        "typeLocal": "Maison",
        "surfaceM2": 160,
        "isVefa": false
      }
    ]
  },
  "f31874464e92": {
    "id": "f31874464e92",
    "label": "14 RUE DE TURENNE, La Madeleine",
    "lat": 50.65629,
    "lng": 3.075922,
    "transactions": [
      {
        "date": "2023-04-14",
        "priceEur": 74600,
        "typeLocal": "Appartement",
        "surfaceM2": 15,
        "isVefa": false
      },
      {
        "date": "2021-07-02",
        "priceEur": 67150,
        "typeLocal": "Appartement",
        "surfaceM2": 15,
        "isVefa": false
      }
    ]
  },
  "554a1ce13c5d": {
    "id": "554a1ce13c5d",
    "label": "17 RUE DE LA CONCORDE, La Madeleine",
    "lat": 50.658833,
    "lng": 3.074644,
    "transactions": [
      {
        "date": "2021-06-28",
        "priceEur": 810000,
        "typeLocal": "Maison",
        "surfaceM2": 200,
        "isVefa": false
      }
    ]
  },
  "3569e2d6b23e": {
    "id": "3569e2d6b23e",
    "label": "72 RUE SAINT JOSEPH, La Madeleine",
    "lat": 50.656657,
    "lng": 3.065193,
    "transactions": [
      {
        "date": "2021-06-30",
        "priceEur": 324858,
        "typeLocal": "Maison",
        "surfaceM2": 108,
        "isVefa": false
      }
    ]
  },
  "366b34b3eed4": {
    "id": "366b34b3eed4",
    "label": "20 RUE DE LA CONCORDE, La Madeleine",
    "lat": 50.658352,
    "lng": 3.074801,
    "transactions": [
      {
        "date": "2021-06-18",
        "priceEur": 305000,
        "typeLocal": "Maison",
        "surfaceM2": 119,
        "isVefa": false
      }
    ]
  },
  "c4466a861a53": {
    "id": "c4466a861a53",
    "label": "35 RUE KLEBER, La Madeleine",
    "lat": 50.655722,
    "lng": 3.069729,
    "transactions": [
      {
        "date": "2021-07-16",
        "priceEur": 413000,
        "typeLocal": "Maison",
        "surfaceM2": 106,
        "isVefa": false
      }
    ]
  },
  "5f0400931012": {
    "id": "5f0400931012",
    "label": "38 RUE GODEFROY, La Madeleine",
    "lat": 50.657572,
    "lng": 3.072194,
    "transactions": [
      {
        "date": "2021-06-29",
        "priceEur": 430000,
        "typeLocal": "Maison",
        "surfaceM2": 76,
        "isVefa": false
      }
    ]
  },
  "1c62e229ae5d": {
    "id": "1c62e229ae5d",
    "label": "66 RUE FONTAINE, La Madeleine",
    "lat": 50.655919,
    "lng": 3.075972,
    "transactions": [
      {
        "date": "2021-07-07",
        "priceEur": 355000,
        "typeLocal": "Maison",
        "surfaceM2": 74,
        "isVefa": false
      }
    ]
  },
  "cb91a2415c65": {
    "id": "cb91a2415c65",
    "label": "19 RUE DE VERDUN, La Madeleine",
    "lat": 50.653986,
    "lng": 3.066061,
    "transactions": [
      {
        "date": "2021-07-23",
        "priceEur": 305000,
        "typeLocal": "Maison",
        "surfaceM2": 60,
        "isVefa": false
      }
    ]
  },
  "c1e509542eed": {
    "id": "c1e509542eed",
    "label": "107 RUE KLEBER, La Madeleine",
    "lat": 50.657647,
    "lng": 3.068432,
    "transactions": [
      {
        "date": "2024-09-25",
        "priceEur": 109070,
        "typeLocal": "Appartement",
        "surfaceM2": 29,
        "isVefa": false
      },
      {
        "date": "2023-12-18",
        "priceEur": 245000,
        "typeLocal": "Appartement",
        "surfaceM2": 85,
        "isVefa": false
      },
      {
        "date": "2023-08-31",
        "priceEur": 349000,
        "typeLocal": "Appartement",
        "surfaceM2": 85,
        "isVefa": false
      },
      {
        "date": "2022-07-19",
        "priceEur": 154000,
        "typeLocal": "Appartement",
        "surfaceM2": 55,
        "isVefa": false
      },
      {
        "date": "2021-07-27",
        "priceEur": 177000,
        "typeLocal": "Appartement",
        "surfaceM2": 55,
        "isVefa": false
      }
    ]
  },
  "057b56e2305c": {
    "id": "057b56e2305c",
    "label": "15 AV DE LA RESISTANCE, La Madeleine",
    "lat": 50.659788,
    "lng": 3.07028,
    "transactions": [
      {
        "date": "2021-07-12",
        "priceEur": 316900,
        "typeLocal": "Maison",
        "surfaceM2": 81,
        "isVefa": false
      }
    ]
  },
  "c167960b8ffc": {
    "id": "c167960b8ffc",
    "label": "1B RUE DE TURENNE, La Madeleine",
    "lat": 50.656913,
    "lng": 3.074135,
    "transactions": [
      {
        "date": "2021-07-21",
        "priceEur": 270000,
        "typeLocal": "Appartement",
        "surfaceM2": 22,
        "isVefa": false
      },
      {
        "date": "2021-07-21",
        "priceEur": 270000,
        "typeLocal": "Appartement",
        "surfaceM2": 30,
        "isVefa": false
      },
      {
        "date": "2021-07-21",
        "priceEur": 270000,
        "typeLocal": "Appartement",
        "surfaceM2": 33,
        "isVefa": false
      }
    ]
  },
  "2209ff0350d5": {
    "id": "2209ff0350d5",
    "label": "47 RUE EUGENE D HALLENDRE, La Madeleine",
    "lat": 50.659281,
    "lng": 3.070691,
    "transactions": [
      {
        "date": "2021-07-22",
        "priceEur": 293000,
        "typeLocal": "Maison",
        "surfaceM2": 81,
        "isVefa": false
      }
    ]
  },
  "1de4971720bc": {
    "id": "1de4971720bc",
    "label": "32 RUE EUGENE D HALLENDRE, La Madeleine",
    "lat": 50.658546,
    "lng": 3.069982,
    "transactions": [
      {
        "date": "2021-07-29",
        "priceEur": 444000,
        "typeLocal": "Maison",
        "surfaceM2": 120,
        "isVefa": false
      }
    ]
  },
  "e0ec14ccdbd8": {
    "id": "e0ec14ccdbd8",
    "label": "46 RUE DESMAZIERES, La Madeleine",
    "lat": 50.656877,
    "lng": 3.067031,
    "transactions": [
      {
        "date": "2021-09-16",
        "priceEur": 164800,
        "typeLocal": "Appartement",
        "surfaceM2": 53,
        "isVefa": false
      },
      {
        "date": "2021-07-30",
        "priceEur": 128000,
        "typeLocal": "Appartement",
        "surfaceM2": 47,
        "isVefa": false
      }
    ]
  },
  "d2fbdd80e5b4": {
    "id": "d2fbdd80e5b4",
    "label": "90 RUE SAINT VICTOR, La Madeleine",
    "lat": 50.653144,
    "lng": 3.067896,
    "transactions": [
      {
        "date": "2021-07-30",
        "priceEur": 120000,
        "typeLocal": "Appartement",
        "surfaceM2": 52,
        "isVefa": false
      }
    ]
  },
  "f5f7a97bc3e3": {
    "id": "f5f7a97bc3e3",
    "label": "55 RUE GODEFROY, La Madeleine",
    "lat": 50.65714,
    "lng": 3.07166,
    "transactions": [
      {
        "date": "2021-08-03",
        "priceEur": 245450,
        "typeLocal": "Maison",
        "surfaceM2": 89,
        "isVefa": false
      }
    ]
  },
  "838866b1caff": {
    "id": "838866b1caff",
    "label": "65T RUE DU PDT GEORGES POMPIDOU, La Madeleine",
    "lat": 50.653462,
    "lng": 3.069856,
    "transactions": [
      {
        "date": "2021-07-23",
        "priceEur": 600000,
        "typeLocal": "Maison",
        "surfaceM2": 95,
        "isVefa": false
      }
    ]
  },
  "cecdf634dbe3": {
    "id": "cecdf634dbe3",
    "label": "14 RUE GODEFROY, La Madeleine",
    "lat": 50.65777,
    "lng": 3.07299,
    "transactions": [
      {
        "date": "2021-08-26",
        "priceEur": 310400,
        "typeLocal": "Maison",
        "surfaceM2": 64,
        "isVefa": false
      }
    ]
  },
  "8385a1c1bb1b": {
    "id": "8385a1c1bb1b",
    "label": "64 AV JOFFRE, La Madeleine",
    "lat": 50.653522,
    "lng": 3.065404,
    "transactions": [
      {
        "date": "2021-08-20",
        "priceEur": 288000,
        "typeLocal": "Maison",
        "surfaceM2": 95,
        "isVefa": false
      }
    ]
  },
  "e4a2145e5645": {
    "id": "e4a2145e5645",
    "label": "14 RUE JEAN MERMOZ, La Madeleine",
    "lat": 50.65693,
    "lng": 3.075758,
    "transactions": [
      {
        "date": "2021-08-27",
        "priceEur": 253000,
        "typeLocal": "Maison",
        "surfaceM2": 64,
        "isVefa": false
      }
    ]
  },
  "8d85104962ee": {
    "id": "8d85104962ee",
    "label": "4 RUE GEORGES CLEMENCEAU, La Madeleine",
    "lat": 50.654065,
    "lng": 3.066516,
    "transactions": [
      {
        "date": "2021-09-01",
        "priceEur": 356000,
        "typeLocal": "Maison",
        "surfaceM2": 76,
        "isVefa": false
      }
    ]
  },
  "95c145eb403a": {
    "id": "95c145eb403a",
    "label": "1 RUE JEAN MERMOZ, La Madeleine",
    "lat": 50.656664,
    "lng": 3.075238,
    "transactions": [
      {
        "date": "2021-09-07",
        "priceEur": 405000,
        "typeLocal": "Appartement",
        "surfaceM2": 45,
        "isVefa": false
      }
    ]
  },
  "1aefb1f408a9": {
    "id": "1aefb1f408a9",
    "label": "8 RUE DE LA CONCORDE, La Madeleine",
    "lat": 50.658485,
    "lng": 3.074275,
    "transactions": [
      {
        "date": "2024-06-17",
        "priceEur": 429000,
        "typeLocal": "Maison",
        "surfaceM2": 84,
        "isVefa": false
      },
      {
        "date": "2021-09-15",
        "priceEur": 420000,
        "typeLocal": "Maison",
        "surfaceM2": 84,
        "isVefa": false
      }
    ]
  },
  "6949927eb0c9": {
    "id": "6949927eb0c9",
    "label": "14 RUE KLEBER, La Madeleine",
    "lat": 50.655697,
    "lng": 3.07032,
    "transactions": [
      {
        "date": "2021-09-01",
        "priceEur": 264400,
        "typeLocal": "Maison",
        "surfaceM2": 56,
        "isVefa": false
      }
    ]
  },
  "5b0c2fa91f55": {
    "id": "5b0c2fa91f55",
    "label": "50 RUE DES GANTOIS, La Madeleine",
    "lat": 50.653088,
    "lng": 3.066432,
    "transactions": [
      {
        "date": "2021-09-10",
        "priceEur": 294000,
        "typeLocal": "Maison",
        "surfaceM2": 90,
        "isVefa": false
      }
    ]
  },
  "609f7343ac3a": {
    "id": "609f7343ac3a",
    "label": "32 RUE JEANNE D ARC, La Madeleine",
    "lat": 50.659365,
    "lng": 3.067708,
    "transactions": [
      {
        "date": "2021-09-22",
        "priceEur": 118100,
        "typeLocal": "Maison",
        "surfaceM2": 55,
        "isVefa": false
      }
    ]
  },
  "1439020f3fe3": {
    "id": "1439020f3fe3",
    "label": "63 RUE FELIX FAURE, La Madeleine",
    "lat": 50.659243,
    "lng": 3.065442,
    "transactions": [
      {
        "date": "2021-09-29",
        "priceEur": 230000,
        "typeLocal": "Maison",
        "surfaceM2": 82,
        "isVefa": false
      }
    ]
  },
  "d1fe302f33a5": {
    "id": "d1fe302f33a5",
    "label": "38 RUE KLEBER, La Madeleine",
    "lat": 50.656315,
    "lng": 3.069925,
    "transactions": [
      {
        "date": "2021-09-30",
        "priceEur": 420000,
        "typeLocal": "Appartement",
        "surfaceM2": 58,
        "isVefa": false
      },
      {
        "date": "2021-09-30",
        "priceEur": 420000,
        "typeLocal": "Appartement",
        "surfaceM2": 51,
        "isVefa": false
      }
    ]
  },
  "3c53a20da32f": {
    "id": "3c53a20da32f",
    "label": "8 RUE DE TURENNE, La Madeleine",
    "lat": 50.656397,
    "lng": 3.075463,
    "transactions": [
      {
        "date": "2021-10-15",
        "priceEur": 542000,
        "typeLocal": "Maison",
        "surfaceM2": 119,
        "isVefa": false
      }
    ]
  },
  "c29822515b73": {
    "id": "c29822515b73",
    "label": "27 RUE JEAN MERMOZ, La Madeleine",
    "lat": 50.657127,
    "lng": 3.075483,
    "transactions": [
      {
        "date": "2022-09-19",
        "priceEur": 182000,
        "typeLocal": "Appartement",
        "surfaceM2": 57,
        "isVefa": false
      },
      {
        "date": "2021-10-21",
        "priceEur": 172000,
        "typeLocal": "Appartement",
        "surfaceM2": 57,
        "isVefa": false
      }
    ]
  },
  "c23eba9108af": {
    "id": "c23eba9108af",
    "label": "57 RUE GODEFROY, La Madeleine",
    "lat": 50.657128,
    "lng": 3.071615,
    "transactions": [
      {
        "date": "2021-10-27",
        "priceEur": 185650,
        "typeLocal": "Maison",
        "surfaceM2": 80,
        "isVefa": false
      }
    ]
  },
  "598e479e1bed": {
    "id": "598e479e1bed",
    "label": "60 RUE LEON TRULIN, La Madeleine",
    "lat": 50.656034,
    "lng": 3.066816,
    "transactions": [
      {
        "date": "2021-10-11",
        "priceEur": 337000,
        "typeLocal": "Maison",
        "surfaceM2": 103,
        "isVefa": false
      }
    ]
  },
  "df17adcdffc5": {
    "id": "df17adcdffc5",
    "label": "31 RUE FELIX FAURE, La Madeleine",
    "lat": 50.658833,
    "lng": 3.06688,
    "transactions": [
      {
        "date": "2021-11-16",
        "priceEur": 154000,
        "typeLocal": "Maison",
        "surfaceM2": 76,
        "isVefa": false
      }
    ]
  },
  "deecd2982aa4": {
    "id": "deecd2982aa4",
    "label": "56 RUE LEON TRULIN, La Madeleine",
    "lat": 50.656225,
    "lng": 3.066884,
    "transactions": [
      {
        "date": "2021-11-30",
        "priceEur": 281100,
        "typeLocal": "Maison",
        "surfaceM2": 82,
        "isVefa": false
      }
    ]
  },
  "88acb785afa1": {
    "id": "88acb785afa1",
    "label": "28 RUE GEORGES CLEMENCEAU, La Madeleine",
    "lat": 50.653525,
    "lng": 3.066465,
    "transactions": [
      {
        "date": "2021-12-06",
        "priceEur": 431190,
        "typeLocal": "Maison",
        "surfaceM2": 45,
        "isVefa": false
      }
    ]
  },
  "966642f77cc3": {
    "id": "966642f77cc3",
    "label": "42 RUE DESMAZIERES, La Madeleine",
    "lat": 50.656829,
    "lng": 3.066788,
    "transactions": [
      {
        "date": "2021-12-17",
        "priceEur": 400000,
        "typeLocal": "Maison",
        "surfaceM2": 123,
        "isVefa": false
      }
    ]
  },
  "6dfa9081cd0e": {
    "id": "6dfa9081cd0e",
    "label": "35 AV JOFFRE, La Madeleine",
    "lat": 50.654373,
    "lng": 3.065758,
    "transactions": [
      {
        "date": "2021-12-16",
        "priceEur": 302760,
        "typeLocal": "Maison",
        "surfaceM2": 76,
        "isVefa": false
      }
    ]
  },
  "3f6f1e7ae9e8": {
    "id": "3f6f1e7ae9e8",
    "label": "49 AV JOFFRE, La Madeleine",
    "lat": 50.653904,
    "lng": 3.065982,
    "transactions": [
      {
        "date": "2021-12-23",
        "priceEur": 432000,
        "typeLocal": "Maison",
        "surfaceM2": 80,
        "isVefa": false
      }
    ]
  },
  "b2adc5836e40": {
    "id": "b2adc5836e40",
    "label": "111 RUE GODEFROY, La Madeleine",
    "lat": 50.656777,
    "lng": 3.070074,
    "transactions": [
      {
        "date": "2021-12-22",
        "priceEur": 155000,
        "typeLocal": "Maison",
        "surfaceM2": 70,
        "isVefa": false
      }
    ]
  },
  "24a72b9ba4ce": {
    "id": "24a72b9ba4ce",
    "label": "2 RUE DU MOULIN, La Madeleine",
    "lat": 50.653642,
    "lng": 3.072867,
    "transactions": [
      {
        "date": "2025-03-03",
        "priceEur": 150000,
        "typeLocal": "Appartement",
        "surfaceM2": 40,
        "isVefa": false
      },
      {
        "date": "2022-01-21",
        "priceEur": 181000,
        "typeLocal": "Appartement",
        "surfaceM2": 46,
        "isVefa": false
      }
    ]
  },
  "cd172d69b3c3": {
    "id": "cd172d69b3c3",
    "label": "114B RUE JEANNE MAILLOTTE, La Madeleine",
    "lat": 50.65352,
    "lng": 3.069208,
    "transactions": [
      {
        "date": "2022-02-07",
        "priceEur": 430000,
        "typeLocal": "Maison",
        "surfaceM2": 140,
        "isVefa": false
      }
    ]
  },
  "69ebf8b0eb43": {
    "id": "69ebf8b0eb43",
    "label": "19 RUE DE TURENNE, La Madeleine",
    "lat": 50.65684,
    "lng": 3.074776,
    "transactions": [
      {
        "date": "2022-02-14",
        "priceEur": 304000,
        "typeLocal": "Maison",
        "surfaceM2": 68,
        "isVefa": false
      }
    ]
  },
  "4979940d7c97": {
    "id": "4979940d7c97",
    "label": "33B RUE DE LA CONCORDE, La Madeleine",
    "lat": 50.658791,
    "lng": 3.075403,
    "transactions": [
      {
        "date": "2022-02-25",
        "priceEur": 250000,
        "typeLocal": "Appartement",
        "surfaceM2": 39,
        "isVefa": false
      },
      {
        "date": "2022-02-25",
        "priceEur": 250000,
        "typeLocal": "Maison",
        "surfaceM2": 82,
        "isVefa": false
      }
    ]
  },
  "ac5041109741": {
    "id": "ac5041109741",
    "label": "6 RUE JEANNE D ARC, La Madeleine",
    "lat": 50.658877,
    "lng": 3.066931,
    "transactions": [
      {
        "date": "2022-03-15",
        "priceEur": 276650,
        "typeLocal": "Maison",
        "surfaceM2": 53,
        "isVefa": false
      }
    ]
  },
  "f216f9152ad9": {
    "id": "f216f9152ad9",
    "label": "16 RUE KLEBER, La Madeleine",
    "lat": 50.655723,
    "lng": 3.070312,
    "transactions": [
      {
        "date": "2024-07-09",
        "priceEur": 290000,
        "typeLocal": "Maison",
        "surfaceM2": 75,
        "isVefa": false
      },
      {
        "date": "2022-04-08",
        "priceEur": 274500,
        "typeLocal": "Maison",
        "surfaceM2": 75,
        "isVefa": false
      }
    ]
  },
  "5c8ac061ca5c": {
    "id": "5c8ac061ca5c",
    "label": "67 RUE FELIX FAURE, La Madeleine",
    "lat": 50.659267,
    "lng": 3.065335,
    "transactions": [
      {
        "date": "2022-04-26",
        "priceEur": 285200,
        "typeLocal": "Maison",
        "surfaceM2": 89,
        "isVefa": false
      }
    ]
  },
  "eff0a9695afc": {
    "id": "eff0a9695afc",
    "label": "73 RUE KLEBER, La Madeleine",
    "lat": 50.656527,
    "lng": 3.069238,
    "transactions": [
      {
        "date": "2022-05-02",
        "priceEur": 408050,
        "typeLocal": "Maison",
        "surfaceM2": 120,
        "isVefa": false
      }
    ]
  },
  "ade3383dd294": {
    "id": "ade3383dd294",
    "label": "28 RUE GAMBETTA, La Madeleine",
    "lat": 50.655392,
    "lng": 3.072294,
    "transactions": [
      {
        "date": "2022-04-29",
        "priceEur": 550000,
        "typeLocal": "Appartement",
        "surfaceM2": 28,
        "isVefa": false
      },
      {
        "date": "2022-04-29",
        "priceEur": 550000,
        "typeLocal": "Appartement",
        "surfaceM2": 44,
        "isVefa": false
      }
    ]
  },
  "932c036d34d5": {
    "id": "932c036d34d5",
    "label": "59 RUE FONTAINE, La Madeleine",
    "lat": 50.656103,
    "lng": 3.075315,
    "transactions": [
      {
        "date": "2022-05-06",
        "priceEur": 1138200,
        "typeLocal": "Maison",
        "surfaceM2": 226,
        "isVefa": false
      }
    ]
  },
  "51ad4bf07ed5": {
    "id": "51ad4bf07ed5",
    "label": "198 RUE DU GENERAL DE GAULLE, La Madeleine",
    "lat": 50.656708,
    "lng": 3.074176,
    "transactions": [
      {
        "date": "2022-05-05",
        "priceEur": 859737,
        "typeLocal": "Maison",
        "surfaceM2": 170,
        "isVefa": false
      }
    ]
  },
  "afdeeca1bc33": {
    "id": "afdeeca1bc33",
    "label": "8 RUE JEAN MERMOZ, La Madeleine",
    "lat": 50.656823,
    "lng": 3.075699,
    "transactions": [
      {
        "date": "2022-04-28",
        "priceEur": 272000,
        "typeLocal": "Maison",
        "surfaceM2": 75,
        "isVefa": false
      }
    ]
  },
  "04484fd5b749": {
    "id": "04484fd5b749",
    "label": "28 RUE DU MOULIN, La Madeleine",
    "lat": 50.653459,
    "lng": 3.071437,
    "transactions": [
      {
        "date": "2022-05-20",
        "priceEur": 495000,
        "typeLocal": "Maison",
        "surfaceM2": 134,
        "isVefa": false
      }
    ]
  },
  "fbbcb7bcac21": {
    "id": "fbbcb7bcac21",
    "label": "22 RUE DE LA CONCORDE, La Madeleine",
    "lat": 50.658357,
    "lng": 3.074873,
    "transactions": [
      {
        "date": "2022-05-24",
        "priceEur": 543500,
        "typeLocal": "Maison",
        "surfaceM2": 108,
        "isVefa": false
      }
    ]
  },
  "0bf77f133507": {
    "id": "0bf77f133507",
    "label": "15 RUE DE TURENNE, La Madeleine",
    "lat": 50.656866,
    "lng": 3.074628,
    "transactions": [
      {
        "date": "2022-06-07",
        "priceEur": 598900,
        "typeLocal": "Maison",
        "surfaceM2": 100,
        "isVefa": false
      }
    ]
  },
  "32a8587b0d38": {
    "id": "32a8587b0d38",
    "label": "51 RUE DE LA CONCORDE, La Madeleine",
    "lat": 50.65879,
    "lng": 3.075945,
    "transactions": [
      {
        "date": "2022-06-03",
        "priceEur": 638000,
        "typeLocal": "Maison",
        "surfaceM2": 150,
        "isVefa": false
      }
    ]
  },
  "5251e4cf5ac8": {
    "id": "5251e4cf5ac8",
    "label": "27 RUE DESMAZIERES, La Madeleine",
    "lat": 50.656887,
    "lng": 3.066153,
    "transactions": [
      {
        "date": "2022-05-18",
        "priceEur": 99000,
        "typeLocal": "Maison",
        "surfaceM2": 90,
        "isVefa": false
      }
    ]
  },
  "cd6ab16f36fc": {
    "id": "cd6ab16f36fc",
    "label": "109 RUE DE LA PAIX, La Madeleine",
    "lat": 50.656238,
    "lng": 3.070451,
    "transactions": [
      {
        "date": "2022-06-16",
        "priceEur": 327600,
        "typeLocal": "Maison",
        "surfaceM2": 90,
        "isVefa": false
      }
    ]
  },
  "abd037d9d0d6": {
    "id": "abd037d9d0d6",
    "label": "116 RUE DE LA PAIX, La Madeleine",
    "lat": 50.656582,
    "lng": 3.070075,
    "transactions": [
      {
        "date": "2022-06-08",
        "priceEur": 450000,
        "typeLocal": "Maison",
        "surfaceM2": 150,
        "isVefa": false
      }
    ]
  },
  "b4081e6fe583": {
    "id": "b4081e6fe583",
    "label": "58 RUE LEON TRULIN, La Madeleine",
    "lat": 50.656099,
    "lng": 3.066868,
    "transactions": [
      {
        "date": "2022-05-30",
        "priceEur": 640000,
        "typeLocal": "Maison",
        "surfaceM2": 153,
        "isVefa": false
      }
    ]
  },
  "4a502711aedf": {
    "id": "4a502711aedf",
    "label": "100 RUE SAINT VICTOR, La Madeleine",
    "lat": 50.653501,
    "lng": 3.067851,
    "transactions": [
      {
        "date": "2024-12-31",
        "priceEur": 75000,
        "typeLocal": "Appartement",
        "surfaceM2": 29,
        "isVefa": false
      },
      {
        "date": "2022-10-14",
        "priceEur": 165000,
        "typeLocal": "Appartement",
        "surfaceM2": 42,
        "isVefa": false
      },
      {
        "date": "2022-07-18",
        "priceEur": 115000,
        "typeLocal": "Appartement",
        "surfaceM2": 42,
        "isVefa": false
      },
      {
        "date": "2022-06-17",
        "priceEur": 84000,
        "typeLocal": "Appartement",
        "surfaceM2": 27,
        "isVefa": false
      }
    ]
  },
  "3600a923a359": {
    "id": "3600a923a359",
    "label": "73 RUE GAMBETTA, La Madeleine",
    "lat": 50.654743,
    "lng": 3.067014,
    "transactions": [
      {
        "date": "2022-06-28",
        "priceEur": 352450,
        "typeLocal": "Maison",
        "surfaceM2": 75,
        "isVefa": false
      }
    ]
  },
  "b1c4c7008e62": {
    "id": "b1c4c7008e62",
    "label": "37 RUE DE LA CONCORDE, La Madeleine",
    "lat": 50.658756,
    "lng": 3.07541,
    "transactions": [
      {
        "date": "2022-06-30",
        "priceEur": 1,
        "typeLocal": "Appartement",
        "surfaceM2": 50,
        "isVefa": false
      },
      {
        "date": "2022-06-30",
        "priceEur": 1,
        "typeLocal": "Appartement",
        "surfaceM2": 42,
        "isVefa": false
      }
    ]
  },
  "7af0a83dd188": {
    "id": "7af0a83dd188",
    "label": "17 AV JOFFRE, La Madeleine",
    "lat": 50.654726,
    "lng": 3.065401,
    "transactions": [
      {
        "date": "2022-06-17",
        "priceEur": 310000,
        "typeLocal": "Maison",
        "surfaceM2": 76,
        "isVefa": false
      }
    ]
  },
  "564e316c2f41": {
    "id": "564e316c2f41",
    "label": "136 RUE DU GENERAL DE GAULLE, La Madeleine",
    "lat": 50.652956,
    "lng": 3.073562,
    "transactions": [
      {
        "date": "2025-01-09",
        "priceEur": 119800,
        "typeLocal": "Appartement",
        "surfaceM2": 36,
        "isVefa": false
      },
      {
        "date": "2022-07-04",
        "priceEur": 135000,
        "typeLocal": "Appartement",
        "surfaceM2": 43,
        "isVefa": false
      }
    ]
  },
  "0e18a82ccd44": {
    "id": "0e18a82ccd44",
    "label": "32 RUE DESMAZIERES, La Madeleine",
    "lat": 50.656587,
    "lng": 3.066647,
    "transactions": [
      {
        "date": "2022-07-06",
        "priceEur": 410000,
        "typeLocal": "Maison",
        "surfaceM2": 110,
        "isVefa": false
      }
    ]
  },
  "d80fdd96e900": {
    "id": "d80fdd96e900",
    "label": "26 RUE EUGENE D HALLENDRE, La Madeleine",
    "lat": 50.658452,
    "lng": 3.069827,
    "transactions": [
      {
        "date": "2022-06-30",
        "priceEur": 348000,
        "typeLocal": "Maison",
        "surfaceM2": 122,
        "isVefa": false
      }
    ]
  },
  "b3f2a9a1b13a": {
    "id": "b3f2a9a1b13a",
    "label": "30 RUE DE LA CONCORDE, La Madeleine",
    "lat": 50.658394,
    "lng": 3.075162,
    "transactions": [
      {
        "date": "2022-07-01",
        "priceEur": 438000,
        "typeLocal": "Maison",
        "surfaceM2": 111,
        "isVefa": false
      }
    ]
  },
  "7d274fcc693a": {
    "id": "7d274fcc693a",
    "label": "128 RUE DU GENERAL DE GAULLE, La Madeleine",
    "lat": 50.652956,
    "lng": 3.073562,
    "transactions": [
      {
        "date": "2022-07-07",
        "priceEur": 125000,
        "typeLocal": "Appartement",
        "surfaceM2": 33,
        "isVefa": false
      }
    ]
  },
  "ed7d49606fd7": {
    "id": "ed7d49606fd7",
    "label": "7 RUE DE TURENNE, La Madeleine",
    "lat": 50.65689,
    "lng": 3.074347,
    "transactions": [
      {
        "date": "2022-07-12",
        "priceEur": 323000,
        "typeLocal": "Maison",
        "surfaceM2": 78,
        "isVefa": false
      }
    ]
  },
  "857e66aac443": {
    "id": "857e66aac443",
    "label": "84 RUE DESMAZIERES, La Madeleine",
    "lat": 50.657564,
    "lng": 3.067935,
    "transactions": [
      {
        "date": "2022-07-22",
        "priceEur": 203000,
        "typeLocal": "Maison",
        "surfaceM2": 90,
        "isVefa": false
      }
    ]
  },
  "abe8e3ec925f": {
    "id": "abe8e3ec925f",
    "label": "26 RUE KLEBER, La Madeleine",
    "lat": 50.655885,
    "lng": 3.070197,
    "transactions": [
      {
        "date": "2022-07-21",
        "priceEur": 275000,
        "typeLocal": "Maison",
        "surfaceM2": 62,
        "isVefa": false
      }
    ]
  },
  "4bf2d0ad4cc5": {
    "id": "4bf2d0ad4cc5",
    "label": "67 RUE DESMAZIERES, La Madeleine",
    "lat": 50.657521,
    "lng": 3.067159,
    "transactions": [
      {
        "date": "2022-07-18",
        "priceEur": 305500,
        "typeLocal": "Maison",
        "surfaceM2": 80,
        "isVefa": false
      }
    ]
  },
  "627a4524c0a2": {
    "id": "627a4524c0a2",
    "label": "114 RUE JEANNE MAILLOTTE, La Madeleine",
    "lat": 50.653393,
    "lng": 3.069485,
    "transactions": [
      {
        "date": "2022-07-13",
        "priceEur": 117000,
        "typeLocal": "Appartement",
        "surfaceM2": 38,
        "isVefa": false
      }
    ]
  },
  "736350905b43": {
    "id": "736350905b43",
    "label": "209 RUE DU GENERAL DE GAULLE, La Madeleine",
    "lat": 50.657083,
    "lng": 3.073367,
    "transactions": [
      {
        "date": "2024-09-06",
        "priceEur": 137000,
        "typeLocal": "Appartement",
        "surfaceM2": 53,
        "isVefa": false
      },
      {
        "date": "2022-07-13",
        "priceEur": 80000,
        "typeLocal": "Appartement",
        "surfaceM2": 25,
        "isVefa": false
      }
    ]
  },
  "112d8f9b3a65": {
    "id": "112d8f9b3a65",
    "label": "20 RUE LAMARTINE, La Madeleine",
    "lat": 50.653194,
    "lng": 3.068154,
    "transactions": [
      {
        "date": "2024-10-10",
        "priceEur": 185000,
        "typeLocal": "Maison",
        "surfaceM2": 79,
        "isVefa": false
      },
      {
        "date": "2022-08-02",
        "priceEur": 154000,
        "typeLocal": "Maison",
        "surfaceM2": 79,
        "isVefa": false
      }
    ]
  },
  "6006c1c7aab5": {
    "id": "6006c1c7aab5",
    "label": "66 RUE FELIX FAURE, La Madeleine",
    "lat": 50.658707,
    "lng": 3.066146,
    "transactions": [
      {
        "date": "2022-07-29",
        "priceEur": 358200,
        "typeLocal": "Maison",
        "surfaceM2": 70,
        "isVefa": false
      }
    ]
  },
  "d9a86da30c4f": {
    "id": "d9a86da30c4f",
    "label": "4 CITE CHANZY RUE CHANZY, La Madeleine",
    "lat": 50.655901,
    "lng": 3.076119,
    "transactions": [
      {
        "date": "2022-08-08",
        "priceEur": 200000,
        "typeLocal": "Maison",
        "surfaceM2": 60,
        "isVefa": false
      }
    ]
  },
  "dfee293a4b91": {
    "id": "dfee293a4b91",
    "label": "43 RUE DE LA CONCORDE, La Madeleine",
    "lat": 50.658756,
    "lng": 3.07566,
    "transactions": [
      {
        "date": "2022-08-12",
        "priceEur": 428300,
        "typeLocal": "Maison",
        "surfaceM2": 76,
        "isVefa": false
      }
    ]
  },
  "e58d982f05d6": {
    "id": "e58d982f05d6",
    "label": "63 RUE LEON TRULIN, La Madeleine",
    "lat": 50.655722,
    "lng": 3.066968,
    "transactions": [
      {
        "date": "2022-08-02",
        "priceEur": 196100,
        "typeLocal": "Maison",
        "surfaceM2": 50,
        "isVefa": false
      }
    ]
  },
  "6e0ce1c810bb": {
    "id": "6e0ce1c810bb",
    "label": "21 RUE FELIX FAURE, La Madeleine",
    "lat": 50.658757,
    "lng": 3.067203,
    "transactions": [
      {
        "date": "2022-08-19",
        "priceEur": 283500,
        "typeLocal": "Maison",
        "surfaceM2": 73,
        "isVefa": false
      }
    ]
  },
  "763195438c10": {
    "id": "763195438c10",
    "label": "54 RUE SAINT JOSEPH, La Madeleine",
    "lat": 50.656179,
    "lng": 3.066361,
    "transactions": [
      {
        "date": "2022-08-30",
        "priceEur": 334000,
        "typeLocal": "Maison",
        "surfaceM2": 106,
        "isVefa": false
      }
    ]
  },
  "4e9006fe38f6": {
    "id": "4e9006fe38f6",
    "label": "2 RUE JEAN MERMOZ, La Madeleine",
    "lat": 50.656652,
    "lng": 3.075516,
    "transactions": [
      {
        "date": "2022-09-08",
        "priceEur": 137800,
        "typeLocal": "Appartement",
        "surfaceM2": 34,
        "isVefa": false
      }
    ]
  },
  "d1809646ff09": {
    "id": "d1809646ff09",
    "label": "83 RUE DESMAZIERES, La Madeleine",
    "lat": 50.657848,
    "lng": 3.06761,
    "transactions": [
      {
        "date": "2022-09-02",
        "priceEur": 268000,
        "typeLocal": "Maison",
        "surfaceM2": 68,
        "isVefa": false
      }
    ]
  },
  "2caf1d7968a3": {
    "id": "2caf1d7968a3",
    "label": "19 RUE DE LA GARE, La Madeleine",
    "lat": 50.659833,
    "lng": 3.073016,
    "transactions": [
      {
        "date": "2022-09-09",
        "priceEur": 144500,
        "typeLocal": "Appartement",
        "surfaceM2": 45,
        "isVefa": false
      }
    ]
  },
  "5419f1fb56a3": {
    "id": "5419f1fb56a3",
    "label": "10 CITE BREYNE RUE DE TURENNE, La Madeleine",
    "lat": 50.656709,
    "lng": 3.074923,
    "transactions": [
      {
        "date": "2022-09-16",
        "priceEur": 144000,
        "typeLocal": "Maison",
        "surfaceM2": 34,
        "isVefa": false
      }
    ]
  },
  "533fd259f825": {
    "id": "533fd259f825",
    "label": "26 RUE GEORGES CLEMENCEAU, La Madeleine",
    "lat": 50.653577,
    "lng": 3.066507,
    "transactions": [
      {
        "date": "2022-09-20",
        "priceEur": 270000,
        "typeLocal": "Maison",
        "surfaceM2": 85,
        "isVefa": false
      }
    ]
  },
  "7b00d3897d05": {
    "id": "7b00d3897d05",
    "label": "9 RUE DESAIX, La Madeleine",
    "lat": 50.657424,
    "lng": 3.074901,
    "transactions": [
      {
        "date": "2022-09-16",
        "priceEur": 863300,
        "typeLocal": "Maison",
        "surfaceM2": 233,
        "isVefa": false
      }
    ]
  },
  "4f6ee48c6a5d": {
    "id": "4f6ee48c6a5d",
    "label": "4C RUE DES GANTOIS, La Madeleine",
    "lat": 50.653393,
    "lng": 3.069485,
    "transactions": [
      {
        "date": "2022-09-12",
        "priceEur": 208500,
        "typeLocal": "Appartement",
        "surfaceM2": 75,
        "isVefa": false
      }
    ]
  },
  "3aff23791bf2": {
    "id": "3aff23791bf2",
    "label": "84 RUE DU PDT GEORGES POMPIDOU, La Madeleine",
    "lat": 50.655056,
    "lng": 3.065947,
    "transactions": [
      {
        "date": "2022-09-19",
        "priceEur": 309000,
        "typeLocal": "Maison",
        "surfaceM2": 88,
        "isVefa": false
      }
    ]
  },
  "57d1520a55aa": {
    "id": "57d1520a55aa",
    "label": "5 RUE FONTAINE, La Madeleine",
    "lat": 50.654785,
    "lng": 3.075609,
    "transactions": [
      {
        "date": "2024-07-22",
        "priceEur": 200010,
        "typeLocal": "Appartement",
        "surfaceM2": 66,
        "isVefa": false
      },
      {
        "date": "2022-11-04",
        "priceEur": 189000,
        "typeLocal": "Appartement",
        "surfaceM2": 66,
        "isVefa": false
      },
      {
        "date": "2022-09-02",
        "priceEur": 225000,
        "typeLocal": "Appartement",
        "surfaceM2": 66,
        "isVefa": false
      }
    ]
  },
  "400aa38aefe6": {
    "id": "400aa38aefe6",
    "label": "70 RUE GODEFROY, La Madeleine",
    "lat": 50.657305,
    "lng": 3.071096,
    "transactions": [
      {
        "date": "2022-09-28",
        "priceEur": 325000,
        "typeLocal": "Maison",
        "surfaceM2": 74,
        "isVefa": false
      }
    ]
  },
  "9cedc2ffac77": {
    "id": "9cedc2ffac77",
    "label": "50 RUE GUYNEMER, La Madeleine",
    "lat": 50.655061,
    "lng": 3.074782,
    "transactions": [
      {
        "date": "2022-09-06",
        "priceEur": 117000,
        "typeLocal": "Appartement",
        "surfaceM2": 56,
        "isVefa": false
      }
    ]
  },
  "0c9a45adc39b": {
    "id": "0c9a45adc39b",
    "label": "85 AV JOFFRE, La Madeleine",
    "lat": 50.653019,
    "lng": 3.066027,
    "transactions": [
      {
        "date": "2022-10-06",
        "priceEur": 190000,
        "typeLocal": "Maison",
        "surfaceM2": 109,
        "isVefa": false
      }
    ]
  },
  "c70fae1aae08": {
    "id": "c70fae1aae08",
    "label": "4 RUE KLEBER, La Madeleine",
    "lat": 50.655386,
    "lng": 3.070536,
    "transactions": [
      {
        "date": "2022-09-26",
        "priceEur": 340000,
        "typeLocal": "Maison",
        "surfaceM2": 76,
        "isVefa": false
      }
    ]
  },
  "f46f9080a960": {
    "id": "f46f9080a960",
    "label": "2 ALL DU PETIT MENIN, La Madeleine",
    "lat": 50.659637,
    "lng": 3.072362,
    "transactions": [
      {
        "date": "2022-10-06",
        "priceEur": 290000,
        "typeLocal": "Maison",
        "surfaceM2": 90,
        "isVefa": false
      }
    ]
  },
  "093812ac08af": {
    "id": "093812ac08af",
    "label": "54 RUE DE LA PAIX, La Madeleine",
    "lat": 50.657058,
    "lng": 3.071654,
    "transactions": [
      {
        "date": "2022-11-02",
        "priceEur": 182000,
        "typeLocal": "Maison",
        "surfaceM2": 66,
        "isVefa": false
      }
    ]
  },
  "ebbbee2066e9": {
    "id": "ebbbee2066e9",
    "label": "192 RUE DU GENERAL DE GAULLE, La Madeleine",
    "lat": 50.656492,
    "lng": 3.07435,
    "transactions": [
      {
        "date": "2022-10-10",
        "priceEur": 1205000,
        "typeLocal": "Maison",
        "surfaceM2": 265,
        "isVefa": false
      }
    ]
  },
  "9038c3a0640c": {
    "id": "9038c3a0640c",
    "label": "45 AV JOFFRE, La Madeleine",
    "lat": 50.654108,
    "lng": 3.06562,
    "transactions": [
      {
        "date": "2024-06-21",
        "priceEur": 128000,
        "typeLocal": "Appartement",
        "surfaceM2": 40,
        "isVefa": false
      },
      {
        "date": "2022-10-27",
        "priceEur": 144000,
        "typeLocal": "Appartement",
        "surfaceM2": 42,
        "isVefa": false
      }
    ]
  },
  "17aa9cb1b6c2": {
    "id": "17aa9cb1b6c2",
    "label": "10 RUE GAMBETTA, La Madeleine",
    "lat": 50.655439,
    "lng": 3.073076,
    "transactions": [
      {
        "date": "2022-11-17",
        "priceEur": 416000,
        "typeLocal": "Maison",
        "surfaceM2": 55,
        "isVefa": false
      }
    ]
  },
  "acb810c219b5": {
    "id": "acb810c219b5",
    "label": "58 RUE KLEBER, La Madeleine",
    "lat": 50.657678,
    "lng": 3.069429,
    "transactions": [
      {
        "date": "2022-11-25",
        "priceEur": 400000,
        "typeLocal": "Maison",
        "surfaceM2": 100,
        "isVefa": false
      }
    ]
  },
  "e09580d9fa39": {
    "id": "e09580d9fa39",
    "label": "61 RUE JEAN MERMOZ, La Madeleine",
    "lat": 50.65839,
    "lng": 3.076096,
    "transactions": [
      {
        "date": "2022-10-28",
        "priceEur": 570000,
        "typeLocal": "Maison",
        "surfaceM2": 126,
        "isVefa": false
      }
    ]
  },
  "daefab8bf2d7": {
    "id": "daefab8bf2d7",
    "label": "105 RUE GODEFROY, La Madeleine",
    "lat": 50.65681,
    "lng": 3.070225,
    "transactions": [
      {
        "date": "2022-11-07",
        "priceEur": 163000,
        "typeLocal": "Maison",
        "surfaceM2": 63,
        "isVefa": false
      }
    ]
  },
  "2f65e117e9a6": {
    "id": "2f65e117e9a6",
    "label": "81 RUE DESMAZIERES, La Madeleine",
    "lat": 50.657819,
    "lng": 3.067584,
    "transactions": [
      {
        "date": "2022-12-09",
        "priceEur": 235000,
        "typeLocal": "Maison",
        "surfaceM2": 66,
        "isVefa": false
      }
    ]
  },
  "5cf385cbdee0": {
    "id": "5cf385cbdee0",
    "label": "48 RUE DE LA PAIX, La Madeleine",
    "lat": 50.657092,
    "lng": 3.071801,
    "transactions": [
      {
        "date": "2022-12-16",
        "priceEur": 177000,
        "typeLocal": "Maison",
        "surfaceM2": 53,
        "isVefa": false
      }
    ]
  },
  "7c358677730e": {
    "id": "7c358677730e",
    "label": "71 RUE DESMAZIERES, La Madeleine",
    "lat": 50.657583,
    "lng": 3.06727,
    "transactions": [
      {
        "date": "2022-12-20",
        "priceEur": 227000,
        "typeLocal": "Maison",
        "surfaceM2": 69,
        "isVefa": false
      }
    ]
  },
  "286d569455c3": {
    "id": "286d569455c3",
    "label": "86 RUE DU PDT GEORGES POMPIDOU, La Madeleine",
    "lat": 50.655091,
    "lng": 3.06592,
    "transactions": [
      {
        "date": "2022-12-20",
        "priceEur": 200000,
        "typeLocal": "Maison",
        "surfaceM2": 84,
        "isVefa": false
      }
    ]
  },
  "6d1da52c4642": {
    "id": "6d1da52c4642",
    "label": "52 RUE GAMBETTA, La Madeleine",
    "lat": 50.655269,
    "lng": 3.07072,
    "transactions": [
      {
        "date": "2022-12-16",
        "priceEur": 270000,
        "typeLocal": "Maison",
        "surfaceM2": 76,
        "isVefa": false
      }
    ]
  },
  "8228aba847a8": {
    "id": "8228aba847a8",
    "label": "74 RUE FELIX FAURE, La Madeleine",
    "lat": 50.65881,
    "lng": 3.065915,
    "transactions": [
      {
        "date": "2022-12-19",
        "priceEur": 313500,
        "typeLocal": "Maison",
        "surfaceM2": 80,
        "isVefa": false
      }
    ]
  },
  "8ce2a24b2b21": {
    "id": "8ce2a24b2b21",
    "label": "49B RUE FELIX FAURE, La Madeleine",
    "lat": 50.659162,
    "lng": 3.065961,
    "transactions": [
      {
        "date": "2023-01-16",
        "priceEur": 629600,
        "typeLocal": "Maison",
        "surfaceM2": 148,
        "isVefa": false
      }
    ]
  },
  "6fa33b6d94cc": {
    "id": "6fa33b6d94cc",
    "label": "21 RUE DESMAZIERES, La Madeleine",
    "lat": 50.656774,
    "lng": 3.066036,
    "transactions": [
      {
        "date": "2023-02-09",
        "priceEur": 333000,
        "typeLocal": "Maison",
        "surfaceM2": 110,
        "isVefa": false
      }
    ]
  },
  "6c7a724cbd5f": {
    "id": "6c7a724cbd5f",
    "label": "23 RUE JEANNE D ARC, La Madeleine",
    "lat": 50.659243,
    "lng": 3.066935,
    "transactions": [
      {
        "date": "2023-02-07",
        "priceEur": 273000,
        "typeLocal": "Maison",
        "surfaceM2": 66,
        "isVefa": false
      }
    ]
  },
  "6cc99041c929": {
    "id": "6cc99041c929",
    "label": "70 RUE GUYNEMER, La Madeleine",
    "lat": 50.655061,
    "lng": 3.074782,
    "transactions": [
      {
        "date": "2023-02-15",
        "priceEur": 170000,
        "typeLocal": "Appartement",
        "surfaceM2": 66,
        "isVefa": false
      }
    ]
  },
  "bf5ad6e38d32": {
    "id": "bf5ad6e38d32",
    "label": "58 RUE GODEFROY, La Madeleine",
    "lat": 50.65743,
    "lng": 3.071507,
    "transactions": [
      {
        "date": "2023-02-09",
        "priceEur": 210000,
        "typeLocal": "Maison",
        "surfaceM2": 75,
        "isVefa": false
      }
    ]
  },
  "fe4710d4a39d": {
    "id": "fe4710d4a39d",
    "label": "8 RUE GAMBETTA, La Madeleine",
    "lat": 50.655442,
    "lng": 3.073126,
    "transactions": [
      {
        "date": "2023-02-28",
        "priceEur": 344000,
        "typeLocal": "Maison",
        "surfaceM2": 70,
        "isVefa": false
      }
    ]
  },
  "47e16d20859b": {
    "id": "47e16d20859b",
    "label": "5B RUE DE LA GARE, La Madeleine",
    "lat": 50.659494,
    "lng": 3.073366,
    "transactions": [
      {
        "date": "2023-02-10",
        "priceEur": 150000,
        "typeLocal": "Maison",
        "surfaceM2": 73,
        "isVefa": false
      }
    ]
  },
  "d3bb23f7e5d1": {
    "id": "d3bb23f7e5d1",
    "label": "46 RUE GAMBETTA, La Madeleine",
    "lat": 50.655299,
    "lng": 3.071297,
    "transactions": [
      {
        "date": "2023-03-09",
        "priceEur": 450000,
        "typeLocal": "Maison",
        "surfaceM2": 177,
        "isVefa": false
      }
    ]
  },
  "613995a3ac6b": {
    "id": "613995a3ac6b",
    "label": "162 RUE DU GENERAL DE GAULLE, La Madeleine",
    "lat": 50.655021,
    "lng": 3.073828,
    "transactions": [
      {
        "date": "2023-10-10",
        "priceEur": 371000,
        "typeLocal": "Appartement",
        "surfaceM2": 105,
        "isVefa": false
      },
      {
        "date": "2023-02-28",
        "priceEur": 165000,
        "typeLocal": "Appartement",
        "surfaceM2": 39,
        "isVefa": false
      }
    ]
  },
  "c5d3213aebca": {
    "id": "c5d3213aebca",
    "label": "127 RUE GODEFROY, La Madeleine",
    "lat": 50.656677,
    "lng": 3.069624,
    "transactions": [
      {
        "date": "2023-03-21",
        "priceEur": 153000,
        "typeLocal": "Maison",
        "surfaceM2": 55,
        "isVefa": false
      }
    ]
  },
  "1d1e2ec1981a": {
    "id": "1d1e2ec1981a",
    "label": "44 RUE LEON TRULIN, La Madeleine",
    "lat": 50.656414,
    "lng": 3.067271,
    "transactions": [
      {
        "date": "2023-03-16",
        "priceEur": 391600,
        "typeLocal": "Maison",
        "surfaceM2": 94,
        "isVefa": true
      }
    ]
  },
  "b8cc3422ce11": {
    "id": "b8cc3422ce11",
    "label": "30 RUE GEORGES CLEMENCEAU, La Madeleine",
    "lat": 50.653481,
    "lng": 3.066443,
    "transactions": [
      {
        "date": "2024-12-06",
        "priceEur": 355000,
        "typeLocal": "Maison",
        "surfaceM2": 104,
        "isVefa": false
      },
      {
        "date": "2023-04-19",
        "priceEur": 220000,
        "typeLocal": "Maison",
        "surfaceM2": 81,
        "isVefa": false
      }
    ]
  },
  "91d8e23f1f4d": {
    "id": "91d8e23f1f4d",
    "label": "9 SQ STEENBERGEN, La Madeleine",
    "lat": 50.658201,
    "lng": 3.067454,
    "transactions": [
      {
        "date": "2023-05-05",
        "priceEur": 330490,
        "typeLocal": "Maison",
        "surfaceM2": 75,
        "isVefa": false
      }
    ]
  },
  "127319bda001": {
    "id": "127319bda001",
    "label": "2 RUE GEORGES CLEMENCEAU, La Madeleine",
    "lat": 50.654119,
    "lng": 3.066561,
    "transactions": [
      {
        "date": "2023-05-04",
        "priceEur": 213000,
        "typeLocal": "Maison",
        "surfaceM2": 95,
        "isVefa": false
      }
    ]
  },
  "ee7da5573faf": {
    "id": "ee7da5573faf",
    "label": "13 RUE DE CONDE, La Madeleine",
    "lat": 50.652956,
    "lng": 3.073562,
    "transactions": [
      {
        "date": "2024-01-26",
        "priceEur": 210300,
        "typeLocal": "Appartement",
        "surfaceM2": 68,
        "isVefa": false
      },