{
  "8e6c1e72c42d": {
    "id": "8e6c1e72c42d",
    "label": "4 CHE DU CHAMP D'AVIATION, Octeville-sur-Mer",
    "lat": 49.542408,
    "lng": 0.094003,
    "transactions": [
      {
        "date": "2020-07-27",
        "priceEur": 198000,
        "typeLocal": "Maison",
        "surfaceM2": 89,
        "isVefa": false
      }
    ]
  },
  "c93d73896bd6": {
    "id": "c93d73896bd6",
    "label": "6644 CHE DE L'AERODROME, Octeville-sur-Mer",
    "lat": 49.542994,
    "lng": 0.091448,
    "transactions": [
      {
        "date": "2020-08-18",
        "priceEur": 395000,
        "typeLocal": "Maison",
        "surfaceM2": 82,
        "isVefa": false
      }
    ]
  },
  "e1042158e6d2": {
    "id": "e1042158e6d2",
    "label": "5210 CHE DE L'AERODROME, Octeville-sur-Mer",
    "lat": 49.542909,
    "lng": 0.094106,
    "transactions": [
      {
        "date": "2020-11-30",
        "priceEur": 430000,
        "typeLocal": "Maison",
        "surfaceM2": 108,
        "isVefa": false
      }
    ]
  },
  "f62772730e58": {
    "id": "f62772730e58",
    "label": "12T CHE DE SAINT ANDRIEUX, Octeville-sur-Mer",
    "lat": 49.543209,
    "lng": 0.093961,
    "transactions": [
      {
        "date": "2021-06-25",
        "priceEur": 353000,
        "typeLocal": "Maison",
        "surfaceM2": 109,
        "isVefa": false
      }
    ]
  },
  "b985ef288811": {
    "id": "b985ef288811",
    "label": "5207 CHE DE SAINT ANDRIEUX, Octeville-sur-Mer",
    "lat": 49.542882,
    "lng": 0.092433,
    "transactions": [
      {
        "date": "2021-12-24",
        "priceEur": 87500,
        "typeLocal": "Maison",
        "surfaceM2": 90,
        "isVefa": false
      }
    ]
  },
  "f4c980fa61bb": {
    "id": "f4c980fa61bb",
    "label": "7099 SAINT ANDRIEUX, Octeville-sur-Mer",
    "lat": 49.542661,
    "lng": 0.09277,
    "transactions": [
      {
        "date": "2022-03-31",
        "priceEur": 311600,
        "typeLocal": "Maison",
        "surfaceM2": 136,
        "isVefa": false
      }
    ]
  },
  "3a24b33462d3": {
    "id": "3a24b33462d3",
    "label": "15 CHE DE SAINT ANDRIEUX, Octeville-sur-Mer",
    "lat": 49.542879,
    "lng": 0.089872,
    "transactions": [
      {
        "date": "2022-10-13",
        "priceEur": 405000,
        "typeLocal": "Maison",
        "surfaceM2": 113,
        "isVefa": false
      }
    ]
  },
  "0b8354d60595": {
    "id": "0b8354d60595",
    "label": "17 CHE DE SAINT ANDRIEUX, Octeville-sur-Mer",
    "lat": 49.542946,
    "lng": 0.089258,
    "transactions": [
      {
        "date": "2023-05-26",
        "priceEur": 348000,
        "typeLocal": "Maison",
        "surfaceM2": 103,
        "isVefa": false
      }
    ]
  },
  "c172d1f2f28d": {
    "id": "c172d1f2f28d",
    "label": "4B CHE DU CHAMP D'AVIATION, Octeville-sur-Mer",
    "lat": 49.542399,
    "lng": 0.094427,
    "transactions": [
      {
        "date": "2023-10-16",
        "priceEur": 399000,
        "typeLocal": "Maison",
        "surfaceM2": 130,
        "isVefa": false
      }
    ]
  },
  "bf02e2da6383": {
    "id": "bf02e2da6383",
    "label": "6138 CHE DE SAINT ANDRIEUX, Octeville-sur-Mer",
    "lat": 49.543995,
    "lng": 0.088589,
    "transactions": [
      {
        "date": "2024-10-30",
        "priceEur": 320600,
        "typeLocal": "Maison",
        "surfaceM2": 96,
        "isVefa": false
      }
    ]
  }
}