{
  "b115a4c3f444": {
    "id": "b115a4c3f444",
    "label": "19 CHE DES CAMPETS, Saint-Bauzille-de-Montmel",
    "lat": 43.769436,
    "lng": 3.948473,
    "transactions": [
      {
        "date": "2020-10-20",
        "priceEur": 488750,
        "typeLocal": "Maison",
        "surfaceM2": 199,
        "isVefa": false
      },
      {
        "date": "2020-10-20",
        "priceEur": 488750,
        "typeLocal": "Maison",
        "surfaceM2": 199,
        "isVefa": false
      }
    ]
  },
  "c4160144e698": {
    "id": "c4160144e698",
    "label": "13 CHE DES CAMPETS, Saint-Bauzille-de-Montmel",
    "lat": 43.769318,
    "lng": 3.947672,
    "transactions": [
      {
        "date": "2020-10-23",
        "priceEur": 750000,
        "typeLocal": "Maison",
        "surfaceM2": 255,
        "isVefa": false
      },
      {
        "date": "2020-10-23",
        "priceEur": 750000,
        "typeLocal": "Maison",
        "surfaceM2": 255,
        "isVefa": false
      }
    ]
  },
  "01df356947d8": {
    "id": "01df356947d8",
    "label": "11 IMP DU VIEUX CHENE, Saint-Bauzille-de-Montmel",
    "lat": 43.769538,
    "lng": 3.949845,
    "transactions": [
      {
        "date": "2020-11-27",
        "priceEur": 305000,
        "typeLocal": "Maison",
        "surfaceM2": 93,
        "isVefa": false
      }
    ]
  },
  "1fc948f2dcb4": {
    "id": "1fc948f2dcb4",
    "label": "38 RTE DE BRAVEILLE, Saint-Bauzille-de-Montmel",
    "lat": 43.770585,
    "lng": 3.948968,
    "transactions": [
      {
        "date": "2021-02-11",
        "priceEur": 340000,
        "typeLocal": "Maison",
        "surfaceM2": 110,
        "isVefa": false
      }
    ]
  },
  "650273009096": {
    "id": "650273009096",
    "label": "6A LES CAMPETS, Saint-Bauzille-de-Montmel",
    "lat": 43.769578,
    "lng": 3.949144,
    "transactions": [
      {
        "date": "2021-03-03",
        "priceEur": 292415,
        "typeLocal": "Maison",
        "surfaceM2": 100,
        "isVefa": false
      },
      {
        "date": "2021-03-03",
        "priceEur": 292415,
        "typeLocal": "Maison",
        "surfaceM2": 100,
        "isVefa": false
      }
    ]
  },
  "10c0583e3a99": {
    "id": "10c0583e3a99",
    "label": "5146F LES CLAUSSES, Saint-Bauzille-de-Montmel",
    "lat": 43.769646,
    "lng": 3.951488,
    "transactions": [
      {
        "date": "2021-03-01",
        "priceEur": 224000,
        "typeLocal": "Maison",
        "surfaceM2": 55,
        "isVefa": false
      }
    ]
  },
  "61e6cc6e057d": {
    "id": "61e6cc6e057d",
    "label": "15 CHE DES MAZES, Saint-Bauzille-de-Montmel",
    "lat": 43.766516,
    "lng": 3.954781,
    "transactions": [
      {
        "date": "2021-04-21",
        "priceEur": 75000,
        "typeLocal": "Maison",
        "surfaceM2": 55,
        "isVefa": false
      }
    ]
  },
  "de8b03c87482": {
    "id": "de8b03c87482",
    "label": "33 CHE SERRE DE JEANNOU, Saint-Bauzille-de-Montmel",
    "lat": 43.768545,
    "lng": 3.950037,
    "transactions": [
      {
        "date": "2021-04-30",
        "priceEur": 629900,
        "typeLocal": "Maison",
        "surfaceM2": 150,
        "isVefa": false
      }
    ]
  },
  "cfb18626295b": {
    "id": "cfb18626295b",
    "label": "11 CHE DES MAZES, Saint-Bauzille-de-Montmel",
    "lat": 43.766629,
    "lng": 3.954958,
    "transactions": [
      {
        "date": "2021-07-01",
        "priceEur": 320000,
        "typeLocal": "Maison",
        "surfaceM2": 95,
        "isVefa": false
      }
    ]
  },
  "df78da7f01dd": {
    "id": "df78da7f01dd",
    "label": "3 IMP DU VIEUX CHENE, Saint-Bauzille-de-Montmel",
    "lat": 43.769296,
    "lng": 3.949646,
    "transactions": [
      {
        "date": "2021-07-16",
        "priceEur": 383800,
        "typeLocal": "Maison",
        "surfaceM2": 109,
        "isVefa": false
      }
    ]
  },
  "9167a19b34f1": {
    "id": "9167a19b34f1",
    "label": "44 CHE DES BARANDONS, Saint-Bauzille-de-Montmel",
    "lat": 43.765757,
    "lng": 3.950762,
    "transactions": [
      {
        "date": "2021-08-06",
        "priceEur": 370000,
        "typeLocal": "Maison",
        "surfaceM2": 119,
        "isVefa": false
      },
      {
        "date": "2021-08-06",
        "priceEur": 370000,
        "typeLocal": "Maison",
        "surfaceM2": 119,
        "isVefa": false
      }
    ]
  },
  "c489110294af": {
    "id": "c489110294af",
    "label": "4 IMP DES CISTES, Saint-Bauzille-de-Montmel",
    "lat": 43.768245,
    "lng": 3.951171,
    "transactions": [
      {
        "date": "2021-09-01",
        "priceEur": 577200,
        "typeLocal": "Maison",
        "surfaceM2": 157,
        "isVefa": false
      }
    ]
  },
  "1777fc8c0ec6": {
    "id": "1777fc8c0ec6",
    "label": "3 IMP DES EUPHORBES, Saint-Bauzille-de-Montmel",
    "lat": 43.76801,
    "lng": 3.953767,
    "transactions": [
      {
        "date": "2021-09-13",
        "priceEur": 408400,
        "typeLocal": "Maison",
        "surfaceM2": 112,
        "isVefa": false
      }
    ]
  },
  "ea6e7bc5979d": {
    "id": "ea6e7bc5979d",
    "label": "14 RTE DE BRAVEILLE, Saint-Bauzille-de-Montmel",
    "lat": 43.769549,
    "lng": 3.952744,
    "transactions": [
      {
        "date": "2022-04-29",
        "priceEur": 340000,
        "typeLocal": "Maison",
        "surfaceM2": 105,
        "isVefa": false
      },
      {
        "date": "2021-11-29",
        "priceEur": 350000,
        "typeLocal": "Maison",
        "surfaceM2": 105,
        "isVefa": false
      }
    ]
  },
  "5f1a8a5502c5": {
    "id": "5f1a8a5502c5",
    "label": "40 CHE DES BARANDONS, Saint-Bauzille-de-Montmel",
    "lat": 43.765733,
    "lng": 3.950298,
    "transactions": [
      {
        "date": "2022-02-21",
        "priceEur": 583700,
        "typeLocal": "Maison",
        "surfaceM2": 140,
        "isVefa": false
      },
      {
        "date": "2022-02-21",
        "priceEur": 583700,
        "typeLocal": "Maison",
        "surfaceM2": 140,
        "isVefa": false
      },
      {
        "date": "2022-02-21",
        "priceEur": 583700,
        "typeLocal": "Maison",
        "surfaceM2": 140,
        "isVefa": false
      }
    ]
  },
  "dec03438494f": {
    "id": "dec03438494f",
    "label": "21 IMP DES CLAUSSES, Saint-Bauzille-de-Montmel",
    "lat": 43.770356,
    "lng": 3.952555,
    "transactions": [
      {
        "date": "2022-02-28",
        "priceEur": 363000,
        "typeLocal": "Maison",
        "surfaceM2": 92,
        "isVefa": false
      }
    ]
  },
  "2ff0ebc6859a": {
    "id": "2ff0ebc6859a",
    "label": "13 RUE DES JALABERTS, Saint-Bauzille-de-Montmel",
    "lat": 43.769359,
    "lng": 3.954919,
    "transactions": [
      {
        "date": "2022-03-18",
        "priceEur": 280500,
        "typeLocal": "Maison",
        "surfaceM2": 75,
        "isVefa": false
      }
    ]
  },
  "ae356ef9543c": {
    "id": "ae356ef9543c",
    "label": "20 RTE DE BRAVEILLE, Saint-Bauzille-de-Montmel",
    "lat": 43.770026,
    "lng": 3.951795,
    "transactions": [
      {
        "date": "2022-08-31",
        "priceEur": 454890,
        "typeLocal": "Maison",
        "surfaceM2": 100,
        "isVefa": false
      },
      {
        "date": "2022-08-31",
        "priceEur": 454890,
        "typeLocal": "Maison",
        "surfaceM2": 100,
        "isVefa": false
      }
    ]
  },
  "dbea0793d488": {
    "id": "dbea0793d488",
    "label": "12 CHE DES MAZES, Saint-Bauzille-de-Montmel",
    "lat": 43.766643,
    "lng": 3.954583,
    "transactions": [
      {
        "date": "2022-09-09",
        "priceEur": 277000,
        "typeLocal": "Maison",
        "surfaceM2": 50,
        "isVefa": false
      }
    ]
  },
  "8adc2e54586b": {
    "id": "8adc2e54586b",
    "label": "6 IMP DES CLAUSSES, Saint-Bauzille-de-Montmel",
    "lat": 43.770697,
    "lng": 3.95192,
    "transactions": [
      {
        "date": "2022-11-02",
        "priceEur": 409900,
        "typeLocal": "Maison",
        "surfaceM2": 93,
        "isVefa": false
      }
    ]
  },
  "78862a895229": {
    "id": "78862a895229",
    "label": "23 CHE DES BARANDONS, Saint-Bauzille-de-Montmel",
    "lat": 43.766609,
    "lng": 3.95309,
    "transactions": [
      {
        "date": "2024-02-14",
        "priceEur": 199000,
        "typeLocal": "Maison",
        "surfaceM2": 87,
        "isVefa": false
      }
    ]
  },
  "8ce10cf344fe": {
    "id": "8ce10cf344fe",
    "label": "39 CHE DES BARANDONS, Saint-Bauzille-de-Montmel",
    "lat": 43.765622,
    "lng": 3.951323,
    "transactions": [
      {
        "date": "2025-03-06",
        "priceEur": 468300,
        "typeLocal": "Appartement",
        "surfaceM2": 116,
        "isVefa": false
      },
      {
        "date": "2025-03-06",
        "priceEur": 468300,
        "typeLocal": "Appartement",
        "surfaceM2": 113,
        "isVefa": false
      },
      {
        "date": "2025-03-06",
        "priceEur": 468300,
        "typeLocal": "Appartement",
        "surfaceM2": 116,
        "isVefa": false
      },
      {
        "date": "2025-03-06",
        "priceEur": 468300,
        "typeLocal": "Appartement",
        "surfaceM2": 113,
        "isVefa": false
      }
    ]
  }
}