{
  "d711e25fd3b8": {
    "id": "d711e25fd3b8",
    "label": "142 RUE DE L EGALITE, Lille",
    "lat": 50.629134,
    "lng": 2.998193,
    "transactions": [
      {
        "date": "2020-09-04",
        "priceEur": 180000,
        "typeLocal": "Maison",
        "surfaceM2": 76,
        "isVefa": false
      }
    ]
  },
  "49672491b944": {
    "id": "49672491b944",
    "label": "126 RUE CARNOT, Sequedin",
    "lat": 50.627008,
    "lng": 2.996508,
    "transactions": [
      {
        "date": "2021-03-12",
        "priceEur": 3000000,
        "typeLocal": "Maison",
        "surfaceM2": 75,
        "isVefa": false
      }
    ]
  },
  "b12871079340": {
    "id": "b12871079340",
    "label": "127 RUE DE L EGALITE, Lille",
    "lat": 50.629554,
    "lng": 2.998107,
    "transactions": [
      {
        "date": "2021-04-12",
        "priceEur": 130000,
        "typeLocal": "Maison",
        "surfaceM2": 65,
        "isVefa": false
      }
    ]
  },
  "e4b797ddfd9c": {
    "id": "e4b797ddfd9c",
    "label": "49 RUE PASTEUR, Sequedin",
    "lat": 50.630141,
    "lng": 2.988728,
    "transactions": [
      {
        "date": "2021-06-25",
        "priceEur": 310000,
        "typeLocal": "Maison",
        "surfaceM2": 126,
        "isVefa": false
      }
    ]
  },
  "0c80bd7fb273": {
    "id": "0c80bd7fb273",
    "label": "121 RUE DE L EGALITE, Lille",
    "lat": 50.629782,
    "lng": 2.998328,
    "transactions": [
      {
        "date": "2021-07-30",
        "priceEur": 215700,
        "typeLocal": "Maison",
        "surfaceM2": 108,
        "isVefa": false
      }
    ]
  },
  "93495d727f86": {
    "id": "93495d727f86",
    "label": "28 AV DES PINS, Sequedin",
    "lat": 50.626019,
    "lng": 2.990393,
    "transactions": [
      {
        "date": "2021-08-16",
        "priceEur": 310000,
        "typeLocal": "Maison",
        "surfaceM2": 89,
        "isVefa": false
      }
    ]
  },
  "058d1cdcefee": {
    "id": "058d1cdcefee",
    "label": "4 CHE DE L'ABBAYE DES 40 SELLES, Sequedin",
    "lat": 50.631623,
    "lng": 2.988389,
    "transactions": [
      {
        "date": "2021-10-14",
        "priceEur": 468220,
        "typeLocal": "Maison",
        "surfaceM2": 114,
        "isVefa": false
      }
    ]
  },
  "1eed95b5595f": {
    "id": "1eed95b5595f",
    "label": "131 RUE DE L EGALITE, Lille",
    "lat": 50.629491,
    "lng": 2.997969,
    "transactions": [
      {
        "date": "2023-12-21",
        "priceEur": 218000,
        "typeLocal": "Maison",
        "surfaceM2": 54,
        "isVefa": false
      }
    ]
  }
}