{
  "1624f6c046f8": {
    "id": "1624f6c046f8",
    "label": "13 RTE DE NEWTON LONGVILLE, Longueville-sur-Scie",
    "lat": 49.791067,
    "lng": 1.10796,
    "transactions": [
      {
        "date": "2020-12-22",
        "priceEur": 124000,
        "typeLocal": "Maison",
        "surfaceM2": 103,
        "isVefa": false
      }
    ]
  },
  "d3919c2fa8dd": {
    "id": "d3919c2fa8dd",
    "label": "5114 LE VILLAGE, Longueville-sur-Scie",
    "lat": 49.792449,
    "lng": 1.10911,
    "transactions": [
      {
        "date": "2020-12-18",
        "priceEur": 90000,
        "typeLocal": "Maison",
        "surfaceM2": 80,
        "isVefa": false
      }
    ]
  },
  "7f97f5f62cf1": {
    "id": "7f97f5f62cf1",
    "label": "5 RTE DE NEWTON LONGVILLE, Longueville-sur-Scie",
    "lat": 49.790345,
    "lng": 1.108195,
    "transactions": [
      {
        "date": "2021-12-16",
        "priceEur": 115000,
        "typeLocal": "Appartement",
        "surfaceM2": 79,
        "isVefa": false
      }
    ]
  },
  "a5f4a1becb09": {
    "id": "a5f4a1becb09",
    "label": "4 RUE DES ANCIENS COMBATTANTS, Longueville-sur-Scie",
    "lat": 49.790077,
    "lng": 1.109086,
    "transactions": [
      {
        "date": "2021-12-28",
        "priceEur": 155000,
        "typeLocal": "Maison",
        "surfaceM2": 82,
        "isVefa": false
      }
    ]
  },
  "62a1c2068a6f": {
    "id": "62a1c2068a6f",
    "label": "4 RUE GUYNEMER, Longueville-sur-Scie",
    "lat": 49.792082,
    "lng": 1.109266,
    "transactions": [
      {
        "date": "2021-01-04",
        "priceEur": 140000,
        "typeLocal": "Appartement",
        "surfaceM2": 82,
        "isVefa": false
      }
    ]
  },
  "fbe1528b924f": {
    "id": "fbe1528b924f",
    "label": "2B RUE GUYNEMER, Longueville-sur-Scie",
    "lat": 49.792011,
    "lng": 1.109246,
    "transactions": [
      {
        "date": "2021-03-01",
        "priceEur": 61000,
        "typeLocal": "Appartement",
        "surfaceM2": 32,
        "isVefa": false
      }
    ]
  },
  "b5147efd79de": {
    "id": "b5147efd79de",
    "label": "5126 LE VILLAGE, Longueville-sur-Scie",
    "lat": 49.792905,
    "lng": 1.10823,
    "transactions": [
      {
        "date": "2021-07-03",
        "priceEur": 358000,
        "typeLocal": "Maison",
        "surfaceM2": 180,
        "isVefa": false
      }
    ]
  },
  "5eb8a8a21f52": {
    "id": "5eb8a8a21f52",
    "label": "5064 LE VILLAGE, Longueville-sur-Scie",
    "lat": 49.793871,
    "lng": 1.109579,
    "transactions": [
      {
        "date": "2021-08-10",
        "priceEur": 105800,
        "typeLocal": "Maison",
        "surfaceM2": 65,
        "isVefa": false
      }
    ]
  },
  "80f526db6b10": {
    "id": "80f526db6b10",
    "label": "6 RTE DE NEWTON LONGVILLE, Longueville-sur-Scie",
    "lat": 49.790059,
    "lng": 1.108673,
    "transactions": [
      {
        "date": "2022-06-16",
        "priceEur": 222000,
        "typeLocal": "Appartement",
        "surfaceM2": 66,
        "isVefa": false
      },
      {
        "date": "2022-06-16",
        "priceEur": 222000,
        "typeLocal": "Appartement",
        "surfaceM2": 45,
        "isVefa": false
      },
      {
        "date": "2022-06-16",
        "priceEur": 222000,
        "typeLocal": "Appartement",
        "surfaceM2": 40,
        "isVefa": false
      },
      {
        "date": "2022-06-16",
        "priceEur": 222000,
        "typeLocal": "Appartement",
        "surfaceM2": 50,
        "isVefa": false
      },
      {
        "date": "2022-06-16",
        "priceEur": 222000,
        "typeLocal": "Appartement",
        "surfaceM2": 55,
        "isVefa": false
      }
    ]
  },
  "08af06c00b09": {
    "id": "08af06c00b09",
    "label": "6 SQ DU CANADA, Longueville-sur-Scie",
    "lat": 49.793821,
    "lng": 1.106527,
    "transactions": [
      {
        "date": "2022-06-30",
        "priceEur": 99000,
        "typeLocal": "Maison",
        "surfaceM2": 73,
        "isVefa": false
      }
    ]
  },
  "20118f0efd25": {
    "id": "20118f0efd25",
    "label": "16 RUE PIERRE LEVERDIER, Longueville-sur-Scie",
    "lat": 49.791066,
    "lng": 1.108968,
    "transactions": [
      {
        "date": "2022-08-23",
        "priceEur": 320000,
        "typeLocal": "Maison",
        "surfaceM2": 143,
        "isVefa": false
      }
    ]
  },
  "83f39279319d": {
    "id": "83f39279319d",
    "label": "7 RUE GUYNEMER, Longueville-sur-Scie",
    "lat": 49.791949,
    "lng": 1.108868,
    "transactions": [
      {
        "date": "2022-08-30",
        "priceEur": 105000,
        "typeLocal": "Maison",
        "surfaceM2": 76,
        "isVefa": false
      }
    ]
  },
  "85ad21ff4d96": {
    "id": "85ad21ff4d96",
    "label": "1 IMP DES FLEURS, Longueville-sur-Scie",
    "lat": 49.793354,
    "lng": 1.107307,
    "transactions": [
      {
        "date": "2022-08-30",
        "priceEur": 153000,
        "typeLocal": "Maison",
        "surfaceM2": 70,
        "isVefa": false
      }
    ]
  },
  "1c0484394ebd": {
    "id": "1c0484394ebd",
    "label": "2 RUE PIERRE LEVERDIER, Longueville-sur-Scie",
    "lat": 49.791611,
    "lng": 1.109135,
    "transactions": [
      {
        "date": "2023-05-31",
        "priceEur": 153000,
        "typeLocal": "Appartement",
        "surfaceM2": 37,
        "isVefa": false
      },
      {
        "date": "2023-05-31",
        "priceEur": 153000,
        "typeLocal": "Appartement",
        "surfaceM2": 30,
        "isVefa": false
      }
    ]
  },
  "95f028a60042": {
    "id": "95f028a60042",
    "label": "2 RUE DU PONT SAINT PIERRE, Longueville-sur-Scie",
    "lat": 49.792365,
    "lng": 1.108375,
    "transactions": [
      {
        "date": "2023-06-23",
        "priceEur": 83000,
        "typeLocal": "Maison",
        "surfaceM2": 39,
        "isVefa": false
      }
    ]
  },
  "5f6df23d10ef": {
    "id": "5f6df23d10ef",
    "label": "10 RUE GUYNEMER, Longueville-sur-Scie",
    "lat": 49.792205,
    "lng": 1.109143,
    "transactions": [
      {
        "date": "2023-12-29",
        "priceEur": 45000,
        "typeLocal": "Maison",
        "surfaceM2": 57,
        "isVefa": false
      }
    ]
  },
  "18d2cc74714b": {
    "id": "18d2cc74714b",
    "label": "9 RUE GUYNEMER, Longueville-sur-Scie",
    "lat": 49.791985,
    "lng": 1.108843,
    "transactions": [
      {
        "date": "2024-01-02",
        "priceEur": 125000,
        "typeLocal": "Maison",
        "surfaceM2": 92,
        "isVefa": false
      }
    ]
  },
  "048daf3ce155": {
    "id": "048daf3ce155",
    "label": "17 RUE BERTHET BURLET, Longueville-sur-Scie",
    "lat": 49.793304,
    "lng": 1.109502,
    "transactions": [
      {
        "date": "2024-09-13",
        "priceEur": 83000,
        "typeLocal": "Maison",
        "surfaceM2": 96,
        "isVefa": false
      }
    ]
  },
  "f6f6be1eb0b1": {
    "id": "f6f6be1eb0b1",
    "label": "31 RUE BERTHET BURLET, Longueville-sur-Scie",
    "lat": 49.794145,
    "lng": 1.10886,
    "transactions": [
      {
        "date": "2025-03-31",
        "priceEur": 423000,
        "typeLocal": "Maison",
        "surfaceM2": 202,
        "isVefa": false
      }
    ]
  },
  "91545e87f049": {
    "id": "91545e87f049",
    "label": "8 RUE GUYNEMER, Longueville-sur-Scie",
    "lat": 49.792194,
    "lng": 1.109191,
    "transactions": [
      {
        "date": "2025-04-15",
        "priceEur": 104000,
        "typeLocal": "Maison",
        "surfaceM2": 81,
        "isVefa": false
      }
    ]
  }
}