{
  "96b374d897c1": {
    "id": "96b374d897c1",
    "label": "90 RUE LOUIS DUTHIL, Clères",
    "lat": 49.599808,
    "lng": 1.109247,
    "transactions": [
      {
        "date": "2020-08-24",
        "priceEur": 178500,
        "typeLocal": "Maison",
        "surfaceM2": 186,
        "isVefa": false
      }
    ]
  },
  "586a9658d3bf": {
    "id": "586a9658d3bf",
    "label": "52 RUE LOUIS DUTHIL, Clères",
    "lat": 49.600499,
    "lng": 1.109128,
    "transactions": [
      {
        "date": "2025-04-25",
        "priceEur": 97850,
        "typeLocal": "Appartement",
        "surfaceM2": 44,
        "isVefa": false
      },
      {
        "date": "2020-11-02",
        "priceEur": 116000,
        "typeLocal": "Appartement",
        "surfaceM2": 56,
        "isVefa": false
      }
    ]
  },
  "6101abb0cc46": {
    "id": "6101abb0cc46",
    "label": "106 CHE DU MOUCHEL, Clères",
    "lat": 49.601036,
    "lng": 1.105996,
    "transactions": [
      {
        "date": "2021-05-03",
        "priceEur": 81000,
        "typeLocal": "Maison",
        "surfaceM2": 74,
        "isVefa": false
      }
    ]
  },
  "a1d5f9a4c79c": {
    "id": "a1d5f9a4c79c",
    "label": "63 RUE HIPPOLYTE LEMARCHAND, Clères",
    "lat": 49.598985,
    "lng": 1.109071,
    "transactions": [
      {
        "date": "2022-01-12",
        "priceEur": 255000,
        "typeLocal": "Maison",
        "surfaceM2": 80,
        "isVefa": false
      }
    ]
  },
  "a9dca3e3a1a8": {
    "id": "a9dca3e3a1a8",
    "label": "69 RUE HIPPOLYTE LEMARCHAND, Clères",
    "lat": 49.598986,
    "lng": 1.109156,
    "transactions": [
      {
        "date": "2022-07-07",
        "priceEur": 90625,
        "typeLocal": "Maison",
        "surfaceM2": 33,
        "isVefa": false
      },
      {
        "date": "2022-01-12",
        "priceEur": 255000,
        "typeLocal": "Maison",
        "surfaceM2": 33,
        "isVefa": false
      }
    ]
  },
  "c61f68d00afc": {
    "id": "c61f68d00afc",
    "label": "76 RUE DE L'EGLISE, Clères",
    "lat": 49.598617,
    "lng": 1.108967,
    "transactions": [
      {
        "date": "2022-03-23",
        "priceEur": 110000,
        "typeLocal": "Appartement",
        "surfaceM2": 97,
        "isVefa": false
      }
    ]
  },
  "8a7bca943ec3": {
    "id": "8a7bca943ec3",
    "label": "122 CHE DU MOUCHEL, Clères",
    "lat": 49.601128,
    "lng": 1.105796,
    "transactions": [
      {
        "date": "2022-03-31",
        "priceEur": 234000,
        "typeLocal": "Maison",
        "surfaceM2": 85,
        "isVefa": false
      }
    ]
  },
  "f63ea6803544": {
    "id": "f63ea6803544",
    "label": "169D RUE LOUIS DUTHIL, Clères",
    "lat": 49.599466,
    "lng": 1.108099,
    "transactions": [
      {
        "date": "2022-04-07",
        "priceEur": 190000,
        "typeLocal": "Maison",
        "surfaceM2": 128,
        "isVefa": false
      }
    ]
  },
  "0dbe970f760d": {
    "id": "0dbe970f760d",
    "label": "26 RUE DE L'EGLISE, Clères",
    "lat": 49.598749,
    "lng": 1.109536,
    "transactions": [
      {
        "date": "2022-08-18",
        "priceEur": 145000,
        "typeLocal": "Appartement",
        "surfaceM2": 68,
        "isVefa": false
      }
    ]
  },
  "de07cf84723b": {
    "id": "de07cf84723b",
    "label": "314 RUE HIPPOLYTE LEMARCHAND, Clères",
    "lat": 49.599788,
    "lng": 1.107379,
    "transactions": [
      {
        "date": "2024-11-18",
        "priceEur": 355000,
        "typeLocal": "Appartement",
        "surfaceM2": 89,
        "isVefa": false
      },
      {
        "date": "2024-11-18",
        "priceEur": 355000,
        "typeLocal": "Appartement",
        "surfaceM2": 39,
        "isVefa": false
      },
      {
        "date": "2024-11-18",
        "priceEur": 355000,
        "typeLocal": "Appartement",
        "surfaceM2": 51,
        "isVefa": false
      },
      {
        "date": "2024-11-18",
        "priceEur": 355000,
        "typeLocal": "Appartement",
        "surfaceM2": 25,
        "isVefa": false
      },
      {
        "date": "2024-11-18",
        "priceEur": 355000,
        "typeLocal": "Appartement",
        "surfaceM2": 16,
        "isVefa": false
      },
      {
        "date": "2024-11-18",
        "priceEur": 355000,
        "typeLocal": "Appartement",
        "surfaceM2": 64,
        "isVefa": false
      }
    ]
  }
}