{
  "db1bd8f05514": {
    "id": "db1bd8f05514",
    "label": "9027 HAMEAU ISAMBERT, Montville",
    "lat": 49.545162,
    "lng": 1.1016,
    "transactions": [
      {
        "date": "2020-08-06",
        "priceEur": 185000,
        "typeLocal": "Maison",
        "surfaceM2": 94,
        "isVefa": false
      }
    ]
  },
  "3a6de11a4ae5": {
    "id": "3a6de11a4ae5",
    "label": "7 DOM DU LIEUPIN, Montville",
    "lat": 49.54648,
    "lng": 1.106468,
    "transactions": [
      {
        "date": "2020-09-30",
        "priceEur": 536000,
        "typeLocal": "Maison",
        "surfaceM2": 152,
        "isVefa": false
      }
    ]
  },
  "b504ee9d73d3": {
    "id": "b504ee9d73d3",
    "label": "1993 RUE DE BOIS ISAMBERT, Montville",
    "lat": 49.543846,
    "lng": 1.10595,
    "transactions": [
      {
        "date": "2021-12-09",
        "priceEur": 236000,
        "typeLocal": "Maison",
        "surfaceM2": 102,
        "isVefa": false
      }
    ]
  },
  "cd7b07a25a1c": {
    "id": "cd7b07a25a1c",
    "label": "11 LOT DOMAINE DES VAUX FERET, Montville",
    "lat": 49.544324,
    "lng": 1.100055,
    "transactions": [
      {
        "date": "2021-03-31",
        "priceEur": 246500,
        "typeLocal": "Maison",
        "surfaceM2": 103,
        "isVefa": false
      }
    ]
  },
  "48e4a94dff33": {
    "id": "48e4a94dff33",
    "label": "2 DOM DU LIEUPIN, Montville",
    "lat": 49.543736,
    "lng": 1.107512,
    "transactions": [
      {
        "date": "2021-06-16",
        "priceEur": 310000,
        "typeLocal": "Maison",
        "surfaceM2": 143,
        "isVefa": false
      }
    ]
  },
  "ac8cf3514662": {
    "id": "ac8cf3514662",
    "label": "14 HAMEAU ISAMBERT, Montville",
    "lat": 49.54618,
    "lng": 1.101854,
    "transactions": [
      {
        "date": "2021-06-25",
        "priceEur": 380348,
        "typeLocal": "Maison",
        "surfaceM2": 152,
        "isVefa": false
      }
    ]
  },
  "d20af77f4c15": {
    "id": "d20af77f4c15",
    "label": "9012 HAMEAU ISAMBERT, Montville",
    "lat": 49.543545,
    "lng": 1.109533,
    "transactions": [
      {
        "date": "2021-06-14",
        "priceEur": 210000,
        "typeLocal": "Maison",
        "surfaceM2": 70,
        "isVefa": false
      }
    ]
  },
  "d8b38c211e1c": {
    "id": "d8b38c211e1c",
    "label": "10 DOM DU LIEUPIN, Montville",
    "lat": 49.54637,
    "lng": 1.107546,
    "transactions": [
      {
        "date": "2021-07-23",
        "priceEur": 281000,
        "typeLocal": "Maison",
        "surfaceM2": 140,
        "isVefa": false
      }
    ]
  },
  "a86049631cba": {
    "id": "a86049631cba",
    "label": "27 LOT DOMAINE DES VAUX FERET, Montville",
    "lat": 49.544646,
    "lng": 1.100938,
    "transactions": [
      {
        "date": "2021-10-04",
        "priceEur": 258000,
        "typeLocal": "Maison",
        "surfaceM2": 94,
        "isVefa": false
      }
    ]
  },
  "61f9c1606634": {
    "id": "61f9c1606634",
    "label": "5 DOM DES FRAISIERS, Montville",
    "lat": 49.546449,
    "lng": 1.103124,
    "transactions": [
      {
        "date": "2022-07-26",
        "priceEur": 308000,
        "typeLocal": "Maison",
        "surfaceM2": 104,
        "isVefa": false
      }
    ]
  },
  "bface5c3d2a5": {
    "id": "bface5c3d2a5",
    "label": "354 RUE AU SEL, Montville",
    "lat": 49.540401,
    "lng": 1.108008,
    "transactions": [
      {
        "date": "2022-11-02",
        "priceEur": 110000,
        "typeLocal": "Maison",
        "surfaceM2": 102,
        "isVefa": false
      }
    ]
  },
  "eec4b1599d31": {
    "id": "eec4b1599d31",
    "label": "1 DOM AU SEL, Montville",
    "lat": 49.543046,
    "lng": 1.108988,
    "transactions": [
      {
        "date": "2023-02-03",
        "priceEur": 410000,
        "typeLocal": "Maison",
        "surfaceM2": 170,
        "isVefa": false
      }
    ]
  },
  "01397cfc04e5": {
    "id": "01397cfc04e5",
    "label": "13 LOT DOMAINE DES LYS, Montville",
    "lat": 49.543272,
    "lng": 1.105028,
    "transactions": [
      {
        "date": "2023-06-16",
        "priceEur": 352200,
        "typeLocal": "Maison",
        "surfaceM2": 108,
        "isVefa": false
      }
    ]
  },
  "6aa86c181358": {
    "id": "6aa86c181358",
    "label": "4 DOM AU SEL, Montville",
    "lat": 49.542652,
    "lng": 1.108199,
    "transactions": [
      {
        "date": "2023-06-22",
        "priceEur": 399000,
        "typeLocal": "Maison",
        "surfaceM2": 139,
        "isVefa": false
      }
    ]
  },
  "da698c41af91": {
    "id": "da698c41af91",
    "label": "23 LOT DOMAINE DES VAUX FERET, Montville",
    "lat": 49.544619,
    "lng": 1.10008,
    "transactions": [
      {
        "date": "2023-08-28",
        "priceEur": 434850,
        "typeLocal": "Maison",
        "surfaceM2": 157,
        "isVefa": false
      }
    ]
  },
  "f45a91981e79": {
    "id": "f45a91981e79",
    "label": "108 CHE DU LIEUPIN, Montville",
    "lat": 49.545242,
    "lng": 1.102254,
    "transactions": [
      {
        "date": "2023-10-06",
        "priceEur": 440000,
        "typeLocal": "Maison",
        "surfaceM2": 218,
        "isVefa": false
      }
    ]
  },
  "d1c69c7837eb": {
    "id": "d1c69c7837eb",
    "label": "7 DOM DES BLEUETS, Montville",
    "lat": 49.541785,
    "lng": 1.106403,
    "transactions": [
      {
        "date": "2023-11-20",
        "priceEur": 212000,
        "typeLocal": "Maison",
        "surfaceM2": 87,
        "isVefa": false
      }
    ]
  },
  "faf58605a33c": {
    "id": "faf58605a33c",
    "label": "9015B HAMEAU ISAMBERT, Montville",
    "lat": 49.544089,
    "lng": 1.105674,
    "transactions": [
      {
        "date": "2023-12-08",
        "priceEur": 245500,
        "typeLocal": "Maison",
        "surfaceM2": 98,
        "isVefa": false
      }
    ]
  },
  "0cf7eb0162e5": {
    "id": "0cf7eb0162e5",
    "label": "6 DOM DES BLEUETS, Montville",
    "lat": 49.541918,
    "lng": 1.10592,
    "transactions": [
      {
        "date": "2024-06-20",
        "priceEur": 210000,
        "typeLocal": "Maison",
        "surfaceM2": 87,
        "isVefa": false
      }
    ]
  },
  "c04ef3cf1751": {
    "id": "c04ef3cf1751",
    "label": "1998 RUE DE BOIS ISAMBERT, Montville",
    "lat": 49.542588,
    "lng": 1.106907,
    "transactions": [
      {
        "date": "2024-07-24",
        "priceEur": 624550,
        "typeLocal": "Maison",
        "surfaceM2": 300,
        "isVefa": false
      }
    ]
  },
  "08a84e656afa": {
    "id": "08a84e656afa",
    "label": "2233 RUE DE BOIS ISAMBERT, Montville",
    "lat": 49.543353,
    "lng": 1.109408,
    "transactions": [
      {
        "date": "2024-10-24",
        "priceEur": 251000,
        "typeLocal": "Maison",
        "surfaceM2": 70,
        "isVefa": false
      }
    ]
  }
}