{
  "ecbb10e10a78": {
    "id": "ecbb10e10a78",
    "label": "77 RUE DES MONTS, Vatteville-la-Rue",
    "lat": 49.47909,
    "lng": 0.683759,
    "transactions": [
      {
        "date": "2020-11-07",
        "priceEur": 115000,
        "typeLocal": "Maison",
        "surfaceM2": 107,
        "isVefa": false
      }
    ]
  },
  "efd5b3d1971b": {
    "id": "efd5b3d1971b",
    "label": "107 RUE DES MONTS, Vatteville-la-Rue",
    "lat": 49.479119,
    "lng": 0.684155,
    "transactions": [
      {
        "date": "2021-01-06",
        "priceEur": 81000,
        "typeLocal": "Maison",
        "surfaceM2": 87,
        "isVefa": false
      }
    ]
  },
  "8a5f4888263d": {
    "id": "8a5f4888263d",
    "label": "9001 RUE DU QUESNEY, Vatteville-la-Rue",
    "lat": 49.480489,
    "lng": 0.681479,
    "transactions": [
      {
        "date": "2021-01-27",
        "priceEur": 44500,
        "typeLocal": "Maison",
        "surfaceM2": 30,
        "isVefa": false
      }
    ]
  },
  "6b1bd2a2e916": {
    "id": "6b1bd2a2e916",
    "label": "77 CHE DU ROY, Vatteville-la-Rue",
    "lat": 49.478262,
    "lng": 0.683691,
    "transactions": [
      {
        "date": "2021-03-05",
        "priceEur": 178500,
        "typeLocal": "Maison",
        "surfaceM2": 100,
        "isVefa": false
      }
    ]
  },
  "45ee94183a3c": {
    "id": "45ee94183a3c",
    "label": "303 RLE BIGNON, Vatteville-la-Rue",
    "lat": 49.482081,
    "lng": 0.688513,
    "transactions": [
      {
        "date": "2022-04-08",
        "priceEur": 40000,
        "typeLocal": "Maison",
        "surfaceM2": 36,
        "isVefa": false
      }
    ]
  },
  "6cb5a2346226": {
    "id": "6cb5a2346226",
    "label": "333 RUE DES MONTS, Vatteville-la-Rue",
    "lat": 49.478546,
    "lng": 0.687452,
    "transactions": [
      {
        "date": "2023-03-21",
        "priceEur": 165000,
        "typeLocal": "Maison",
        "surfaceM2": 130,
        "isVefa": false
      }
    ]
  },
  "4f12b624019e": {
    "id": "4f12b624019e",
    "label": "104 RUE DU QUESNEY, Vatteville-la-Rue",
    "lat": 49.480212,
    "lng": 0.681731,
    "transactions": [
      {
        "date": "2023-09-22",
        "priceEur": 180000,
        "typeLocal": "Maison",
        "surfaceM2": 150,
        "isVefa": false
      }
    ]
  },
  "e354b3b1f665": {
    "id": "e354b3b1f665",
    "label": "1050 RTE D'AIZIER, Vatteville-la-Rue",
    "lat": 49.480926,
    "lng": 0.682717,
    "transactions": [
      {
        "date": "2023-09-29",
        "priceEur": 200000,
        "typeLocal": "Maison",
        "surfaceM2": 200,
        "isVefa": false
      }
    ]
  },
  "5818dcffa2fb": {
    "id": "5818dcffa2fb",
    "label": "460 RUE DES MONTS, Vatteville-la-Rue",
    "lat": 49.477345,
    "lng": 0.688251,
    "transactions": [
      {
        "date": "2024-07-16",
        "priceEur": 282000,
        "typeLocal": "Maison",
        "surfaceM2": 168,
        "isVefa": false
      }
    ]
  },
  "cb112150cfc5": {
    "id": "cb112150cfc5",
    "label": "1255 RTE D'AIZIER, Vatteville-la-Rue",
    "lat": 49.478802,
    "lng": 0.682122,
    "transactions": [
      {
        "date": "2024-08-30",
        "priceEur": 160000,
        "typeLocal": "Maison",
        "surfaceM2": 130,
        "isVefa": false
      }
    ]
  }
}