{
  "4d770d97f7e5": {
    "id": "4d770d97f7e5",
    "label": "7 CHE DES VIOLETTES, Le Bosc",
    "lat": 43.694846,
    "lng": 3.34707,
    "transactions": [
      {
        "date": "2020-07-01",
        "priceEur": 279000,
        "typeLocal": "Maison",
        "surfaceM2": 148,
        "isVefa": false
      }
    ]
  },
  "791d35c8de0b": {
    "id": "791d35c8de0b",
    "label": "2 CHE DU GRENADIER, Le Bosc",
    "lat": 43.694127,
    "lng": 3.346291,
    "transactions": [
      {
        "date": "2021-12-03",
        "priceEur": 250000,
        "typeLocal": "Maison",
        "surfaceM2": 90,
        "isVefa": false
      },
      {
        "date": "2021-12-03",
        "priceEur": 250000,
        "typeLocal": "Maison",
        "surfaceM2": 90,
        "isVefa": false
      }
    ]
  },
  "5c8a0230b0fb": {
    "id": "5c8a0230b0fb",
    "label": "2 CHE DES CIGALES, Le Bosc",
    "lat": 43.695657,
    "lng": 3.346786,
    "transactions": [
      {
        "date": "2022-04-26",
        "priceEur": 326720,
        "typeLocal": "Maison",
        "surfaceM2": 194,
        "isVefa": false
      },
      {
        "date": "2022-04-26",
        "priceEur": 326720,
        "typeLocal": "Maison",
        "surfaceM2": 194,
        "isVefa": false
      }
    ]
  },
  "d08cbd9bfc0d": {
    "id": "d08cbd9bfc0d",
    "label": "2 IMP DES TOURTERELLES, Le Bosc",
    "lat": 43.694714,
    "lng": 3.344573,
    "transactions": [
      {
        "date": "2024-01-08",
        "priceEur": 300600,
        "typeLocal": "Maison",
        "surfaceM2": 123,
        "isVefa": false
      },
      {
        "date": "2024-01-08",
        "priceEur": 300600,
        "typeLocal": "Maison",
        "surfaceM2": 123,
        "isVefa": false
      }
    ]
  },
  "6ecfee136be2": {
    "id": "6ecfee136be2",
    "label": "6333F MAS LAVAYRE, Le Bosc",
    "lat": 43.692172,
    "lng": 3.350077,
    "transactions": [
      {
        "date": "2024-06-04",
        "priceEur": 250000,
        "typeLocal": "Maison",
        "surfaceM2": 83,
        "isVefa": false
      }
    ]
  },
  "158f10d46afd": {
    "id": "158f10d46afd",
    "label": "6217 CAMP DEL ROUVE, Le Bosc",
    "lat": 43.692531,
    "lng": 3.349206,
    "transactions": [
      {
        "date": "2025-05-07",
        "priceEur": 289000,
        "typeLocal": "Appartement",
        "surfaceM2": 95,
        "isVefa": false
      },
      {
        "date": "2025-05-07",
        "priceEur": 289000,
        "typeLocal": "Appartement",
        "surfaceM2": 98,
        "isVefa": false
      },
      {
        "date": "2025-05-07",
        "priceEur": 289000,
        "typeLocal": "Appartement",
        "surfaceM2": 98,
        "isVefa": false
      },
      {
        "date": "2025-05-07",
        "priceEur": 289000,
        "typeLocal": "Appartement",
        "surfaceM2": 95,
        "isVefa": false
      }
    ]
  }
}