{
  "2348905e59e5": {
    "id": "2348905e59e5",
    "label": "30 CHE DE LA PROCESSION, Portiragnes",
    "lat": 43.306372,
    "lng": 3.343159,
    "transactions": [
      {
        "date": "2022-06-29",
        "priceEur": 746405,
        "typeLocal": "Maison",
        "surfaceM2": 214,
        "isVefa": false
      },
      {
        "date": "2022-06-29",
        "priceEur": 746405,
        "typeLocal": "Maison",
        "surfaceM2": 214,
        "isVefa": false
      },
      {
        "date": "2020-08-25",
        "priceEur": 515000,
        "typeLocal": "Maison",
        "surfaceM2": 214,
        "isVefa": false
      },
      {
        "date": "2020-08-25",
        "priceEur": 515000,
        "typeLocal": "Maison",
        "surfaceM2": 214,
        "isVefa": false
      }
    ]
  },
  "3205feaf4712": {
    "id": "3205feaf4712",
    "label": "4B CHE DES TRESSES, Portiragnes",
    "lat": 43.304443,
    "lng": 3.345783,
    "transactions": [
      {
        "date": "2020-09-16",
        "priceEur": 522700,
        "typeLocal": "Maison",
        "surfaceM2": 165,
        "isVefa": false
      }
    ]
  },
  "eaa782c42635": {
    "id": "eaa782c42635",
    "label": "86 RES LES MOULINS DE LA MER, Portiragnes",
    "lat": 43.302575,
    "lng": 3.346902,
    "transactions": [
      {
        "date": "2020-10-08",
        "priceEur": 187000,
        "typeLocal": "Maison",
        "surfaceM2": 82,
        "isVefa": false
      }
    ]
  },
  "d8aef55c00c3": {
    "id": "d8aef55c00c3",
    "label": "23 RES LES MOULINS DE LA MER, Portiragnes",
    "lat": 43.302575,
    "lng": 3.346902,
    "transactions": [
      {
        "date": "2020-10-15",
        "priceEur": 120500,
        "typeLocal": "Maison",
        "surfaceM2": 44,
        "isVefa": false
      }
    ]
  },
  "abe2d14a80a0": {
    "id": "abe2d14a80a0",
    "label": "25 CHE DES TRESSES, Portiragnes",
    "lat": 43.303019,
    "lng": 3.346755,
    "transactions": [
      {
        "date": "2020-10-15",
        "priceEur": 609000,
        "typeLocal": "Maison",
        "surfaceM2": 120,
        "isVefa": false
      },
      {
        "date": "2020-10-15",
        "priceEur": 609000,
        "typeLocal": "Maison",
        "surfaceM2": 120,
        "isVefa": false
      }
    ]
  },
  "edb7a9cdab0c": {
    "id": "edb7a9cdab0c",
    "label": "31 RES LES MOULINS DE LA MER, Portiragnes",
    "lat": 43.302575,
    "lng": 3.346902,
    "transactions": [
      {
        "date": "2020-10-16",
        "priceEur": 145000,
        "typeLocal": "Maison",
        "surfaceM2": 38,
        "isVefa": false
      }
    ]
  },
  "aeba5e8a8b2c": {
    "id": "aeba5e8a8b2c",
    "label": "9 RUE FERNAND LEGER, Portiragnes",
    "lat": 43.302938,
    "lng": 3.34383,
    "transactions": [
      {
        "date": "2020-11-24",
        "priceEur": 267000,
        "typeLocal": "Maison",
        "surfaceM2": 90,
        "isVefa": false
      }
    ]
  },
  "318064d2a17a": {
    "id": "318064d2a17a",
    "label": "124 RES LES MOULINS DE LA MER, Portiragnes",
    "lat": 43.302575,
    "lng": 3.346902,
    "transactions": [
      {
        "date": "2020-12-18",
        "priceEur": 123000,
        "typeLocal": "Maison",
        "surfaceM2": 48,
        "isVefa": false
      }
    ]
  },
  "64cca6ee9887": {
    "id": "64cca6ee9887",
    "label": "14 IMP FERNAND LEGER, Portiragnes",
    "lat": 43.302976,
    "lng": 3.343104,
    "transactions": [
      {
        "date": "2020-12-03",
        "priceEur": 265000,
        "typeLocal": "Maison",
        "surfaceM2": 90,
        "isVefa": false
      }
    ]
  },
  "e011f7688203": {
    "id": "e011f7688203",
    "label": "13 RUE RABELAIS, Portiragnes",
    "lat": 43.303382,
    "lng": 3.341657,
    "transactions": [
      {
        "date": "2020-12-21",
        "priceEur": 287570,
        "typeLocal": "Maison",
        "surfaceM2": 91,
        "isVefa": false
      }
    ]
  },
  "65061f3e7814": {
    "id": "65061f3e7814",
    "label": "129 RES LES MOULINS DE LA MER, Portiragnes",
    "lat": 43.302575,
    "lng": 3.346902,
    "transactions": [
      {
        "date": "2024-10-25",
        "priceEur": 178600,
        "typeLocal": "Maison",
        "surfaceM2": 56,
        "isVefa": false
      },
      {
        "date": "2020-12-30",
        "priceEur": 147540,
        "typeLocal": "Maison",
        "surfaceM2": 56,
        "isVefa": false
      }
    ]
  },
  "7e521ed9d538": {
    "id": "7e521ed9d538",
    "label": "172 RES LES MOULINS DE LA MER, Portiragnes",
    "lat": 43.302575,
    "lng": 3.346902,
    "transactions": [
      {
        "date": "2020-12-21",
        "priceEur": 167340,
        "typeLocal": "Maison",
        "surfaceM2": 73,
        "isVefa": false
      }
    ]
  },
  "f43965a356af": {
    "id": "f43965a356af",
    "label": "7 RUE CORNEILLE, Portiragnes",
    "lat": 43.303339,
    "lng": 3.341054,
    "transactions": [
      {
        "date": "2023-03-23",
        "priceEur": 478260,
        "typeLocal": "Maison",
        "surfaceM2": 146,
        "isVefa": false
      },
      {
        "date": "2022-04-14",
        "priceEur": 363400,
        "typeLocal": "Maison",
        "surfaceM2": 126,
        "isVefa": false
      },
      {
        "date": "2021-02-01",
        "priceEur": 335000,
        "typeLocal": "Maison",
        "surfaceM2": 126,
        "isVefa": false
      }
    ]
  },
  "51ce1e26fad8": {
    "id": "51ce1e26fad8",
    "label": "13 RUE GEORGES BIZET, Portiragnes",
    "lat": 43.305726,
    "lng": 3.341744,
    "transactions": [
      {
        "date": "2022-07-18",
        "priceEur": 320000,
        "typeLocal": "Maison",
        "surfaceM2": 106,
        "isVefa": false
      },
      {
        "date": "2021-02-15",
        "priceEur": 190000,
        "typeLocal": "Maison",
        "surfaceM2": 106,
        "isVefa": false
      }
    ]
  },
  "d0cb1217ec4e": {
    "id": "d0cb1217ec4e",
    "label": "3 RUE PAUL GAUGUIN, Portiragnes",
    "lat": 43.301406,
    "lng": 3.341467,
    "transactions": [
      {
        "date": "2021-04-08",
        "priceEur": 245500,
        "typeLocal": "Maison",
        "surfaceM2": 86,
        "isVefa": false
      }
    ]
  },
  "1adad05edc8d": {
    "id": "1adad05edc8d",
    "label": "2 RUE CORNEILLE, Portiragnes",
    "lat": 43.302769,
    "lng": 3.34086,
    "transactions": [
      {
        "date": "2021-06-07",
        "priceEur": 377890,
        "typeLocal": "Maison",
        "surfaceM2": 118,
        "isVefa": false
      }
    ]
  },
  "768c80543355": {
    "id": "768c80543355",
    "label": "7 RUE CLAUDE DEBUSSY, Portiragnes",
    "lat": 43.30518,
    "lng": 3.340776,
    "transactions": [
      {
        "date": "2021-06-07",
        "priceEur": 220590,
        "typeLocal": "Maison",
        "surfaceM2": 80,
        "isVefa": false
      }
    ]
  },
  "30f5fdcb59b1": {
    "id": "30f5fdcb59b1",
    "label": "146 RES LES MOULINS DE LA MER, Portiragnes",
    "lat": 43.302575,
    "lng": 3.346902,
    "transactions": [
      {
        "date": "2021-06-25",
        "priceEur": 135000,
        "typeLocal": "Maison",
        "surfaceM2": 42,
        "isVefa": false
      }
    ]
  },
  "6aaa3d6388d5": {
    "id": "6aaa3d6388d5",
    "label": "4 RUE CLAUDE DEBUSSY, Portiragnes",
    "lat": 43.305581,
    "lng": 3.340734,
    "transactions": [
      {
        "date": "2021-09-06",
        "priceEur": 314600,
        "typeLocal": "Maison",
        "surfaceM2": 119,
        "isVefa": false
      }
    ]
  },
  "63570f7c7b5e": {
    "id": "63570f7c7b5e",
    "label": "6 RES LES MOULINS DE LA MER, Portiragnes",
    "lat": 43.302575,
    "lng": 3.346902,
    "transactions": [
      {
        "date": "2021-10-11",
        "priceEur": 250000,
        "typeLocal": "Maison",
        "surfaceM2": 82,
        "isVefa": false
      }
    ]
  },
  "4f47c3d9b4c1": {
    "id": "4f47c3d9b4c1",
    "label": "3 RUE GEORGES BIZET, Portiragnes",
    "lat": 43.305794,
    "lng": 3.340878,
    "transactions": [
      {
        "date": "2021-10-27",
        "priceEur": 190000,
        "typeLocal": "Maison",
        "surfaceM2": 58,
        "isVefa": false
      }
    ]
  },
  "019d78a5ca27": {
    "id": "019d78a5ca27",
    "label": "19 RUE CHARLES GOUNOD, Portiragnes",
    "lat": 43.306611,
    "lng": 3.3411,
    "transactions": [
      {
        "date": "2022-11-28",
        "priceEur": 380000,
        "typeLocal": "Maison",
        "surfaceM2": 97,
        "isVefa": false
      },
      {
        "date": "2021-11-22",
        "priceEur": 480000,
        "typeLocal": "Maison",
        "surfaceM2": 97,
        "isVefa": false
      }
    ]
  },
  "5a1ee4812192": {
    "id": "5a1ee4812192",
    "label": "11 RUE RABELAIS, Portiragnes",
    "lat": 43.303218,
    "lng": 3.341679,
    "transactions": [
      {
        "date": "2021-12-01",
        "priceEur": 314100,
        "typeLocal": "Maison",
        "surfaceM2": 99,
        "isVefa": false
      }
    ]
  },
  "b2fbd69085b0": {
    "id": "b2fbd69085b0",
    "label": "15 RUE CORNEILLE, Portiragnes",
    "lat": 43.304072,
    "lng": 3.34096,
    "transactions": [
      {
        "date": "2022-01-14",
        "priceEur": 275000,
        "typeLocal": "Maison",
        "surfaceM2": 111,
        "isVefa": false
      }
    ]
  },
  "a15cdc9fd2f0": {
    "id": "a15cdc9fd2f0",
    "label": "160 RES LES MOULINS DE LA MER, Portiragnes",
    "lat": 43.302575,
    "lng": 3.346902,
    "transactions": [
      {
        "date": "2022-02-03",
        "priceEur": 199050,
        "typeLocal": "Maison",
        "surfaceM2": 73,
        "isVefa": false
      }
    ]
  },
  "bd00c5726329": {
    "id": "bd00c5726329",
    "label": "8 RUE CLAUDE DEBUSSY, Portiragnes",
    "lat": 43.305357,
    "lng": 3.341185,
    "transactions": [
      {
        "date": "2022-02-08",
        "priceEur": 152000,
        "typeLocal": "Maison",
        "surfaceM2": 61,
        "isVefa": false
      }
    ]
  },
  "7392ecf010d9": {
    "id": "7392ecf010d9",
    "label": "31B CHE DE LA PROCESSION, Portiragnes",
    "lat": 43.307263,
    "lng": 3.342406,
    "transactions": [
      {
        "date": "2022-02-16",
        "priceEur": 535000,
        "typeLocal": "Maison",
        "surfaceM2": 152,
        "isVefa": false
      }
    ]
  },
  "f76705254374": {
    "id": "f76705254374",
    "label": "8 RUE FERNAND LEGER, Portiragnes",
    "lat": 43.302593,
    "lng": 3.342637,
    "transactions": [
      {
        "date": "2022-02-10",
        "priceEur": 239500,
        "typeLocal": "Maison",
        "surfaceM2": 74,
        "isVefa": false
      }
    ]
  },
  "5ecfcb591c39": {
    "id": "5ecfcb591c39",
    "label": "140 RES LES MOULINS DE LA MER, Portiragnes",
    "lat": 43.302575,
    "lng": 3.346902,
    "transactions": [
      {
        "date": "2022-02-23",
        "priceEur": 125000,
        "typeLocal": "Maison",
        "surfaceM2": 42,
        "isVefa": false
      }
    ]
  },
  "bd2fe0556dc7": {
    "id": "bd2fe0556dc7",
    "label": "10 IMP MANU PERO, Portiragnes",
    "lat": 43.303854,
    "lng": 3.343701,
    "transactions": [
      {
        "date": "2022-03-30",
        "priceEur": 273850,
        "typeLocal": "Maison",
        "surfaceM2": 80,
        "isVefa": false
      }
    ]
  },
  "a601fddc6a46": {
    "id": "a601fddc6a46",
    "label": "17 RUE CHARLES GOUNOD, Portiragnes",
    "lat": 43.306608,
    "lng": 3.341422,
    "transactions": [
      {
        "date": "2022-04-15",
        "priceEur": 304500,
        "typeLocal": "Maison",
        "surfaceM2": 94,
        "isVefa": false
      }
    ]
  },
  "48e752c9db78": {
    "id": "48e752c9db78",
    "label": "17 RES LES MOULINS DE LA MER, Portiragnes",
    "lat": 43.302575,
    "lng": 3.346902,
    "transactions": [
      {
        "date": "2025-01-31",
        "priceEur": 119600,
        "typeLocal": "Maison",
        "surfaceM2": 32,
        "isVefa": false
      },
      {
        "date": "2022-04-29",
        "priceEur": 112557,
        "typeLocal": "Maison",
        "surfaceM2": 32,
        "isVefa": false
      }
    ]
  },
  "08cfc22f8025": {
    "id": "08cfc22f8025",
    "label": "8 IMP HENRI MATISSE, Portiragnes",
    "lat": 43.304186,
    "lng": 3.341224,
    "transactions": [
      {
        "date": "2022-06-14",
        "priceEur": 318070,
        "typeLocal": "Maison",
        "surfaceM2": 90,
        "isVefa": false
      }
    ]
  },
  "2a2df8a0cfc1": {
    "id": "2a2df8a0cfc1",
    "label": "16 RUE SALVADOR DALI, Portiragnes",
    "lat": 43.302411,
    "lng": 3.345838,
    "transactions": [
      {
        "date": "2022-09-23",
        "priceEur": 427740,
        "typeLocal": "Maison",
        "surfaceM2": 156,
        "isVefa": false
      }
    ]
  },
  "338712ce4bfd": {
    "id": "338712ce4bfd",
    "label": "4 RUE DU MOULIN A VENT, Portiragnes",
    "lat": 43.303654,
    "lng": 3.344805,
    "transactions": [
      {
        "date": "2022-10-11",
        "priceEur": 380000,
        "typeLocal": "Maison",
        "surfaceM2": 195,
        "isVefa": false
      },
      {
        "date": "2022-10-11",
        "priceEur": 380000,
        "typeLocal": "Maison",
        "surfaceM2": 195,
        "isVefa": false
      }
    ]
  },
  "90457e4ee9d9": {
    "id": "90457e4ee9d9",
    "label": "3 RUE EDOUARD MANET, Portiragnes",
    "lat": 43.302871,
    "lng": 3.344098,
    "transactions": [
      {
        "date": "2022-10-28",
        "priceEur": 366300,
        "typeLocal": "Maison",
        "surfaceM2": 89,
        "isVefa": false
      }
    ]
  },
  "0633d33d401e": {
    "id": "0633d33d401e",
    "label": "29 RUE SALVADOR DALI, Portiragnes",
    "lat": 43.3033,
    "lng": 3.344899,
    "transactions": [
      {
        "date": "2022-11-30",
        "priceEur": 572700,
        "typeLocal": "Maison",
        "surfaceM2": 140,
        "isVefa": false
      }
    ]
  },
  "9c36b2751d90": {
    "id": "9c36b2751d90",
    "label": "88 RES LES MOULINS DE LA MER, Portiragnes",
    "lat": 43.302575,
    "lng": 3.346902,
    "transactions": [
      {
        "date": "2022-12-21",
        "priceEur": 182000,
        "typeLocal": "Maison",
        "surfaceM2": 52,
        "isVefa": false
      }
    ]
  },
  "a78b5656e091": {
    "id": "a78b5656e091",
    "label": "201 RES LES MOULINS DE LA MER, Portiragnes",
    "lat": 43.302575,
    "lng": 3.346902,
    "transactions": [
      {
        "date": "2023-01-25",
        "priceEur": 130000,
        "typeLocal": "Maison",
        "surfaceM2": 61,
        "isVefa": false
      }
    ]
  },
  "cf1d7013f9ee": {
    "id": "cf1d7013f9ee",
    "label": "29 RES LES MOULINS DE LA MER, Portiragnes",
    "lat": 43.302575,
    "lng": 3.346902,
    "transactions": [
      {
        "date": "2023-01-06",
        "priceEur": 155000,
        "typeLocal": "Maison",
        "surfaceM2": 46,
        "isVefa": false
      }
    ]
  },
  "ac21b3d4e7fe": {
    "id": "ac21b3d4e7fe",
    "label": "28 RUE PABLO PICASSO, Portiragnes",
    "lat": 43.302016,
    "lng": 3.343148,
    "transactions": [
      {
        "date": "2023-03-16",
        "priceEur": 192000,
        "typeLocal": "Maison",
        "surfaceM2": 60,
        "isVefa": false
      }
    ]
  },
  "dc9a710bb0d1": {
    "id": "dc9a710bb0d1",
    "label": "21 RUE DU MOULIN A VENT, Portiragnes",
    "lat": 43.301455,
    "lng": 3.342734,
    "transactions": [
      {
        "date": "2023-03-24",
        "priceEur": 295000,
        "typeLocal": "Maison",
        "surfaceM2": 90,
        "isVefa": false
      }
    ]
  },
  "f5be24dd1434": {
    "id": "f5be24dd1434",
    "label": "128 RES LES MOULINS DE LA MER, Portiragnes",
    "lat": 43.302575,
    "lng": 3.346902,
    "transactions": [
      {
        "date": "2023-06-26",
        "priceEur": 154000,
        "typeLocal": "Maison",
        "surfaceM2": 47,
        "isVefa": false
      }
    ]
  },
  "dfdf35b76078": {
    "id": "dfdf35b76078",
    "label": "14 RUE CLAUDE DEBUSSY, Portiragnes",
    "lat": 43.305461,
    "lng": 3.341696,
    "transactions": [
      {
        "date": "2023-07-03",
        "priceEur": 315000,
        "typeLocal": "Maison",
        "surfaceM2": 88,
        "isVefa": false
      }
    ]
  },
  "42b0ddd8bc85": {
    "id": "42b0ddd8bc85",
    "label": "13 IMP MANU PERO, Portiragnes",
    "lat": 43.304155,
    "lng": 3.343578,
    "transactions": [
      {
        "date": "2023-07-24",
        "priceEur": 260000,
        "typeLocal": "Maison",
        "surfaceM2": 79,
        "isVefa": false
      }
    ]
  },
  "54b089da3f51": {
    "id": "54b089da3f51",
    "label": "15 RUE TOULOUSE LAUTREC, Portiragnes",
    "lat": 43.301435,
    "lng": 3.340762,
    "transactions": [
      {
        "date": "2023-07-12",
        "priceEur": 520000,
        "typeLocal": "Maison",
        "surfaceM2": 135,
        "isVefa": false
      }
    ]
  },
  "49129129999d": {
    "id": "49129129999d",
    "label": "168 RES LES MOULINS DE LA MER, Portiragnes",
    "lat": 43.302575,
    "lng": 3.346902,
    "transactions": [
      {
        "date": "2023-11-16",
        "priceEur": 215725,
        "typeLocal": "Maison",
        "surfaceM2": 68,
        "isVefa": false
      }
    ]
  },
  "9304b2e2bab6": {
    "id": "9304b2e2bab6",
    "label": "15 CHE DE LA PROCESSION, Portiragnes",
    "lat": 43.308083,
    "lng": 3.34,
    "transactions": [
      {
        "date": "2023-12-08",
        "priceEur": 373000,
        "typeLocal": "Maison",
        "surfaceM2": 142,
        "isVefa": false
      },
      {
        "date": "2023-12-08",
        "priceEur": 373000,
        "typeLocal": "Maison",
        "surfaceM2": 142,
        "isVefa": false
      }
    ]
  },
  "65da7b6c95bb": {
    "id": "65da7b6c95bb",
    "label": "4 AV DE L EGALITE, Portiragnes",
    "lat": 43.304716,
    "lng": 3.340784,
    "transactions": [
      {
        "date": "2024-01-18",
        "priceEur": 285000,
        "typeLocal": "Maison",
        "surfaceM2": 128,
        "isVefa": false
      }
    ]
  },
  "79b6b5c682bd": {
    "id": "79b6b5c682bd",
    "label": "20 RUE EDOUARD MANET, Portiragnes",
    "lat": 43.302217,
    "lng": 3.344407,
    "transactions": [
      {
        "date": "2024-01-22",
        "priceEur": 225000,
        "typeLocal": "Maison",
        "surfaceM2": 81,
        "isVefa": false
      }
    ]
  },
  "4c3165b9988f": {
    "id": "4c3165b9988f",
    "label": "2 RUE FERNAND LEGER, Portiragnes",
    "lat": 43.302582,
    "lng": 3.342088,
    "transactions": [
      {
        "date": "2024-01-31",
        "priceEur": 325000,
        "typeLocal": "Maison",
        "surfaceM2": 74,
        "isVefa": false
      }
    ]
  },
  "487ad72cc6a3": {
    "id": "487ad72cc6a3",
    "label": "171 RES LES MOULINS DE LA MER, Portiragnes",
    "lat": 43.302575,
    "lng": 3.346902,
    "transactions": [
      {
        "date": "2024-07-04",
        "priceEur": 265000,
        "typeLocal": "Maison",
        "surfaceM2": 73,
        "isVefa": false
      }
    ]
  },
  "e1a2dcafceb4": {
    "id": "e1a2dcafceb4",
    "label": "24 CHE DE LA PROCESSION, Portiragnes",
    "lat": 43.306665,
    "lng": 3.342664,
    "transactions": [
      {
        "date": "2024-08-22",
        "priceEur": 200000,
        "typeLocal": "Maison",
        "surfaceM2": 186,
        "isVefa": false
      }
    ]
  },
  "ec837b4a3fe5": {
    "id": "ec837b4a3fe5",
    "label": "7 RES LES MOULINS DE LA MER, Portiragnes",
    "lat": 43.302575,
    "lng": 3.346902,
    "transactions": [
      {
        "date": "2024-08-28",
        "priceEur": 207000,
        "typeLocal": "Maison",
        "surfaceM2": 65,
        "isVefa": false
      }
    ]
  },
  "db5151ed3e57": {
    "id": "db5151ed3e57",
    "label": "33 RES LES MOULINS DE LA MER, Portiragnes",
    "lat": 43.302575,
    "lng": 3.346902,
    "transactions": [
      {
        "date": "2024-08-28",
        "priceEur": 178600,
        "typeLocal": "Maison",
        "surfaceM2": 48,
        "isVefa": false
      }
    ]
  },
  "6692fafd670e": {
    "id": "6692fafd670e",
    "label": "6 IMP HENRI MATISSE, Portiragnes",
    "lat": 43.303863,
    "lng": 3.342095,
    "transactions": [
      {
        "date": "2024-11-25",
        "priceEur": 288000,
        "typeLocal": "Maison",
        "surfaceM2": 103,
        "isVefa": false
      }
    ]
  },
  "4dc6049e5856": {
    "id": "4dc6049e5856",
    "label": "32 RES LES MOULINS DE LA MER, Portiragnes",
    "lat": 43.302575,
    "lng": 3.346902,
    "transactions": [
      {
        "date": "2024-12-09",
        "priceEur": 145000,
        "typeLocal": "Maison",
        "surfaceM2": 48,
        "isVefa": false
      }
    ]
  },
  "66a27464fcea": {
    "id": "66a27464fcea",
    "label": "7 RUE TOULOUSE LAUTREC, Portiragnes",
    "lat": 43.30124,
    "lng": 3.341776,
    "transactions": [
      {
        "date": "2025-01-28",
        "priceEur": 399190,
        "typeLocal": "Maison",
        "surfaceM2": 112,
        "isVefa": false
      }
    ]
  },
  "e5297eea2b13": {
    "id": "e5297eea2b13",
    "label": "77 RES LES MOULINS DE LA MER, Portiragnes",
    "lat": 43.302575,
    "lng": 3.346902,
    "transactions": [
      {
        "date": "2025-04-25",
        "priceEur": 153900,
        "typeLocal": "Maison",
        "surfaceM2": 48,
        "isVefa": false
      }
    ]
  }
}