{
  "ec53f82303ad": {
    "id": "ec53f82303ad",
    "label": "6A RUE DE LOMBARDIE, Petit-Caux",
    "lat": 49.978907,
    "lng": 1.234117,
    "transactions": [
      {
        "date": "2020-11-27",
        "priceEur": 133792,
        "typeLocal": "Maison",
        "surfaceM2": 77,
        "isVefa": false
      }
    ]
  },
  "89f86505b983": {
    "id": "89f86505b983",
    "label": "2 RUE DES HARES, Petit-Caux",
    "lat": 49.979322,
    "lng": 1.231436,
    "transactions": [
      {
        "date": "2020-12-23",
        "priceEur": 115000,
        "typeLocal": "Maison",
        "surfaceM2": 84,
        "isVefa": false
      }
    ]
  },
  "254e4e7be84d": {
    "id": "254e4e7be84d",
    "label": "5027 LE VILLAGE PENLY, Petit-Caux",
    "lat": 49.979021,
    "lng": 1.231003,
    "transactions": [
      {
        "date": "2021-11-12",
        "priceEur": 135000,
        "typeLocal": "Maison",
        "surfaceM2": 90,
        "isVefa": false
      }
    ]
  },
  "b6b170069800": {
    "id": "b6b170069800",
    "label": "13 RUE DE NAVARRE, Petit-Caux",
    "lat": 49.976433,
    "lng": 1.231013,
    "transactions": [
      {
        "date": "2021-11-30",
        "priceEur": 194550,
        "typeLocal": "Maison",
        "surfaceM2": 103,
        "isVefa": false
      }
    ]
  },
  "0802c63ac261": {
    "id": "0802c63ac261",
    "label": "5008 LE BOUT DE LOMBARDIE, Petit-Caux",
    "lat": 49.978586,
    "lng": 1.236255,
    "transactions": [
      {
        "date": "2021-09-21",
        "priceEur": 248800,
        "typeLocal": "Maison",
        "surfaceM2": 110,
        "isVefa": false
      }
    ]
  },
  "d4298b25385e": {
    "id": "d4298b25385e",
    "label": "6C RUE DE LOMBARDIE, Petit-Caux",
    "lat": 49.978603,
    "lng": 1.234631,
    "transactions": [
      {
        "date": "2022-06-20",
        "priceEur": 160705,
        "typeLocal": "Maison",
        "surfaceM2": 77,
        "isVefa": false
      }
    ]
  },
  "38ef47a695e5": {
    "id": "38ef47a695e5",
    "label": "6D RUE DE LOMBARDIE, Petit-Caux",
    "lat": 49.97851,
    "lng": 1.234771,
    "transactions": [
      {
        "date": "2022-07-25",
        "priceEur": 155705,
        "typeLocal": "Maison",
        "surfaceM2": 77,
        "isVefa": false
      }
    ]
  },
  "d46b510f7656": {
    "id": "d46b510f7656",
    "label": "9 RUE DE LOMBARDIE, Petit-Caux",
    "lat": 49.978866,
    "lng": 1.236378,
    "transactions": [
      {
        "date": "2023-11-20",
        "priceEur": 227000,
        "typeLocal": "Maison",
        "surfaceM2": 145,
        "isVefa": false
      }
    ]
  },
  "661044906bc2": {
    "id": "661044906bc2",
    "label": "20 RUE DE LOMBARDIE, Petit-Caux",
    "lat": 49.977012,
    "lng": 1.237923,
    "transactions": [
      {
        "date": "2024-10-15",
        "priceEur": 190780,
        "typeLocal": "Maison",
        "surfaceM2": 134,
        "isVefa": false
      }
    ]
  }
}