{
  "36b1b614e5ff": {
    "id": "36b1b614e5ff",
    "label": "10 CITE PICARD, Hem",
    "lat": 50.652643,
    "lng": 3.183239,
    "transactions": [
      {
        "date": "2022-01-03",
        "priceEur": 371500,
        "typeLocal": "Maison",
        "surfaceM2": 72,
        "isVefa": false
      },
      {
        "date": "2020-09-30",
        "priceEur": 130000,
        "typeLocal": "Maison",
        "surfaceM2": 72,
        "isVefa": false
      }
    ]
  },
  "ebcf99876e08": {
    "id": "ebcf99876e08",
    "label": "18B ALL GABERT, Hem",
    "lat": 50.651876,
    "lng": 3.18234,
    "transactions": [
      {
        "date": "2021-07-13",
        "priceEur": 359010,
        "typeLocal": "Maison",
        "surfaceM2": 120,
        "isVefa": false
      }
    ]
  },
  "8bc39adc08d0": {
    "id": "8bc39adc08d0",
    "label": "9 CITE DROULERS RUE E VAILLANT, Hem",
    "lat": 50.652195,
    "lng": 3.182133,
    "transactions": [
      {
        "date": "2021-07-12",
        "priceEur": 129000,
        "typeLocal": "Maison",
        "surfaceM2": 83,
        "isVefa": false
      }
    ]
  },
  "8645238d2504": {
    "id": "8645238d2504",
    "label": "7 ALL DE LA CENSE, Hem",
    "lat": 50.651628,
    "lng": 3.185399,
    "transactions": [
      {
        "date": "2021-11-29",
        "priceEur": 560000,
        "typeLocal": "Maison",
        "surfaceM2": 143,
        "isVefa": false
      }
    ]
  },
  "a3a8593511b5": {
    "id": "a3a8593511b5",
    "label": "5 CITE DROULERS RUE E VAILLANT, Hem",
    "lat": 50.652292,
    "lng": 3.182438,
    "transactions": [
      {
        "date": "2022-01-13",
        "priceEur": 146000,
        "typeLocal": "Maison",
        "surfaceM2": 70,
        "isVefa": false
      }
    ]
  },
  "9f6354e77847": {
    "id": "9f6354e77847",
    "label": "26 RUE DES MARCHENELLES, Villeneuve-d'Ascq",
    "lat": 50.646349,
    "lng": 3.178544,
    "transactions": [
      {
        "date": "2022-03-03",
        "priceEur": 308000,
        "typeLocal": "Maison",
        "surfaceM2": 115,
        "isVefa": false
      }
    ]
  },
  "dbf900bec7ce": {
    "id": "dbf900bec7ce",
    "label": "10 ALL DE LA CENSE, Hem",
    "lat": 50.651662,
    "lng": 3.184196,
    "transactions": [
      {
        "date": "2022-05-12",
        "priceEur": 652000,
        "typeLocal": "Maison",
        "surfaceM2": 138,
        "isVefa": false
      }
    ]
  },
  "2d13c8cff204": {
    "id": "2d13c8cff204",
    "label": "32T RUE EDOUARD VAILLANT, Hem",
    "lat": 50.652483,
    "lng": 3.183969,
    "transactions": [
      {
        "date": "2022-06-30",
        "priceEur": 665000,
        "typeLocal": "Maison",
        "surfaceM2": 137,
        "isVefa": false
      }
    ]
  },
  "689d825162b7": {
    "id": "689d825162b7",
    "label": "33 ALL GABERT, Hem",
    "lat": 50.652911,
    "lng": 3.182489,
    "transactions": [
      {
        "date": "2022-07-25",
        "priceEur": 287000,
        "typeLocal": "Maison",
        "surfaceM2": 82,
        "isVefa": false
      }
    ]
  },
  "e222fc74b159": {
    "id": "e222fc74b159",
    "label": "34 RUE EDOUARD VAILLANT, Hem",
    "lat": 50.65234,
    "lng": 3.183897,
    "transactions": [
      {
        "date": "2023-03-02",
        "priceEur": 110000,
        "typeLocal": "Maison",
        "surfaceM2": 85,
        "isVefa": false
      }
    ]
  },
  "09779cbe2773": {
    "id": "09779cbe2773",
    "label": "21 ALL DE LA CENSE, Hem",
    "lat": 50.650629,
    "lng": 3.184183,
    "transactions": [
      {
        "date": "2023-09-29",
        "priceEur": 720000,
        "typeLocal": "Maison",
        "surfaceM2": 161,
        "isVefa": false
      }
    ]
  },
  "9a749ebd70a8": {
    "id": "9a749ebd70a8",
    "label": "16 ALL GABERT, Hem",
    "lat": 50.651371,
    "lng": 3.182399,
    "transactions": [
      {
        "date": "2023-09-29",
        "priceEur": 579000,
        "typeLocal": "Maison",
        "surfaceM2": 189,
        "isVefa": false
      }
    ]
  },
  "7e235f182a8a": {
    "id": "7e235f182a8a",
    "label": "2 ALL DU GABELOU, Hem",
    "lat": 50.652522,
    "lng": 3.185241,
    "transactions": [
      {
        "date": "2023-10-26",
        "priceEur": 810000,
        "typeLocal": "Maison",
        "surfaceM2": 185,
        "isVefa": false
      }
    ]
  },
  "e94e053dc7c9": {
    "id": "e94e053dc7c9",
    "label": "17 RUE EDOUARD VAILLANT, Hem",
    "lat": 50.652665,
    "lng": 3.185347,
    "transactions": [
      {
        "date": "2023-11-27",
        "priceEur": 220400,
        "typeLocal": "Maison",
        "surfaceM2": 85,
        "isVefa": false
      }
    ]
  },
  "988ac34301c8": {
    "id": "988ac34301c8",
    "label": "65 RUE EDOUARD VAILLANT, Hem",
    "lat": 50.651567,
    "lng": 3.183231,
    "transactions": [
      {
        "date": "2025-06-06",
        "priceEur": 336538,
        "typeLocal": "Maison",
        "surfaceM2": 60,
        "isVefa": false
      }
    ]
  },
  "d614ac10593f": {
    "id": "d614ac10593f",
    "label": "16 RUE DES MARCHENELLES, Villeneuve-d'Ascq",
    "lat": 50.64646,
    "lng": 3.177537,
    "transactions": [
      {
        "date": "2025-06-24",
        "priceEur": 256550,
        "typeLocal": "Maison",
        "surfaceM2": 95,
        "isVefa": false
      }
    ]
  }
}