{
  "4d0dffbb73e1": {
    "id": "4d0dffbb73e1",
    "label": "11B RUE DE MARCOING, Noyelles-sur-Escaut",
    "lat": 50.13563,
    "lng": 3.182995,
    "transactions": [
      {
        "date": "2020-10-01",
        "priceEur": 211000,
        "typeLocal": "Maison",
        "surfaceM2": 91,
        "isVefa": false
      },
      {
        "date": "2020-10-01",
        "priceEur": 211000,
        "typeLocal": "Maison",
        "surfaceM2": 55,
        "isVefa": false
      },
      {
        "date": "2020-10-01",
        "priceEur": 211000,
        "typeLocal": "Maison",
        "surfaceM2": 70,
        "isVefa": false
      }
    ]
  },
  "3e01f912772e": {
    "id": "3e01f912772e",
    "label": "9B RUE SOREL, Noyelles-sur-Escaut",
    "lat": 50.138449,
    "lng": 3.182649,
    "transactions": [
      {
        "date": "2020-11-23",
        "priceEur": 100000,
        "typeLocal": "Maison",
        "surfaceM2": 100,
        "isVefa": false
      }
    ]
  },
  "e794299707ab": {
    "id": "e794299707ab",
    "label": "13 RUE SOREL, Noyelles-sur-Escaut",
    "lat": 50.138651,
    "lng": 3.182421,
    "transactions": [
      {
        "date": "2021-05-18",
        "priceEur": 144000,
        "typeLocal": "Maison",
        "surfaceM2": 160,
        "isVefa": false
      }
    ]
  },
  "256b432dfa02": {
    "id": "256b432dfa02",
    "label": "4 RUE SOREL, Noyelles-sur-Escaut",
    "lat": 50.138459,
    "lng": 3.183359,
    "transactions": [
      {
        "date": "2021-05-12",
        "priceEur": 67500,
        "typeLocal": "Maison",
        "surfaceM2": 117,
        "isVefa": false
      }
    ]
  },
  "becff2d3526d": {
    "id": "becff2d3526d",
    "label": "9 LE QUARTIER DU ROI, Noyelles-sur-Escaut",
    "lat": 50.138792,
    "lng": 3.175754,
    "transactions": [
      {
        "date": "2021-07-05",
        "priceEur": 170000,
        "typeLocal": "Maison",
        "surfaceM2": 152,
        "isVefa": false
      }
    ]
  },
  "5a80fad1c0e0": {
    "id": "5a80fad1c0e0",
    "label": "3 RUE DE CANTAING, Noyelles-sur-Escaut",
    "lat": 50.137258,
    "lng": 3.181197,
    "transactions": [
      {
        "date": "2021-10-05",
        "priceEur": 90000,
        "typeLocal": "Maison",
        "surfaceM2": 112,
        "isVefa": false
      }
    ]
  },
  "2b33d6cc83e0": {
    "id": "2b33d6cc83e0",
    "label": "62 LE QUARTIER DU ROI, Noyelles-sur-Escaut",
    "lat": 50.136946,
    "lng": 3.179902,
    "transactions": [
      {
        "date": "2021-10-28",
        "priceEur": 344900,
        "typeLocal": "Maison",
        "surfaceM2": 207,
        "isVefa": false
      }
    ]
  },
  "ccd5719e102b": {
    "id": "ccd5719e102b",
    "label": "36 RUE DE CANTAING, Noyelles-sur-Escaut",
    "lat": 50.13885,
    "lng": 3.178911,
    "transactions": [
      {
        "date": "2021-11-19",
        "priceEur": 250000,
        "typeLocal": "Maison",
        "surfaceM2": 153,
        "isVefa": false
      }
    ]
  },
  "0dacb672755b": {
    "id": "0dacb672755b",
    "label": "9 RUE SOREL, Noyelles-sur-Escaut",
    "lat": 50.138462,
    "lng": 3.182575,
    "transactions": [
      {
        "date": "2022-04-01",
        "priceEur": 204800,
        "typeLocal": "Maison",
        "surfaceM2": 290,
        "isVefa": false
      }
    ]
  },
  "c7eefe3f6eb0": {
    "id": "c7eefe3f6eb0",
    "label": "29 RUE SOREL, Noyelles-sur-Escaut",
    "lat": 50.139424,
    "lng": 3.180643,
    "transactions": [
      {
        "date": "2022-12-15",
        "priceEur": 250000,
        "typeLocal": "Maison",
        "surfaceM2": 130,
        "isVefa": false
      }
    ]
  },
  "ebfe02d43cc1": {
    "id": "ebfe02d43cc1",
    "label": "2 RUE DE MARCOING, Noyelles-sur-Escaut",
    "lat": 50.137061,
    "lng": 3.181367,
    "transactions": [
      {
        "date": "2023-01-30",
        "priceEur": 193000,
        "typeLocal": "Maison",
        "surfaceM2": 161,
        "isVefa": false
      }
    ]
  },
  "487a38078c78": {
    "id": "487a38078c78",
    "label": "64 LE QUARTIER DU ROI, Noyelles-sur-Escaut",
    "lat": 50.137336,
    "lng": 3.179459,
    "transactions": [
      {
        "date": "2023-01-30",
        "priceEur": 205000,
        "typeLocal": "Maison",
        "surfaceM2": 80,
        "isVefa": false
      }
    ]
  },
  "29d36c04d7f2": {
    "id": "29d36c04d7f2",
    "label": "7 RES LES HAUTS DE NOYELLES, Noyelles-sur-Escaut",
    "lat": 50.139298,
    "lng": 3.175409,
    "transactions": [
      {
        "date": "2023-04-06",
        "priceEur": 105000,
        "typeLocal": "Maison",
        "surfaceM2": 109,
        "isVefa": false
      }
    ]
  },
  "7ef618805d4f": {
    "id": "7ef618805d4f",
    "label": "23 RUE PASTEUR, Noyelles-sur-Escaut",
    "lat": 50.139466,
    "lng": 3.185633,
    "transactions": [
      {
        "date": "2023-06-23",
        "priceEur": 250000,
        "typeLocal": "Maison",
        "surfaceM2": 199,
        "isVefa": false
      },
      {
        "date": "2023-06-23",
        "priceEur": 250000,
        "typeLocal": "Maison",
        "surfaceM2": 118,
        "isVefa": false
      }
    ]
  },
  "991013eb91e3": {
    "id": "991013eb91e3",
    "label": "16 RUE DE CANTAING, Noyelles-sur-Escaut",
    "lat": 50.137886,
    "lng": 3.180762,
    "transactions": [
      {
        "date": "2023-12-12",
        "priceEur": 110000,
        "typeLocal": "Maison",
        "surfaceM2": 69,
        "isVefa": false
      }
    ]
  },
  "7a71e5033ff3": {
    "id": "7a71e5033ff3",
    "label": "11 LE QUARTIER DU ROI, Noyelles-sur-Escaut",
    "lat": 50.138639,
    "lng": 3.176332,
    "transactions": [
      {
        "date": "2024-01-09",
        "priceEur": 230000,
        "typeLocal": "Maison",
        "surfaceM2": 96,
        "isVefa": false
      }
    ]
  },
  "4d851a443675": {
    "id": "4d851a443675",
    "label": "15 RUE DE CANTAING, Noyelles-sur-Escaut",
    "lat": 50.138062,
    "lng": 3.179759,
    "transactions": [
      {
        "date": "2024-01-15",
        "priceEur": 152000,
        "typeLocal": "Maison",
        "surfaceM2": 90,
        "isVefa": false
      }
    ]
  },
  "4283317af8d6": {
    "id": "4283317af8d6",
    "label": "2 LE QUARTIER DU ROI, Noyelles-sur-Escaut",
    "lat": 50.138985,
    "lng": 3.177572,
    "transactions": [
      {
        "date": "2024-02-26",
        "priceEur": 128100,
        "typeLocal": "Maison",
        "surfaceM2": 114,
        "isVefa": false
      }
    ]
  },
  "558a12d65528": {
    "id": "558a12d65528",
    "label": "20 RES RESIDENCE DU BOIS, Noyelles-sur-Escaut",
    "lat": 50.134898,
    "lng": 3.182417,
    "transactions": [
      {
        "date": "2024-07-06",
        "priceEur": 135000,
        "typeLocal": "Maison",
        "surfaceM2": 75,
        "isVefa": false
      }
    ]
  },
  "4b08b9372814": {
    "id": "4b08b9372814",
    "label": "10 RUE DU 8 MAI, Noyelles-sur-Escaut",
    "lat": 50.137085,
    "lng": 3.183902,
    "transactions": [
      {
        "date": "2024-10-23",
        "priceEur": 15800,
        "typeLocal": "Maison",
        "surfaceM2": 87,
        "isVefa": false
      }
    ]
  }
}