{
  "4b11656ed764": {
    "id": "4b11656ed764",
    "label": "12 RUE DU ONZE NOVEMBRE, Marcoing",
    "lat": 50.12418,
    "lng": 3.178208,
    "transactions": [
      {
        "date": "2022-02-14",
        "priceEur": 158145,
        "typeLocal": "Maison",
        "surfaceM2": 83,
        "isVefa": false
      },
      {
        "date": "2020-11-02",
        "priceEur": 133383,
        "typeLocal": "Maison",
        "surfaceM2": 83,
        "isVefa": false
      }
    ]
  },
  "a0451b0d12b1": {
    "id": "a0451b0d12b1",
    "label": "6 RUE DU MOULIN, Marcoing",
    "lat": 50.123501,
    "lng": 3.175353,
    "transactions": [
      {
        "date": "2023-11-13",
        "priceEur": 132000,
        "typeLocal": "Maison",
        "surfaceM2": 105,
        "isVefa": false
      },
      {
        "date": "2020-10-23",
        "priceEur": 124000,
        "typeLocal": "Maison",
        "surfaceM2": 105,
        "isVefa": false
      }
    ]
  },
  "8f7286dc3a3a": {
    "id": "8f7286dc3a3a",
    "label": "12 RUE DU HUIT MAI, Marcoing",
    "lat": 50.124004,
    "lng": 3.180204,
    "transactions": [
      {
        "date": "2021-01-11",
        "priceEur": 125000,
        "typeLocal": "Maison",
        "surfaceM2": 83,
        "isVefa": false
      }
    ]
  },
  "72b0f43db3bf": {
    "id": "72b0f43db3bf",
    "label": "26 RUE DU HUIT MAI, Marcoing",
    "lat": 50.124623,
    "lng": 3.179752,
    "transactions": [
      {
        "date": "2021-02-09",
        "priceEur": 139500,
        "typeLocal": "Maison",
        "surfaceM2": 83,
        "isVefa": false
      }
    ]
  },
  "9c65d401f4ed": {
    "id": "9c65d401f4ed",
    "label": "1 RUE DE LA GARE, Marcoing",
    "lat": 50.122926,
    "lng": 3.177743,
    "transactions": [
      {
        "date": "2021-06-18",
        "priceEur": 112000,
        "typeLocal": "Maison",
        "surfaceM2": 84,
        "isVefa": false
      }
    ]
  },
  "09ca5a4b39a2": {
    "id": "09ca5a4b39a2",
    "label": "6 RLE DES SOUPIRS, Marcoing",
    "lat": 50.12191,
    "lng": 3.176866,
    "transactions": [
      {
        "date": "2021-07-12",
        "priceEur": 66500,
        "typeLocal": "Maison",
        "surfaceM2": 54,
        "isVefa": false
      }
    ]
  },
  "b1e5923bc881": {
    "id": "b1e5923bc881",
    "label": "12 RUE PASTEUR, Marcoing",
    "lat": 50.121062,
    "lng": 3.17583,
    "transactions": [
      {
        "date": "2022-01-03",
        "priceEur": 165000,
        "typeLocal": "Maison",
        "surfaceM2": 111,
        "isVefa": false
      }
    ]
  },
  "02b32ca708c1": {
    "id": "02b32ca708c1",
    "label": "1 RUE DE CAMBRAI, Marcoing",
    "lat": 50.123196,
    "lng": 3.184002,
    "transactions": [
      {
        "date": "2022-03-11",
        "priceEur": 230000,
        "typeLocal": "Maison",
        "surfaceM2": 150,
        "isVefa": false
      }
    ]
  },
  "9a21743b3e92": {
    "id": "9a21743b3e92",
    "label": "15 RUE PASTEUR, Marcoing",
    "lat": 50.121278,
    "lng": 3.176576,
    "transactions": [
      {
        "date": "2022-03-29",
        "priceEur": 260000,
        "typeLocal": "Maison",
        "surfaceM2": 247,
        "isVefa": false
      }
    ]
  },
  "98355672ad8d": {
    "id": "98355672ad8d",
    "label": "21 RUE ROGER SALENGRO, Marcoing",
    "lat": 50.122739,
    "lng": 3.17703,
    "transactions": [
      {
        "date": "2022-05-25",
        "priceEur": 365000,
        "typeLocal": "Maison",
        "surfaceM2": 180,
        "isVefa": false
      }
    ]
  },
  "b152fd674642": {
    "id": "b152fd674642",
    "label": "6 RUE DE LA CONCORDE, Marcoing",
    "lat": 50.124404,
    "lng": 3.178995,
    "transactions": [
      {
        "date": "2023-03-31",
        "priceEur": 124000,
        "typeLocal": "Maison",
        "surfaceM2": 83,
        "isVefa": false
      }
    ]
  },
  "da03ee10389d": {
    "id": "da03ee10389d",
    "label": "43B RUE DE LA LIBERTE, Marcoing",
    "lat": 50.125221,
    "lng": 3.175787,
    "transactions": [
      {
        "date": "2023-06-01",
        "priceEur": 153000,
        "typeLocal": "Maison",
        "surfaceM2": 87,
        "isVefa": false
      }
    ]
  },
  "87c262969eda": {
    "id": "87c262969eda",
    "label": "34B RUE DE LA LIBERTE, Marcoing",
    "lat": 50.124608,
    "lng": 3.176022,
    "transactions": [
      {
        "date": "2024-05-22",
        "priceEur": 252000,
        "typeLocal": "Maison",
        "surfaceM2": 102,
        "isVefa": false
      }
    ]
  },
  "508211ff5035": {
    "id": "508211ff5035",
    "label": "14 RUE PASTEUR, Marcoing",
    "lat": 50.120845,
    "lng": 3.175806,
    "transactions": [
      {
        "date": "2024-07-01",
        "priceEur": 210000,
        "typeLocal": "Maison",
        "surfaceM2": 178,
        "isVefa": false
      }
    ]
  },
  "1b2d73142463": {
    "id": "1b2d73142463",
    "label": "6 PTR PETITE RUE DU MOULIN, Marcoing",
    "lat": 50.123317,
    "lng": 3.175508,
    "transactions": [
      {
        "date": "2024-07-31",
        "priceEur": 105000,
        "typeLocal": "Maison",
        "surfaceM2": 72,
        "isVefa": false
      }
    ]
  },
  "89cc83bdb473": {
    "id": "89cc83bdb473",
    "label": "4 RUE DE LA GARE, Marcoing",
    "lat": 50.122518,
    "lng": 3.178752,
    "transactions": [
      {
        "date": "2024-08-12",
        "priceEur": 470000,
        "typeLocal": "Maison",
        "surfaceM2": 218,
        "isVefa": false
      }
    ]
  },
  "84b1106e4226": {
    "id": "84b1106e4226",
    "label": "5 RUE DU HUIT MAI, Marcoing",
    "lat": 50.124337,
    "lng": 3.179484,
    "transactions": [
      {
        "date": "2024-08-01",
        "priceEur": 171500,
        "typeLocal": "Maison",
        "surfaceM2": 83,
        "isVefa": false
      }
    ]
  }
}