{
  "e678e95d7e11": {
    "id": "e678e95d7e11",
    "label": "68 VOIE CHARLES DE GAULLE, Veules-les-Roses",
    "lat": 49.870004,
    "lng": 0.800309,
    "transactions": [
      {
        "date": "2020-07-24",
        "priceEur": 212400,
        "typeLocal": "Maison",
        "surfaceM2": 45,
        "isVefa": false
      },
      {
        "date": "2020-07-24",
        "priceEur": 212400,
        "typeLocal": "Maison",
        "surfaceM2": 20,
        "isVefa": false
      }
    ]
  },
  "3fa1274e2d08": {
    "id": "3fa1274e2d08",
    "label": "37 VOIE CHARLES DE GAULLE, Veules-les-Roses",
    "lat": 49.869998,
    "lng": 0.800872,
    "transactions": [
      {
        "date": "2020-08-21",
        "priceEur": 95000,
        "typeLocal": "Maison",
        "surfaceM2": 150,
        "isVefa": false
      }
    ]
  },
  "e5a329db37b4": {
    "id": "e5a329db37b4",
    "label": "1 IMP CHASSETRUIE, Veules-les-Roses",
    "lat": 49.870447,
    "lng": 0.800962,
    "transactions": [
      {
        "date": "2020-09-15",
        "priceEur": 393300,
        "typeLocal": "Maison",
        "surfaceM2": 137,
        "isVefa": false
      }
    ]
  },
  "f093cbcfb6d9": {
    "id": "f093cbcfb6d9",
    "label": "9 LE CLOS SAINT MARTIN, Veules-les-Roses",
    "lat": 49.869843,
    "lng": 0.796924,
    "transactions": [
      {
        "date": "2020-10-12",
        "priceEur": 382500,
        "typeLocal": "Maison",
        "surfaceM2": 114,
        "isVefa": false
      }
    ]
  },
  "28c270271a5d": {
    "id": "28c270271a5d",
    "label": "3 SEN DE LA CAVEE BLONDEL, Veules-les-Roses",
    "lat": 49.870557,
    "lng": 0.797494,
    "transactions": [
      {
        "date": "2021-04-19",
        "priceEur": 427500,
        "typeLocal": "Maison",
        "surfaceM2": 135,
        "isVefa": false
      }
    ]
  },
  "f14d8ce56a75": {
    "id": "f14d8ce56a75",
    "label": "10 RUE JASON BERGER, Veules-les-Roses",
    "lat": 49.867158,
    "lng": 0.796024,
    "transactions": [
      {
        "date": "2021-12-14",
        "priceEur": 75000,
        "typeLocal": "Appartement",
        "surfaceM2": 73,
        "isVefa": false
      },
      {
        "date": "2021-07-06",
        "priceEur": 79800,
        "typeLocal": "Appartement",
        "surfaceM2": 73,
        "isVefa": false
      },
      {
        "date": "2021-06-25",
        "priceEur": 73000,
        "typeLocal": "Appartement",
        "surfaceM2": 48,
        "isVefa": false
      },
      {
        "date": "2021-04-27",
        "priceEur": 74000,
        "typeLocal": "Appartement",
        "surfaceM2": 48,
        "isVefa": false
      }
    ]
  },
  "650f13eee326": {
    "id": "650f13eee326",
    "label": "2 SEN DE LA CAVEE D ICLON, Veules-les-Roses",
    "lat": 49.869859,
    "lng": 0.801229,
    "transactions": [
      {
        "date": "2021-06-04",
        "priceEur": 288330,
        "typeLocal": "Maison",
        "surfaceM2": 97,
        "isVefa": false
      }
    ]
  },
  "90a6c482ad24": {
    "id": "90a6c482ad24",
    "label": "46 RUE DOCTEUR PIERRE GIRARD, Veules-les-Roses",
    "lat": 49.871276,
    "lng": 0.800653,
    "transactions": [
      {
        "date": "2021-09-03",
        "priceEur": 390000,
        "typeLocal": "Maison",
        "surfaceM2": 50,
        "isVefa": false
      }
    ]
  },
  "f30b7c6400e9": {
    "id": "f30b7c6400e9",
    "label": "1 RUE GENEVIEVE BILLARD, Veules-les-Roses",
    "lat": 49.871247,
    "lng": 0.800555,
    "transactions": [
      {
        "date": "2021-09-03",
        "priceEur": 390000,
        "typeLocal": "Maison",
        "surfaceM2": 64,
        "isVefa": false
      }
    ]
  },
  "398bf2984093": {
    "id": "398bf2984093",
    "label": "4 CHE DES CRESSONNIERES, Veules-les-Roses",
    "lat": 49.870746,
    "lng": 0.798811,
    "transactions": [
      {
        "date": "2021-11-27",
        "priceEur": 415000,
        "typeLocal": "Maison",
        "surfaceM2": 96,
        "isVefa": false
      }
    ]
  },
  "bb5b229bf233": {
    "id": "bb5b229bf233",
    "label": "1 RTE DE BLOSSEVILLE, Veules-les-Roses",
    "lat": 49.866555,
    "lng": 0.797996,
    "transactions": [
      {
        "date": "2022-12-14",
        "priceEur": 170000,
        "typeLocal": "Maison",
        "surfaceM2": 66,
        "isVefa": false
      }
    ]
  },
  "62330eac8d9a": {
    "id": "62330eac8d9a",
    "label": "60 VOIE CHARLES DE GAULLE, Veules-les-Roses",
    "lat": 49.870606,
    "lng": 0.801267,
    "transactions": [
      {
        "date": "2023-07-05",
        "priceEur": 170000,
        "typeLocal": "Maison",
        "surfaceM2": 60,
        "isVefa": false
      }
    ]
  },
  "6889fb509a6c": {
    "id": "6889fb509a6c",
    "label": "1 RUE JEAN MARET, Veules-les-Roses",
    "lat": 49.873164,
    "lng": 0.798769,
    "transactions": [
      {
        "date": "2023-08-25",
        "priceEur": 547000,
        "typeLocal": "Maison",
        "surfaceM2": 104,
        "isVefa": false
      }
    ]
  },
  "20758804350c": {
    "id": "20758804350c",
    "label": "49 RUE DOCTEUR PIERRE GIRARD, Veules-les-Roses",
    "lat": 49.870929,
    "lng": 0.801755,
    "transactions": [
      {
        "date": "2024-01-19",
        "priceEur": 215000,
        "typeLocal": "Maison",
        "surfaceM2": 56,
        "isVefa": false
      }
    ]
  },
  "ed81ee23a864": {
    "id": "ed81ee23a864",
    "label": "35 RUE DOCTEUR PIERRE GIRARD, Veules-les-Roses",
    "lat": 49.871797,
    "lng": 0.801016,
    "transactions": [
      {
        "date": "2024-01-25",
        "priceEur": 440000,
        "typeLocal": "Maison",
        "surfaceM2": 58,
        "isVefa": false
      }
    ]
  },
  "c09330d31466": {
    "id": "c09330d31466",
    "label": "54 RUE DOCTEUR PIERRE GIRARD, Veules-les-Roses",
    "lat": 49.870782,
    "lng": 0.801185,
    "transactions": [
      {
        "date": "2025-03-07",
        "priceEur": 130000,
        "typeLocal": "Appartement",
        "surfaceM2": 63,
        "isVefa": false
      },
      {
        "date": "2024-02-29",
        "priceEur": 138800,
        "typeLocal": "Appartement",
        "surfaceM2": 58,
        "isVefa": false
      }
    ]
  },
  "680c074d7cf2": {
    "id": "680c074d7cf2",
    "label": "62 VOIE CHARLES DE GAULLE, Veules-les-Roses",
    "lat": 49.870546,
    "lng": 0.801212,
    "transactions": [
      {
        "date": "2024-03-15",
        "priceEur": 99000,
        "typeLocal": "Maison",
        "surfaceM2": 59,
        "isVefa": false
      }
    ]
  },
  "6867d323f89b": {
    "id": "6867d323f89b",
    "label": "1 RUE HERICHER, Veules-les-Roses",
    "lat": 49.87259,
    "lng": 0.799413,
    "transactions": [
      {
        "date": "2024-11-25",
        "priceEur": 280000,
        "typeLocal": "Maison",
        "surfaceM2": 82,
        "isVefa": false
      }
    ]
  },
  "7754737802f7": {
    "id": "7754737802f7",
    "label": "16 AV JEAN MOULIN, Veules-les-Roses",
    "lat": 49.873289,
    "lng": 0.80144,
    "transactions": [
      {
        "date": "2025-03-03",
        "priceEur": 600000,
        "typeLocal": "Maison",
        "surfaceM2": 163,
        "isVefa": false
      }
    ]
  },
  "44797aeaa7fb": {
    "id": "44797aeaa7fb",
    "label": "78B VOIE CHARLES DE GAULLE, Veules-les-Roses",
    "lat": 49.867944,
    "lng": 0.797473,
    "transactions": [
      {
        "date": "2025-04-25",
        "priceEur": 100000,
        "typeLocal": "Maison",
        "surfaceM2": 44,
        "isVefa": false
      }
    ]
  },
  "1b60c0ae6816": {
    "id": "1b60c0ae6816",
    "label": "6 ALL DU PARADIS, Veules-les-Roses",
    "lat": 49.872229,
    "lng": 0.796232,
    "transactions": [
      {
        "date": "2025-04-19",
        "priceEur": 72720,
        "typeLocal": "Maison",
        "surfaceM2": 42,
        "isVefa": false
      }
    ]
  },
  "579118c93bfe": {
    "id": "579118c93bfe",
    "label": "47 RUE DOCTEUR PIERRE GIRARD, Veules-les-Roses",
    "lat": 49.870945,
    "lng": 0.801713,
    "transactions": [
      {
        "date": "2025-05-07",
        "priceEur": 162000,
        "typeLocal": "Maison",
        "surfaceM2": 50,
        "isVefa": false
      }
    ]
  },
  "fe4cca007127": {
    "id": "fe4cca007127",
    "label": "11 CHE DES CRESSONNIERES, Veules-les-Roses",
    "lat": 49.870124,
    "lng": 0.798903,
    "transactions": [
      {
        "date": "2025-06-16",
        "priceEur": 500000,
        "typeLocal": "Maison",
        "surfaceM2": 90,
        "isVefa": false
      }
    ]
  }
}