{
  "f8593376d7ba": {
    "id": "f8593376d7ba",
    "label": "6 RTE DE VEULES, Gonzeville",
    "lat": 49.770315,
    "lng": 0.796449,
    "transactions": [
      {
        "date": "2020-08-22",
        "priceEur": 193000,
        "typeLocal": "Maison",
        "surfaceM2": 78,
        "isVefa": false
      }
    ]
  },
  "390df0d4e0a7": {
    "id": "390df0d4e0a7",
    "label": "1428 RUE DU CALVAIRE, Gonzeville",
    "lat": 49.770853,
    "lng": 0.7981,
    "transactions": [
      {
        "date": "2021-04-16",
        "priceEur": 130000,
        "typeLocal": "Maison",
        "surfaceM2": 62,
        "isVefa": false
      }
    ]
  },
  "14f8a16aab57": {
    "id": "14f8a16aab57",
    "label": "1 ALL DES HORTENSIAS, Gonzeville",
    "lat": 49.76965,
    "lng": 0.8012,
    "transactions": [
      {
        "date": "2021-05-04",
        "priceEur": 350000,
        "typeLocal": "Maison",
        "surfaceM2": 181,
        "isVefa": false
      }
    ]
  },
  "f052b7e9c92c": {
    "id": "f052b7e9c92c",
    "label": "1415 RUE DU CALVAIRE, Gonzeville",
    "lat": 49.770295,
    "lng": 0.798093,
    "transactions": [
      {
        "date": "2021-08-11",
        "priceEur": 192000,
        "typeLocal": "Maison",
        "surfaceM2": 103,
        "isVefa": false
      }
    ]
  },
  "679a91e8bef9": {
    "id": "679a91e8bef9",
    "label": "2 RUE DE LA MALADRERIE, Héberville",
    "lat": 49.772958,
    "lng": 0.799881,
    "transactions": [
      {
        "date": "2021-12-18",
        "priceEur": 30000,
        "typeLocal": "Maison",
        "surfaceM2": 58,
        "isVefa": false
      }
    ]
  },
  "65e5cd7ff4cb": {
    "id": "65e5cd7ff4cb",
    "label": "3 ALL DES HORTENSIAS, Gonzeville",
    "lat": 49.769309,
    "lng": 0.801055,
    "transactions": [
      {
        "date": "2022-02-21",
        "priceEur": 230000,
        "typeLocal": "Maison",
        "surfaceM2": 118,
        "isVefa": false
      }
    ]
  },
  "835575282536": {
    "id": "835575282536",
    "label": "1 RUE DE LA MALADRERIE, Héberville",
    "lat": 49.772631,
    "lng": 0.800574,
    "transactions": [
      {
        "date": "2022-07-19",
        "priceEur": 165850,
        "typeLocal": "Maison",
        "surfaceM2": 75,
        "isVefa": false
      }
    ]
  },
  "1f8bc771d5d2": {
    "id": "1f8bc771d5d2",
    "label": "11 RUE DE L EGLISE, Héberville",
    "lat": 49.773396,
    "lng": 0.801774,
    "transactions": [
      {
        "date": "2023-10-06",
        "priceEur": 70000,
        "typeLocal": "Maison",
        "surfaceM2": 70,
        "isVefa": false
      }
    ]
  }
}