{
  "d6368712c16f": {
    "id": "d6368712c16f",
    "label": "16 RUE VICTOR MENY, Gonneville-la-Mallet",
    "lat": 49.635248,
    "lng": 0.22616,
    "transactions": [
      {
        "date": "2022-11-09",
        "priceEur": 313000,
        "typeLocal": "Maison",
        "surfaceM2": 120,
        "isVefa": false
      }
    ]
  },
  "3770f58fead8": {
    "id": "3770f58fead8",
    "label": "8 RUE DU STADE, Gonneville-la-Mallet",
    "lat": 49.637606,
    "lng": 0.219927,
    "transactions": [
      {
        "date": "2022-12-14",
        "priceEur": 200000,
        "typeLocal": "Maison",
        "surfaceM2": 73,
        "isVefa": false
      }
    ]
  },
  "cc2f171ac9a5": {
    "id": "cc2f171ac9a5",
    "label": "7 RUE DU STADE, Gonneville-la-Mallet",
    "lat": 49.6386,
    "lng": 0.221436,
    "transactions": [
      {
        "date": "2023-02-14",
        "priceEur": 90000,
        "typeLocal": "Appartement",
        "surfaceM2": 55,
        "isVefa": false
      },
      {
        "date": "2023-02-02",
        "priceEur": 120000,
        "typeLocal": "Appartement",
        "surfaceM2": 70,
        "isVefa": false
      }
    ]
  },
  "a31ae4ec7206": {
    "id": "a31ae4ec7206",
    "label": "5002 RUE LEON DELAQUERRIERE, Gonneville-la-Mallet",
    "lat": 49.636131,
    "lng": 0.222414,
    "transactions": [
      {
        "date": "2023-08-16",
        "priceEur": 193670.3,
        "typeLocal": "Maison",
        "surfaceM2": 110,
        "isVefa": false
      }
    ]
  },
  "00319a748b8f": {
    "id": "00319a748b8f",
    "label": "21 RUE DU STADE, Gonneville-la-Mallet",
    "lat": 49.637824,
    "lng": 0.221041,
    "transactions": [
      {
        "date": "2023-11-23",
        "priceEur": 232310,
        "typeLocal": "Maison",
        "surfaceM2": 80,
        "isVefa": false
      }
    ]
  },
  "bf7398258f34": {
    "id": "bf7398258f34",
    "label": "11 RUE DU LOT. DE LA BRIQUETERIE, Gonneville-la-Mallet",
    "lat": 49.637731,
    "lng": 0.226102,
    "transactions": [
      {
        "date": "2024-03-28",
        "priceEur": 285000,
        "typeLocal": "Maison",
        "surfaceM2": 112,
        "isVefa": false
      }
    ]
  },
  "53dd24437793": {
    "id": "53dd24437793",
    "label": "2B RUE GEN FAIDHERBE, Gonneville-la-Mallet",
    "lat": 49.638673,
    "lng": 0.224045,
    "transactions": [
      {
        "date": "2024-10-15",
        "priceEur": 227000,
        "typeLocal": "Appartement",
        "surfaceM2": 73,
        "isVefa": false
      },
      {
        "date": "2024-06-27",
        "priceEur": 179000,
        "typeLocal": "Appartement",
        "surfaceM2": 70,
        "isVefa": false
      }
    ]
  },
  "7031f02e339b": {
    "id": "7031f02e339b",
    "label": "3 LE CLOS BEL AMI, Gonneville-la-Mallet",
    "lat": 49.636816,
    "lng": 0.224658,
    "transactions": [
      {
        "date": "2024-06-27",
        "priceEur": 270000,
        "typeLocal": "Maison",
        "surfaceM2": 84,
        "isVefa": false
      }
    ]
  },
  "45ea98112fa6": {
    "id": "45ea98112fa6",
    "label": "2 RUE VICTOR MENY, Gonneville-la-Mallet",
    "lat": 49.636577,
    "lng": 0.223949,
    "transactions": [
      {
        "date": "2024-07-31",
        "priceEur": 200000,
        "typeLocal": "Maison",
        "surfaceM2": 70,
        "isVefa": false
      }
    ]
  },
  "f690284da87a": {
    "id": "f690284da87a",
    "label": "3 RUE DEDDE, Gonneville-la-Mallet",
    "lat": 49.635359,
    "lng": 0.222638,
    "transactions": [
      {
        "date": "2024-09-06",
        "priceEur": 190000,
        "typeLocal": "Maison",
        "surfaceM2": 87,
        "isVefa": false
      }
    ]
  },
  "d62e8bfb845f": {
    "id": "d62e8bfb845f",
    "label": "1 RUE GASTON DELAHAIS, Gonneville-la-Mallet",
    "lat": 49.639105,
    "lng": 0.221068,
    "transactions": [
      {
        "date": "2024-11-28",
        "priceEur": 310000,
        "typeLocal": "Maison",
        "surfaceM2": 183,
        "isVefa": false
      }
    ]
  },
  "e3f9a8deec4f": {
    "id": "e3f9a8deec4f",
    "label": "19 LE CLOS BEL AMI, Gonneville-la-Mallet",
    "lat": 49.636412,
    "lng": 0.22505,
    "transactions": [
      {
        "date": "2025-01-17",
        "priceEur": 265000,
        "typeLocal": "Maison",
        "surfaceM2": 100,
        "isVefa": false
      }
    ]
  },
  "c9b659a1e562": {
    "id": "c9b659a1e562",
    "label": "12 RUE DU PDT COTY, Gonneville-la-Mallet",
    "lat": 49.638695,
    "lng": 0.229102,
    "transactions": [
      {
        "date": "2025-03-27",
        "priceEur": 180000,
        "typeLocal": "Maison",
        "surfaceM2": 158,
        "isVefa": false
      }
    ]
  },
  "594114813560": {
    "id": "594114813560",
    "label": "2 RUE DU LOT. DE LA BRIQUETERIE, Gonneville-la-Mallet",
    "lat": 49.638666,
    "lng": 0.225182,
    "transactions": [
      {
        "date": "2025-03-27",
        "priceEur": 283000,
        "typeLocal": "Maison",
        "surfaceM2": 103,
        "isVefa": false
      }
    ]
  }
}