{
  "78e9685b2044": {
    "id": "78e9685b2044",
    "label": "7 RUE DES MARAICHERS, Épouville",
    "lat": 49.569919,
    "lng": 0.225102,
    "transactions": [
      {
        "date": "2021-01-11",
        "priceEur": 210000,
        "typeLocal": "Maison",
        "surfaceM2": 99,
        "isVefa": false
      }
    ]
  },
  "867dfda9dbf0": {
    "id": "867dfda9dbf0",
    "label": "58 RUE DU GRAY, Épouville",
    "lat": 49.572218,
    "lng": 0.221621,
    "transactions": [
      {
        "date": "2021-07-15",
        "priceEur": 365000,
        "typeLocal": "Maison",
        "surfaceM2": 225,
        "isVefa": false
      }
    ]
  },
  "18972f6ea19c": {
    "id": "18972f6ea19c",
    "label": "5104 HAMEAU DU GRES, Épouville",
    "lat": 49.573174,
    "lng": 0.222121,
    "transactions": [
      {
        "date": "2022-10-17",
        "priceEur": 255000,
        "typeLocal": "Maison",
        "surfaceM2": 123,
        "isVefa": false
      }
    ]
  },
  "ca9903a14207": {
    "id": "ca9903a14207",
    "label": "6 RUE ALBERT DECAEN, Épouville",
    "lat": 49.572675,
    "lng": 0.226487,
    "transactions": [
      {
        "date": "2024-03-01",
        "priceEur": 734000,
        "typeLocal": "Maison",
        "surfaceM2": 244,
        "isVefa": false
      }
    ]
  },
  "4f4c8cd1520a": {
    "id": "4f4c8cd1520a",
    "label": "23 RUE DU GRAY, Épouville",
    "lat": 49.571449,
    "lng": 0.223108,
    "transactions": [
      {
        "date": "2024-06-26",
        "priceEur": 850000,
        "typeLocal": "Maison",
        "surfaceM2": 250,
        "isVefa": false
      }
    ]
  },
  "7dbabe2ec715": {
    "id": "7dbabe2ec715",
    "label": "20A RUE DU GRAY, Épouville",
    "lat": 49.56905,
    "lng": 0.226287,
    "transactions": [
      {
        "date": "2025-04-22",
        "priceEur": 244000,
        "typeLocal": "Maison",
        "surfaceM2": 111,
        "isVefa": false
      }
    ]
  }
}