{
  "a5200704c065": {
    "id": "a5200704c065",
    "label": "80 RUE HENRI BRIFFAUT, Wattrelos",
    "lat": 50.704219,
    "lng": 3.205165,
    "transactions": [
      {
        "date": "2020-07-09",
        "priceEur": 134000,
        "typeLocal": "Maison",
        "surfaceM2": 128,
        "isVefa": false
      }
    ]
  },
  "391798ebcab6": {
    "id": "391798ebcab6",
    "label": "68 RUE HENRI BRIFFAUT, Wattrelos",
    "lat": 50.704042,
    "lng": 3.205899,
    "transactions": [
      {
        "date": "2020-07-20",
        "priceEur": 140000,
        "typeLocal": "Maison",
        "surfaceM2": 77,
        "isVefa": false
      }
    ]
  },
  "bad556da4ba2": {
    "id": "bad556da4ba2",
    "label": "114 RUE SAINT VINCENT DE PAUL, Wattrelos",
    "lat": 50.705742,
    "lng": 3.202766,
    "transactions": [
      {
        "date": "2020-07-09",
        "priceEur": 85000,
        "typeLocal": "Maison",
        "surfaceM2": 88,
        "isVefa": false
      }
    ]
  },
  "c84ec1f2fc0f": {
    "id": "c84ec1f2fc0f",
    "label": "23 RUE PETIT TOURNAI RGE LEQUAIN, Wattrelos",
    "lat": 50.708305,
    "lng": 3.20641,
    "transactions": [
      {
        "date": "2020-07-27",
        "priceEur": 290000,
        "typeLocal": "Maison",
        "surfaceM2": 120,
        "isVefa": false
      }
    ]
  },
  "460471713cb9": {
    "id": "460471713cb9",
    "label": "74 RUE DU PETIT TOURNAI, Wattrelos",
    "lat": 50.707765,
    "lng": 3.203469,
    "transactions": [
      {
        "date": "2023-08-29",
        "priceEur": 165000,
        "typeLocal": "Maison",
        "surfaceM2": 92,
        "isVefa": false
      },
      {
        "date": "2020-08-18",
        "priceEur": 159100,
        "typeLocal": "Maison",
        "surfaceM2": 92,
        "isVefa": false
      }
    ]
  },
  "63a4e35aa1bc": {
    "id": "63a4e35aa1bc",
    "label": "47 RUE DU PETIT TOURNAI, Wattrelos",
    "lat": 50.707803,
    "lng": 3.202354,
    "transactions": [
      {
        "date": "2021-11-12",
        "priceEur": 179960,
        "typeLocal": "Maison",
        "surfaceM2": 77,
        "isVefa": false
      },
      {
        "date": "2020-08-31",
        "priceEur": 161900,
        "typeLocal": "Maison",
        "surfaceM2": 77,
        "isVefa": false
      }
    ]
  },
  "f39fe88c9ad4": {
    "id": "f39fe88c9ad4",
    "label": "21 RUE C WEPPE CITE LEPERS, Wattrelos",
    "lat": 50.706009,
    "lng": 3.201074,
    "transactions": [
      {
        "date": "2020-08-31",
        "priceEur": 124800,
        "typeLocal": "Maison",
        "surfaceM2": 68,
        "isVefa": false
      }
    ]
  },
  "c869aaeff9a7": {
    "id": "c869aaeff9a7",
    "label": "64 RUE DES ROSES, Wattrelos",
    "lat": 50.707314,
    "lng": 3.205052,
    "transactions": [
      {
        "date": "2020-09-07",
        "priceEur": 138000,
        "typeLocal": "Maison",
        "surfaceM2": 41,
        "isVefa": false
      }
    ]
  },
  "e745099aeaad": {
    "id": "e745099aeaad",
    "label": "12 RUE C WEPPE CITE LEPERS, Wattrelos",
    "lat": 50.705931,
    "lng": 3.2015,
    "transactions": [
      {
        "date": "2022-06-09",
        "priceEur": 123000,
        "typeLocal": "Maison",
        "surfaceM2": 63,
        "isVefa": false
      },
      {
        "date": "2020-08-28",
        "priceEur": 124000,
        "typeLocal": "Maison",
        "surfaceM2": 63,
        "isVefa": false
      }
    ]
  },
  "05bcd25a3c98": {
    "id": "05bcd25a3c98",
    "label": "8 RUE COPERNIC, Wattrelos",
    "lat": 50.705601,
    "lng": 3.207512,
    "transactions": [
      {
        "date": "2020-09-11",
        "priceEur": 319800,
        "typeLocal": "Maison",
        "surfaceM2": 121,
        "isVefa": false
      }
    ]
  },
  "4d5a3e14bd19": {
    "id": "4d5a3e14bd19",
    "label": "88 RUE ALBERT D HONDT, Wattrelos",
    "lat": 50.705523,
    "lng": 3.20534,
    "transactions": [
      {
        "date": "2020-09-05",
        "priceEur": 210200,
        "typeLocal": "Maison",
        "surfaceM2": 70,
        "isVefa": false
      }
    ]
  },
  "75270be0b34c": {
    "id": "75270be0b34c",
    "label": "10 RUE DES DRAGONS, Wattrelos",
    "lat": 50.702538,
    "lng": 3.207599,
    "transactions": [
      {
        "date": "2020-10-16",
        "priceEur": 167500,
        "typeLocal": "Maison",
        "surfaceM2": 125,
        "isVefa": false
      }
    ]
  },
  "82a589d2f6fa": {
    "id": "82a589d2f6fa",
    "label": "1 RUE BRIFFAUT COUR CATTEAU, Wattrelos",
    "lat": 50.703327,
    "lng": 3.20713,
    "transactions": [
      {
        "date": "2020-11-02",
        "priceEur": 171800,
        "typeLocal": "Maison",
        "surfaceM2": 91,
        "isVefa": false
      }
    ]
  },
  "5c29c017a139": {
    "id": "5c29c017a139",
    "label": "3 SQ DE L ENFANCE, Wattrelos",
    "lat": 50.70171,
    "lng": 3.201559,
    "transactions": [
      {
        "date": "2020-11-03",
        "priceEur": 190500,
        "typeLocal": "Maison",
        "surfaceM2": 83,
        "isVefa": false
      }
    ]
  },
  "26ff1c96a74c": {
    "id": "26ff1c96a74c",
    "label": "47B RUE SAINT VINCENT DE PAUL, Wattrelos",
    "lat": 50.704697,
    "lng": 3.203631,
    "transactions": [
      {
        "date": "2024-09-25",
        "priceEur": 140070,
        "typeLocal": "Maison",
        "surfaceM2": 59,
        "isVefa": false
      },
      {
        "date": "2020-11-02",
        "priceEur": 132500,
        "typeLocal": "Maison",
        "surfaceM2": 59,
        "isVefa": false
      }
    ]
  },
  "2d4028818e0f": {
    "id": "2d4028818e0f",
    "label": "11 RUE DE LA VIGNE, Wattrelos",
    "lat": 50.703391,
    "lng": 3.206098,
    "transactions": [
      {
        "date": "2020-12-12",
        "priceEur": 125000,
        "typeLocal": "Maison",
        "surfaceM2": 60,
        "isVefa": false
      }
    ]
  },
  "523f1e82c666": {
    "id": "523f1e82c666",
    "label": "23 RUE NADAUD, Wattrelos",
    "lat": 50.703365,
    "lng": 3.19758,
    "transactions": [
      {
        "date": "2020-12-15",
        "priceEur": 139000,
        "typeLocal": "Maison",
        "surfaceM2": 74,
        "isVefa": false
      }
    ]
  },
  "a5d335c52f8e": {
    "id": "a5d335c52f8e",
    "label": "62 RUE DES ROSES, Wattrelos",
    "lat": 50.707372,
    "lng": 3.205149,
    "transactions": [
      {
        "date": "2020-12-18",
        "priceEur": 90000,
        "typeLocal": "Maison",
        "surfaceM2": 93,
        "isVefa": false
      }
    ]
  },
  "01f891680676": {
    "id": "01f891680676",
    "label": "89 RUE ALBERT D HONDT, Wattrelos",
    "lat": 50.704923,
    "lng": 3.205349,
    "transactions": [
      {
        "date": "2020-12-22",
        "priceEur": 144000,
        "typeLocal": "Maison",
        "surfaceM2": 96,
        "isVefa": false
      }
    ]
  },
  "88a1b38355f3": {
    "id": "88a1b38355f3",
    "label": "44 RUE CHARLES CASTERMANT, Wattrelos",
    "lat": 50.704116,
    "lng": 3.197559,
    "transactions": [
      {
        "date": "2020-12-23",
        "priceEur": 135000,
        "typeLocal": "Appartement",
        "surfaceM2": 19,
        "isVefa": false
      },
      {
        "date": "2020-12-23",
        "priceEur": 135000,
        "typeLocal": "Appartement",
        "surfaceM2": 61,
        "isVefa": false
      },
      {
        "date": "2020-12-23",
        "priceEur": 135000,
        "typeLocal": "Appartement",
        "surfaceM2": 47,
        "isVefa": false
      }
    ]
  },
  "4dae2afdb33f": {
    "id": "4dae2afdb33f",
    "label": "208 RUE DU COMMANDANT BOSSUT, Wattrelos",
    "lat": 50.703193,
    "lng": 3.197035,
    "transactions": [
      {
        "date": "2021-01-11",
        "priceEur": 152000,
        "typeLocal": "Maison",
        "surfaceM2": 118,
        "isVefa": false
      }
    ]
  },
  "637768999dd0": {
    "id": "637768999dd0",
    "label": "44 RUE C WEPPE CITE LEFEBVRE, Wattrelos",
    "lat": 50.705907,
    "lng": 3.200129,
    "transactions": [
      {
        "date": "2021-01-29",
        "priceEur": 153500,
        "typeLocal": "Maison",
        "surfaceM2": 64,
        "isVefa": false
      }
    ]
  },
  "119459914226": {
    "id": "119459914226",
    "label": "26 RUE WATTEAU, Wattrelos",
    "lat": 50.705361,
    "lng": 3.197351,
    "transactions": [
      {
        "date": "2021-01-15",
        "priceEur": 282000,
        "typeLocal": "Maison",
        "surfaceM2": 151,
        "isVefa": false
      }
    ]
  },
  "0b4e40002b22": {
    "id": "0b4e40002b22",
    "label": "75 RUE DU PETIT TOURNAI, Wattrelos",
    "lat": 50.708155,
    "lng": 3.203058,
    "transactions": [
      {
        "date": "2021-01-27",
        "priceEur": 152880,
        "typeLocal": "Maison",
        "surfaceM2": 71,
        "isVefa": false
      }
    ]
  },
  "aa9f82bab890": {
    "id": "aa9f82bab890",
    "label": "63 RUE DU 19 MARS 1962, Wattrelos",
    "lat": 50.707506,
    "lng": 3.199583,
    "transactions": [
      {
        "date": "2021-01-15",
        "priceEur": 121000,
        "typeLocal": "Maison",
        "surfaceM2": 35,
        "isVefa": false
      },
      {
        "date": "2021-01-15",
        "priceEur": 121000,
        "typeLocal": "Maison",
        "surfaceM2": 60,
        "isVefa": false
      }
    ]
  },
  "7d0f189f11b2": {
    "id": "7d0f189f11b2",
    "label": "15 RUE MONGE, Wattrelos",
    "lat": 50.703707,
    "lng": 3.198562,
    "transactions": [
      {
        "date": "2021-02-17",
        "priceEur": 110000,
        "typeLocal": "Maison",
        "surfaceM2": 72,
        "isVefa": false
      }
    ]
  },
  "8868092114f7": {
    "id": "8868092114f7",
    "label": "41B RUE HENRI BRIFFAUT, Wattrelos",
    "lat": 50.702685,
    "lng": 3.207235,
    "transactions": [
      {
        "date": "2024-07-19",
        "priceEur": 113000,
        "typeLocal": "Appartement",
        "surfaceM2": 42,
        "isVefa": false
      },
      {
        "date": "2023-08-02",
        "priceEur": 120000,
        "typeLocal": "Appartement",
        "surfaceM2": 66,
        "isVefa": false
      },
      {
        "date": "2022-10-05",
        "priceEur": 155300,
        "typeLocal": "Appartement",
        "surfaceM2": 69,
        "isVefa": false
      },
      {
        "date": "2022-09-16",
        "priceEur": 120000,
        "typeLocal": "Appartement",
        "surfaceM2": 42,
        "isVefa": false
      },
      {
        "date": "2022-05-09",
        "priceEur": 115821,
        "typeLocal": "Appartement",
        "surfaceM2": 41,
        "isVefa": false
      },
      {
        "date": "2021-04-28",
        "priceEur": 141250,
        "typeLocal": "Appartement",
        "surfaceM2": 60,
        "isVefa": false
      },
      {
        "date": "2021-02-12",
        "priceEur": 154100,
        "typeLocal": "Appartement",
        "surfaceM2": 60,
        "isVefa": false
      }
    ]
  },
  "8360136c0b6b": {
    "id": "8360136c0b6b",
    "label": "123 RUE HENRI BRIFFAUT, Wattrelos",
    "lat": 50.703959,
    "lng": 3.204056,
    "transactions": [
      {
        "date": "2021-02-11",
        "priceEur": 184100,
        "typeLocal": "Maison",
        "surfaceM2": 99,
        "isVefa": false
      }
    ]
  },
  "dd0f2290ed6c": {
    "id": "dd0f2290ed6c",
    "label": "37 RUE DES TROIS COULEURS, Wattrelos",
    "lat": 50.703605,
    "lng": 3.199522,
    "transactions": [
      {
        "date": "2021-02-24",
        "priceEur": 140000,
        "typeLocal": "Maison",
        "surfaceM2": 75,
        "isVefa": false
      }
    ]
  },
  "05ec14f94dad": {
    "id": "05ec14f94dad",
    "label": "4 RUE DES ROSES, Wattrelos",
    "lat": 50.708068,
    "lng": 3.20647,
    "transactions": [
      {
        "date": "2021-02-12",
        "priceEur": 310000,
        "typeLocal": "Maison",
        "surfaceM2": 133,
        "isVefa": false
      }
    ]
  },
  "ac8aa4dbfc04": {
    "id": "ac8aa4dbfc04",
    "label": "98 RUE ALBERT D HONDT, Wattrelos",
    "lat": 50.705069,
    "lng": 3.204872,
    "transactions": [
      {
        "date": "2025-06-11",
        "priceEur": 138500,
        "typeLocal": "Maison",
        "surfaceM2": 68,
        "isVefa": false
      },
      {
        "date": "2021-02-25",
        "priceEur": 110000,
        "typeLocal": "Maison",
        "surfaceM2": 68,
        "isVefa": false
      }
    ]
  },
  "a6310f1d3def": {
    "id": "a6310f1d3def",
    "label": "60 RUE DES ROSES, Wattrelos",
    "lat": 50.707421,
    "lng": 3.205409,
    "transactions": [
      {
        "date": "2021-03-12",
        "priceEur": 124900,
        "typeLocal": "Maison",
        "surfaceM2": 70,
        "isVefa": false
      }
    ]
  },
  "24887de3c12e": {
    "id": "24887de3c12e",
    "label": "37 RUE NADAUD, Wattrelos",
    "lat": 50.703211,
    "lng": 3.197157,
    "transactions": [
      {
        "date": "2021-03-09",
        "priceEur": 108350,
        "typeLocal": "Maison",
        "surfaceM2": 71,
        "isVefa": false
      }
    ]
  },
  "581fa461e7b2": {
    "id": "581fa461e7b2",
    "label": "1 RUE H BRIFFAUT IMP LALLEMAND, Wattrelos",
    "lat": 50.704551,
    "lng": 3.20193,
    "transactions": [
      {
        "date": "2021-03-08",
        "priceEur": 139530,
        "typeLocal": "Maison",
        "surfaceM2": 78,
        "isVefa": false
      }
    ]
  },
  "f34a61903f1e": {
    "id": "f34a61903f1e",
    "label": "18 RUE DE LA VIGNE, Wattrelos",
    "lat": 50.703528,
    "lng": 3.205656,
    "transactions": [
      {
        "date": "2021-03-12",
        "priceEur": 50000,
        "typeLocal": "Maison",
        "surfaceM2": 90,
        "isVefa": false
      }
    ]
  },
  "a5357d6610e5": {
    "id": "a5357d6610e5",
    "label": "25 RUE MA CAMPAGNE, Wattrelos",
    "lat": 50.70341,
    "lng": 3.203244,
    "transactions": [
      {
        "date": "2021-03-16",
        "priceEur": 114000,
        "typeLocal": "Maison",
        "surfaceM2": 75,
        "isVefa": false
      }
    ]
  },
  "3946e69a365c": {
    "id": "3946e69a365c",
    "label": "5 RUE NADAUD, Wattrelos",
    "lat": 50.703544,
    "lng": 3.19808,
    "transactions": [
      {
        "date": "2021-03-17",
        "priceEur": 107000,
        "typeLocal": "Maison",
        "surfaceM2": 75,
        "isVefa": false
      }
    ]
  },
  "e603b5b4921c": {
    "id": "e603b5b4921c",
    "label": "17 RUE FELIX FAURE, Wattrelos",
    "lat": 50.703591,
    "lng": 3.204262,
    "transactions": [
      {
        "date": "2021-03-18",
        "priceEur": 82500,
        "typeLocal": "Maison",
        "surfaceM2": 72,
        "isVefa": false
      }
    ]
  },
  "91c04afc0be3": {
    "id": "91c04afc0be3",
    "label": "31 RUE CLAUDE WEPPE, Wattrelos",
    "lat": 50.705136,
    "lng": 3.20088,
    "transactions": [
      {
        "date": "2021-03-19",
        "priceEur": 149200,
        "typeLocal": "Maison",
        "surfaceM2": 102,
        "isVefa": false
      }
    ]
  },
  "3efccd3d5456": {
    "id": "3efccd3d5456",
    "label": "24 RUE CLAUDE WEPPE, Wattrelos",
    "lat": 50.70552,
    "lng": 3.201174,
    "transactions": [
      {
        "date": "2024-03-28",
        "priceEur": 224000,
        "typeLocal": "Maison",
        "surfaceM2": 74,
        "isVefa": false
      },
      {
        "date": "2021-04-06",
        "priceEur": 130000,
        "typeLocal": "Maison",
        "surfaceM2": 74,
        "isVefa": false
      }
    ]
  },
  "5ea24c95068d": {
    "id": "5ea24c95068d",
    "label": "34 RUE MA CAMPAGNE, Wattrelos",
    "lat": 50.703402,
    "lng": 3.202536,
    "transactions": [
      {
        "date": "2021-03-23",
        "priceEur": 132500,
        "typeLocal": "Maison",
        "surfaceM2": 71,
        "isVefa": false
      }
    ]
  },
  "f13428e9faa5": {
    "id": "f13428e9faa5",
    "label": "74 RUE HENRI BRIFFAUT, Wattrelos",
    "lat": 50.704139,
    "lng": 3.205588,
    "transactions": [
      {
        "date": "2021-04-09",
        "priceEur": 218500,
        "typeLocal": "Maison",
        "surfaceM2": 120,
        "isVefa": false
      }
    ]
  },
  "539948f5479d": {
    "id": "539948f5479d",
    "label": "10 RUE HAUGEDE, Wattrelos",
    "lat": 50.704495,
    "lng": 3.206344,
    "transactions": [
      {
        "date": "2025-06-19",
        "priceEur": 193000,
        "typeLocal": "Maison",
        "surfaceM2": 80,
        "isVefa": false
      },
      {
        "date": "2021-04-15",
        "priceEur": 183000,
        "typeLocal": "Maison",
        "surfaceM2": 80,
        "isVefa": false
      }
    ]
  },
  "41f2a7a4b341": {
    "id": "41f2a7a4b341",
    "label": "45 RUE DES PATRIOTES, Wattrelos",
    "lat": 50.706187,
    "lng": 3.197074,
    "transactions": [
      {
        "date": "2021-04-20",
        "priceEur": 117000,
        "typeLocal": "Maison",
        "surfaceM2": 96,
        "isVefa": false
      }
    ]
  },
  "6974a6f8374a": {
    "id": "6974a6f8374a",
    "label": "28 RUE ALBERT D HONDT, Wattrelos",
    "lat": 50.707007,
    "lng": 3.207706,
    "transactions": [
      {
        "date": "2021-04-28",
        "priceEur": 161000,
        "typeLocal": "Maison",
        "surfaceM2": 75,
        "isVefa": false
      }
    ]
  },
  "b2ec82e25699": {
    "id": "b2ec82e25699",
    "label": "73 RUE HENRI BRIFFAUT, Wattrelos",
    "lat": 50.703802,
    "lng": 3.206025,
    "transactions": [
      {
        "date": "2021-05-10",
        "priceEur": 128500,
        "typeLocal": "Maison",
        "surfaceM2": 89,
        "isVefa": false
      }
    ]
  },
  "5eb1db8bd610": {
    "id": "5eb1db8bd610",
    "label": "25 RUE GAMBETTA, Wattrelos",
    "lat": 50.704857,
    "lng": 3.203038,
    "transactions": [
      {
        "date": "2021-04-30",
        "priceEur": 137000,
        "typeLocal": "Maison",
        "surfaceM2": 55,
        "isVefa": false
      }
    ]
  },
  "b4ded5761347": {
    "id": "b4ded5761347",
    "label": "6 RUE ST VT DE PAUL RGE MOUTARDE, Wattrelos",
    "lat": 50.704942,
    "lng": 3.204273,
    "transactions": [
      {
        "date": "2021-05-25",
        "priceEur": 132000,
        "typeLocal": "Maison",
        "surfaceM2": 70,
        "isVefa": false
      }
    ]
  },
  "f857b8eca17b": {
    "id": "f857b8eca17b",
    "label": "96 RUE ALBERT D HONDT, Wattrelos",
    "lat": 50.705135,
    "lng": 3.204986,
    "transactions": [
      {
        "date": "2025-03-24",
        "priceEur": 287450,
        "typeLocal": "Maison",
        "surfaceM2": 64,
        "isVefa": false
      },
      {
        "date": "2024-04-19",
        "priceEur": 278450,
        "typeLocal": "Maison",
        "surfaceM2": 64,
        "isVefa": false
      },
      {
        "date": "2021-05-18",
        "priceEur": 162000,
        "typeLocal": "Maison",
        "surfaceM2": 64,
        "isVefa": false
      }
    ]
  },
  "455e9a9ad155": {
    "id": "455e9a9ad155",
    "label": "164 RUE DU COMMANDANT BOSSUT, Wattrelos",
    "lat": 50.702368,
    "lng": 3.198117,
    "transactions": [
      {
        "date": "2021-05-06",
        "priceEur": 184500,
        "typeLocal": "Appartement",
        "surfaceM2": 50,
        "isVefa": false
      },
      {
        "date": "2021-05-06",
        "priceEur": 184500,
        "typeLocal": "Appartement",
        "surfaceM2": 45,
        "isVefa": false
      }
    ]
  },
  "ad0d82e8a908": {
    "id": "ad0d82e8a908",
    "label": "18 RUE FELIX FAURE, Wattrelos",
    "lat": 50.703717,
    "lng": 3.203892,
    "transactions": [
      {
        "date": "2021-05-25",
        "priceEur": 112000,
        "typeLocal": "Maison",
        "surfaceM2": 90,
        "isVefa": false
      }
    ]
  },
  "09325598b710": {
    "id": "09325598b710",
    "label": "30 RUE NADAUD, Wattrelos",
    "lat": 50.703488,
    "lng": 3.197143,
    "transactions": [
      {
        "date": "2021-05-28",
        "priceEur": 160000,
        "typeLocal": "Maison",
        "surfaceM2": 67,
        "isVefa": false
      }
    ]
  },
  "749791b9572f": {
    "id": "749791b9572f",
    "label": "22 RUE C WEPPE CITE LEFEBVRE, Wattrelos",
    "lat": 50.705575,
    "lng": 3.200469,
    "transactions": [
      {
        "date": "2021-05-28",
        "priceEur": 80000,
        "typeLocal": "Maison",
        "surfaceM2": 66,
        "isVefa": false
      }
    ]
  },
  "24e8abd01ca4": {
    "id": "24e8abd01ca4",
    "label": "8 RUE HENRI BRIFFAUT IP DELCROIX, Wattrelos",
    "lat": 50.704768,
    "lng": 3.201618,
    "transactions": [
      {
        "date": "2021-06-02",
        "priceEur": 150000,
        "typeLocal": "Maison",
        "surfaceM2": 75,
        "isVefa": false
      }
    ]
  },
  "9af35a481b9a": {
    "id": "9af35a481b9a",
    "label": "8 RUE C WEPPE CITE PRUVOST, Wattrelos",
    "lat": 50.705659,
    "lng": 3.200656,
    "transactions": [
      {
        "date": "2021-06-11",
        "priceEur": 115000,
        "typeLocal": "Maison",
        "surfaceM2": 60,
        "isVefa": false
      }
    ]
  },
  "eb7e7749d1b3": {
    "id": "eb7e7749d1b3",
    "label": "33 RUE MA CAMPAGNE, Wattrelos",
    "lat": 50.703315,
    "lng": 3.203059,
    "transactions": [
      {
        "date": "2021-06-10",
        "priceEur": 110000,
        "typeLocal": "Maison",
        "surfaceM2": 71,
        "isVefa": false
      }
    ]
  },
  "5d30b3803a4c": {
    "id": "5d30b3803a4c",
    "label": "32 RUE DE LA BELLE PROMENADE, Wattrelos",
    "lat": 50.705648,
    "lng": 3.20654,
    "transactions": [
      {
        "date": "2021-06-21",
        "priceEur": 263000,
        "typeLocal": "Maison",
        "surfaceM2": 83,
        "isVefa": false
      }
    ]
  },
  "06948f2f228c": {
    "id": "06948f2f228c",
    "label": "22B RUE DES DRAGONS, Wattrelos",
    "lat": 50.702685,
    "lng": 3.207235,
    "transactions": [
      {
        "date": "2024-10-15",
        "priceEur": 107500,
        "typeLocal": "Appartement",
        "surfaceM2": 48,
        "isVefa": false
      },
      {
        "date": "2021-06-09",
        "priceEur": 114500,
        "typeLocal": "Appartement",
        "surfaceM2": 42,
        "isVefa": false
      }
    ]
  },
  "2c6a5c43d03d": {
    "id": "2c6a5c43d03d",
    "label": "4B RUE DU FORT LILLOIS, Wattrelos",
    "lat": 50.701707,
    "lng": 3.199944,
    "transactions": [
      {
        "date": "2021-06-16",
        "priceEur": 253000,
        "typeLocal": "Maison",
        "surfaceM2": 159,
        "isVefa": false
      }
    ]
  },
  "dfc6d619cad6": {
    "id": "dfc6d619cad6",
    "label": "10 RUE DU PETIT TOURNAI, Wattrelos",
    "lat": 50.707009,
    "lng": 3.201841,
    "transactions": [
      {
        "date": "2021-06-17",
        "priceEur": 158000,
        "typeLocal": "Maison",
        "surfaceM2": 80,
        "isVefa": false
      }
    ]
  },
  "0202e7f935dc": {
    "id": "0202e7f935dc",
    "label": "49 RUE DE LA BELLE PROMENADE, Wattrelos",
    "lat": 50.705875,
    "lng": 3.205958,
    "transactions": [
      {
        "date": "2021-07-15",
        "priceEur": 220000,
        "typeLocal": "Maison",
        "surfaceM2": 83,
        "isVefa": false
      }
    ]
  },
  "281bc21f4c92": {
    "id": "281bc21f4c92",
    "label": "6 RUE DE BETHUNE IMP PRUT, Wattrelos",
    "lat": 50.7039,
    "lng": 3.199784,
    "transactions": [
      {
        "date": "2021-06-24",
        "priceEur": 169200,
        "typeLocal": "Maison",
        "surfaceM2": 45,
        "isVefa": false
      }
    ]
  },
  "ce0fbb9b3d08": {
    "id": "ce0fbb9b3d08",
    "label": "22 RUE ALBERT D HONDT, Wattrelos",
    "lat": 50.707102,
    "lng": 3.207855,
    "transactions": [
      {
        "date": "2021-07-05",
        "priceEur": 156500,
        "typeLocal": "Maison",
        "surfaceM2": 79,
        "isVefa": false
      }
    ]
  },
  "4d8578bd8704": {
    "id": "4d8578bd8704",
    "label": "49 RUE FELIX FAURE, Wattrelos",
    "lat": 50.703084,
    "lng": 3.20368,
    "transactions": [
      {
        "date": "2021-07-05",
        "priceEur": 162000,
        "typeLocal": "Maison",
        "surfaceM2": 83,
        "isVefa": false
      }
    ]
  },
  "eb5bb0660ef9": {
    "id": "eb5bb0660ef9",
    "label": "81 RUE DU PETIT TOURNAI, Wattrelos",
    "lat": 50.708224,
    "lng": 3.203213,
    "transactions": [
      {
        "date": "2021-07-15",
        "priceEur": 195000,
        "typeLocal": "Maison",
        "surfaceM2": 62,
        "isVefa": false
      }
    ]
  },
  "a7ed14ffad8d": {
    "id": "a7ed14ffad8d",
    "label": "32 RUE MA CAMPAGNE, Wattrelos",
    "lat": 50.703421,
    "lng": 3.20259,
    "transactions": [
      {
        "date": "2024-10-18",
        "priceEur": 165720,
        "typeLocal": "Maison",
        "surfaceM2": 89,
        "isVefa": false
      },
      {
        "date": "2021-07-13",
        "priceEur": 154982,
        "typeLocal": "Maison",
        "surfaceM2": 89,
        "isVefa": false
      }
    ]
  },
  "054a8adcd452": {
    "id": "054a8adcd452",
    "label": "15 RUE C WEPPE CITE PRUVOST, Wattrelos",
    "lat": 50.705918,
    "lng": 3.200416,
    "transactions": [
      {
        "date": "2021-07-22",
        "priceEur": 69000,
        "typeLocal": "Maison",
        "surfaceM2": 86,
        "isVefa": false
      }
    ]
  },
  "ea363951b0b3": {
    "id": "ea363951b0b3",
    "label": "1 RUE WATTEAU, Wattrelos",
    "lat": 50.704442,
    "lng": 3.197708,
    "transactions": [
      {
        "date": "2021-07-22",
        "priceEur": 167000,
        "typeLocal": "Maison",
        "surfaceM2": 60,
        "isVefa": false
      }
    ]
  },
  "07aba1df5422": {
    "id": "07aba1df5422",
    "label": "8 AV LE NOTRE, Wattrelos",
    "lat": 50.702292,
    "lng": 3.205538,
    "transactions": [
      {
        "date": "2021-07-20",
        "priceEur": 225000,
        "typeLocal": "Maison",
        "surfaceM2": 79,
        "isVefa": false
      }
    ]
  },
  "030818e804e5": {
    "id": "030818e804e5",
    "label": "10 RUE MIRIBEL, Wattrelos",
    "lat": 50.704172,
    "lng": 3.197035,
    "transactions": [
      {
        "date": "2021-07-23",
        "priceEur": 142900,
        "typeLocal": "Maison",
        "surfaceM2": 81,
        "isVefa": false
      }
    ]
  },
  "d594d6c7a9fb": {
    "id": "d594d6c7a9fb",
    "label": "3 RUE C WEPPE CITE HENNION, Wattrelos",
    "lat": 50.70563,
    "lng": 3.20104,
    "transactions": [
      {
        "date": "2021-07-16",
        "priceEur": 105000,
        "typeLocal": "Maison",
        "surfaceM2": 58,
        "isVefa": false
      }
    ]
  },
  "cd57577d2d41": {
    "id": "cd57577d2d41",
    "label": "26 RUE MA CAMPAGNE, Wattrelos",
    "lat": 50.703572,
    "lng": 3.202795,
    "transactions": [
      {
        "date": "2023-05-25",
        "priceEur": 120000,
        "typeLocal": "Maison",
        "surfaceM2": 70,
        "isVefa": false
      },
      {
        "date": "2021-08-09",
        "priceEur": 121000,
        "typeLocal": "Maison",
        "surfaceM2": 70,
        "isVefa": false
      }
    ]
  },
  "29bc6c97b86c": {
    "id": "29bc6c97b86c",
    "label": "174 RUE HENRI BRIFFAUT, Wattrelos",
    "lat": 50.704698,
    "lng": 3.200558,
    "transactions": [
      {
        "date": "2021-07-28",
        "priceEur": 110000,
        "typeLocal": "Maison",
        "surfaceM2": 86,
        "isVefa": false
      }
    ]
  },
  "ec884f3eaf61": {
    "id": "ec884f3eaf61",
    "label": "34 RUE DE LA VIGNE, Wattrelos",
    "lat": 50.70324,
    "lng": 3.205259,
    "transactions": [
      {
        "date": "2021-07-22",
        "priceEur": 110000,
        "typeLocal": "Maison",
        "surfaceM2": 74,
        "isVefa": false
      }
    ]
  },
  "36fcc2b80a5c": {
    "id": "36fcc2b80a5c",
    "label": "24 RUE DES TROIS COULEURS, Wattrelos",
    "lat": 50.703679,
    "lng": 3.198917,
    "transactions": [
      {
        "date": "2021-08-19",
        "priceEur": 114000,
        "typeLocal": "Maison",
        "surfaceM2": 66,
        "isVefa": false
      }
    ]
  },
  "3bce716e7fc7": {
    "id": "3bce716e7fc7",
    "label": "25 RUE C WEPPE CITE LEFEBVRE, Wattrelos",
    "lat": 50.705638,
    "lng": 3.199785,
    "transactions": [
      {
        "date": "2021-08-24",
        "priceEur": 143200,
        "typeLocal": "Maison",
        "surfaceM2": 75,
        "isVefa": false
      }
    ]
  },
  "38f26be35f87": {
    "id": "38f26be35f87",
    "label": "50 RUE DE TOUL, Wattrelos",
    "lat": 50.707875,
    "lng": 3.200517,
    "transactions": [
      {
        "date": "2021-08-24",
        "priceEur": 240000,
        "typeLocal": "Maison",
        "surfaceM2": 99,
        "isVefa": false
      }
    ]
  },
  "2833e9b3b43c": {
    "id": "2833e9b3b43c",
    "label": "31 RUE NADAUD, Wattrelos",
    "lat": 50.703276,
    "lng": 3.197335,
    "transactions": [
      {
        "date": "2021-08-26",
        "priceEur": 144400,
        "typeLocal": "Maison",
        "surfaceM2": 72,
        "isVefa": false
      }
    ]
  },
  "54ad75dd3a72": {
    "id": "54ad75dd3a72",
    "label": "32 RUE NADAUD, Wattrelos",
    "lat": 50.703467,
    "lng": 3.197075,
    "transactions": [
      {
        "date": "2021-09-14",
        "priceEur": 93000,
        "typeLocal": "Maison",
        "surfaceM2": 70,
        "isVefa": false
      }
    ]
  },
  "340f366b93f3": {
    "id": "340f366b93f3",
    "label": "7 RUE ROYALE, Wattrelos",
    "lat": 50.706394,
    "lng": 3.202393,
    "transactions": [
      {
        "date": "2021-09-22",
        "priceEur": 170000,
        "typeLocal": "Maison",
        "surfaceM2": 68,
        "isVefa": false
      }
    ]
  },
  "4cc16d668ec1": {
    "id": "4cc16d668ec1",
    "label": "22 RUE NADAUD, Wattrelos",
    "lat": 50.703581,
    "lng": 3.197392,
    "transactions": [
      {
        "date": "2021-09-24",
        "priceEur": 122000,
        "typeLocal": "Maison",
        "surfaceM2": 75,
        "isVefa": false
      }
    ]
  },
  "d7c04362b50f": {
    "id": "d7c04362b50f",
    "label": "160 RUE DU COMMANDANT BOSSUT, Wattrelos",
    "lat": 50.702141,
    "lng": 3.198358,
    "transactions": [
      {
        "date": "2021-09-13",
        "priceEur": 204000,
        "typeLocal": "Maison",
        "surfaceM2": 78,
        "isVefa": false
      }
    ]
  },
  "3cac9bf153c3": {
    "id": "3cac9bf153c3",
    "label": "26 RUE C WEPPE CITE LEPERS, Wattrelos",
    "lat": 50.706197,
    "lng": 3.201245,
    "transactions": [
      {
        "date": "2021-09-30",
        "priceEur": 55000,
        "typeLocal": "Maison",
        "surfaceM2": 60,
        "isVefa": false
      }
    ]
  },
  "74e1041b41c9": {
    "id": "74e1041b41c9",
    "label": "7 RUE DE CALAIS, Wattrelos",
    "lat": 50.704388,
    "lng": 3.200386,
    "transactions": [
      {
        "date": "2021-10-15",
        "priceEur": 148000,
        "typeLocal": "Maison",
        "surfaceM2": 80,
        "isVefa": false
      }
    ]
  },
  "f06632c6e4a6": {
    "id": "f06632c6e4a6",
    "label": "12B RUE ST VT DE PAUL RGE MOUTARDE, Wattrelos",
    "lat": 50.705137,
    "lng": 3.204522,
    "transactions": [
      {
        "date": "2021-09-22",
        "priceEur": 110000,
        "typeLocal": "Maison",
        "surfaceM2": 53,
        "isVefa": false
      }
    ]
  },
  "3d99e23c223c": {
    "id": "3d99e23c223c",
    "label": "144 RUE HENRI BRIFFAUT, Wattrelos",
    "lat": 50.70448,
    "lng": 3.202391,
    "transactions": [
      {
        "date": "2021-10-20",
        "priceEur": 180000,
        "typeLocal": "Appartement",
        "surfaceM2": 52,
        "isVefa": false
      },
      {
        "date": "2021-10-20",
        "priceEur": 180000,
        "typeLocal": "Appartement",
        "surfaceM2": 62,
        "isVefa": false
      }
    ]
  },
  "dfa8ec22b818": {
    "id": "dfa8ec22b818",
    "label": "7 RUE CHARLES CASTERMANT, Wattrelos",
    "lat": 50.704359,
    "lng": 3.199366,
    "transactions": [
      {
        "date": "2021-10-23",
        "priceEur": 130000,
        "typeLocal": "Maison",
        "surfaceM2": 103,
        "isVefa": false
      }
    ]
  },
  "3d1f3133ffd7": {
    "id": "3d1f3133ffd7",
    "label": "9 RUE CHARLES CASTERMANT, Wattrelos",
    "lat": 50.704356,
    "lng": 3.199259,
    "transactions": [
      {
        "date": "2021-10-23",
        "priceEur": 203000,
        "typeLocal": "Maison",
        "surfaceM2": 75,
        "isVefa": false
      }
    ]
  },
  "c11e9874f04a": {
    "id": "c11e9874f04a",
    "label": "21 RUE FELIX FAURE, Wattrelos",
    "lat": 50.703521,
    "lng": 3.204202,
    "transactions": [
      {
        "date": "2021-10-26",
        "priceEur": 172500,
        "typeLocal": "Maison",
        "surfaceM2": 82,
        "isVefa": false
      }
    ]
  },
  "24a0984c73b7": {
    "id": "24a0984c73b7",
    "label": "41 RUE FELIX FAURE, Wattrelos",
    "lat": 50.703185,
    "lng": 3.203874,
    "transactions": [
      {
        "date": "2021-11-02",
        "priceEur": 83000,
        "typeLocal": "Maison",
        "surfaceM2": 70,
        "isVefa": false
      }
    ]
  },
  "c86cb29b179a": {
    "id": "c86cb29b179a",
    "label": "9 RUE MA CAMPAGNE, Wattrelos",
    "lat": 50.703719,
    "lng": 3.20363,
    "transactions": [
      {
        "date": "2023-09-11",
        "priceEur": 117000,
        "typeLocal": "Maison",
        "surfaceM2": 60,
        "isVefa": false
      },
      {
        "date": "2021-10-28",
        "priceEur": 112000,
        "typeLocal": "Maison",
        "surfaceM2": 60,
        "isVefa": false
      }
    ]
  },
  "1e96f7e68c65": {
    "id": "1e96f7e68c65",
    "label": "30B RUE DE LA VIGNE, Wattrelos",
    "lat": 50.703298,
    "lng": 3.205364,
    "transactions": [
      {
        "date": "2022-03-16",
        "priceEur": 110000,
        "typeLocal": "Maison",
        "surfaceM2": 55,
        "isVefa": false
      },
      {
        "date": "2021-10-28",
        "priceEur": 80000,
        "typeLocal": "Maison",
        "surfaceM2": 55,
        "isVefa": false
      }
    ]
  },
  "602d5d8c1da4": {
    "id": "602d5d8c1da4",
    "label": "27 RUE DE CALAIS, Wattrelos",
    "lat": 50.70407,
    "lng": 3.20078,
    "transactions": [
      {
        "date": "2021-10-27",
        "priceEur": 216100,
        "typeLocal": "Maison",
        "surfaceM2": 120,
        "isVefa": false
      }
    ]
  },
  "61a1c4869087": {
    "id": "61a1c4869087",
    "label": "78 RUE DE LA BELLE PROMENADE, Wattrelos",
    "lat": 50.707143,
    "lng": 3.205252,
    "transactions": [
      {
        "date": "2021-10-21",
        "priceEur": 230000,
        "typeLocal": "Maison",
        "surfaceM2": 76,
        "isVefa": false
      }
    ]
  },
  "8ae90861510c": {
    "id": "8ae90861510c",
    "label": "10 RUE MA CAMPAGNE, Wattrelos",
    "lat": 50.703935,
    "lng": 3.203285,
    "transactions": [
      {
        "date": "2021-10-22",
        "priceEur": 100000,
        "typeLocal": "Maison",
        "surfaceM2": 81,
        "isVefa": false
      }
    ]
  },
  "6018fc2952d3": {
    "id": "6018fc2952d3",
    "label": "50 RUE FELIX FAURE, Wattrelos",
    "lat": 50.703236,
    "lng": 3.203239,
    "transactions": [
      {
        "date": "2024-06-18",
        "priceEur": 140000,
        "typeLocal": "Maison",
        "surfaceM2": 70,
        "isVefa": false
      },
      {
        "date": "2021-10-28",
        "priceEur": 56400,
        "typeLocal": "Maison",
        "surfaceM2": 70,
        "isVefa": false
      }
    ]
  },
  "128b429622db": {
    "id": "128b429622db",
    "label": "9 RUE FELIX FAURE, Wattrelos",
    "lat": 50.70372,
    "lng": 3.204407,
    "transactions": [
      {
        "date": "2021-11-22",
        "priceEur": 172000,
        "typeLocal": "Maison",
        "surfaceM2": 70,
        "isVefa": false
      }
    ]
  },
  "c6e0a6d9ae48": {
    "id": "c6e0a6d9ae48",
    "label": "8 RUE MIRIBEL, Wattrelos",
    "lat": 50.704126,
    "lng": 3.197074,
    "transactions": [
      {
        "date": "2021-11-22",
        "priceEur": 90000,
        "typeLocal": "Maison",
        "surfaceM2": 46,
        "isVefa": false
      }
    ]
  },
  "4bd1f28dc9de": {
    "id": "4bd1f28dc9de",
    "label": "2 RUE MIRIBEL CR BARBIEUX, Wattrelos",
    "lat": 50.704219,
    "lng": 3.197155,
    "transactions": [
      {
        "date": "2021-11-22",
        "priceEur": 55000,
        "typeLocal": "Maison",
        "surfaceM2": 40,
        "isVefa": false
      }
    ]
  },
  "a60259809129": {
    "id": "a60259809129",
    "label": "50 RUE MONGE, Wattrelos",
    "lat": 50.702669,
    "lng": 3.199173,
    "transactions": [
      {
        "date": "2021-11-25",
        "priceEur": 160000,
        "typeLocal": "Maison",
        "surfaceM2": 80,
        "isVefa": false
      }
    ]
  },
  "e83262e85ad6": {
    "id": "e83262e85ad6",
    "label": "40 RUE CHARLES CASTERMANT, Wattrelos",
    "lat": 50.704223,
    "lng": 3.197759,
    "transactions": [
      {
        "date": "2021-11-25",
        "priceEur": 341638.3,
        "typeLocal": "Maison",
        "surfaceM2": 110,
        "isVefa": false
      }
    ]
  },
  "e84135a9b255": {
    "id": "e84135a9b255",
    "label": "27 RUE NADAUD, Wattrelos",
    "lat": 50.703342,
    "lng": 3.197444,
    "transactions": [
      {
        "date": "2021-12-03",
        "priceEur": 145850,
        "typeLocal": "Maison",
        "surfaceM2": 69,
        "isVefa": false
      }
    ]
  },
  "f57b069765ea": {
    "id": "f57b069765ea",
    "label": "133 RUE HENRI BRIFFAUT, Wattrelos",
    "lat": 50.704086,
    "lng": 3.203315,
    "transactions": [
      {
        "date": "2021-11-25",
        "priceEur": 152000,
        "typeLocal": "Maison",
        "surfaceM2": 70,
        "isVefa": false
      }
    ]
  },
  "67a492ccc509": {
    "id": "67a492ccc509",
    "label": "163 RUE HENRI BRIFFAUT, Wattrelos",
    "lat": 50.704248,
    "lng": 3.202064,
    "transactions": [
      {
        "date": "2021-11-29",
        "priceEur": 166000,
        "typeLocal": "Maison",
        "surfaceM2": 145,
        "isVefa": false
      }
    ]
  },
  "33e16bbfcb0e": {
    "id": "33e16bbfcb0e",
    "label": "7 SQ MARX DORMOY, Wattrelos",
    "lat": 50.70663,
    "lng": 3.206655,
    "transactions": [
      {
        "date": "2021-11-26",
        "priceEur": 223000,
        "typeLocal": "Maison",
        "surfaceM2": 91,
        "isVefa": false
      }
    ]
  },
  "492e2ccbd1ab": {
    "id": "492e2ccbd1ab",
    "label": "80 RUE MA CAMPAGNE, Wattrelos",
    "lat": 50.702355,
    "lng": 3.200746,
    "transactions": [
      {
        "date": "2021-11-29",
        "priceEur": 183000,
        "typeLocal": "Maison",
        "surfaceM2": 83,
        "isVefa": false
      }
    ]
  },
  "a23a199de9b1": {
    "id": "a23a199de9b1",
    "label": "2B RUE PATRIOTES RGE WATTEAU, Wattrelos",
    "lat": 50.704869,
    "lng": 3.197593,
    "transactions": [
      {
        "date": "2021-12-16",
        "priceEur": 483284.8,
        "typeLocal": "Maison",
        "surfaceM2": 64,
        "isVefa": false
      }
    ]
  },
  "43e25cd52461": {
    "id": "43e25cd52461",
    "label": "14B RUE ST VT DE PAUL RGE MOUTARDE, Wattrelos",
    "lat": 50.705189,
    "lng": 3.204642,
    "transactions": [
      {
        "date": "2021-12-14",
        "priceEur": 60996,
        "typeLocal": "Maison",
        "surfaceM2": 78,
        "isVefa": false
      }
    ]
  },
  "dca280dba4e5": {
    "id": "dca280dba4e5",
    "label": "7 RUE C CASTERMANT CR DELAPLACE, Wattrelos",
    "lat": 50.704279,
    "lng": 3.197321,
    "transactions": [
      {
        "date": "2021-12-20",
        "priceEur": 80000,
        "typeLocal": "Maison",
        "surfaceM2": 52,
        "isVefa": false
      }
    ]
  },
  "744177787bd2": {
    "id": "744177787bd2",
    "label": "10 RUE PATRIOTES RGE WATTEAU, Wattrelos",
    "lat": 50.704964,
    "lng": 3.197691,
    "transactions": [
      {
        "date": "2021-12-31",
        "priceEur": 587703.6,
        "typeLocal": "Maison",
        "surfaceM2": 60,
        "isVefa": false
      }
    ]
  },
  "abd7d421f2bd": {
    "id": "abd7d421f2bd",
    "label": "9 RUE PATRIOTES RGE WATTEAU, Wattrelos",
    "lat": 50.70502,
    "lng": 3.197743,
    "transactions": [
      {
        "date": "2024-04-25",
        "priceEur": 249000.2,
        "typeLocal": "Maison",
        "surfaceM2": 60,
        "isVefa": true
      },
      {
        "date": "2021-12-31",
        "priceEur": 587703.6,
        "typeLocal": "Maison",
        "surfaceM2": 60,
        "isVefa": false
      }
    ]
  },
  "4777dff449a7": {
    "id": "4777dff449a7",
    "label": "8 RUE PATRIOTES RGE WATTEAU, Wattrelos",
    "lat": 50.705042,
    "lng": 3.197797,
    "transactions": [
      {
        "date": "2021-12-31",
        "priceEur": 587703.6,
        "typeLocal": "Maison",
        "surfaceM2": 60,
        "isVefa": false
      }
    ]
  },
  "3ffee06708a7": {
    "id": "3ffee06708a7",
    "label": "6 RUE PATRIOTES RGE WATTEAU, Wattrelos",
    "lat": 50.705075,
    "lng": 3.197997,
    "transactions": [
      {
        "date": "2023-09-19",
        "priceEur": 234200,
        "typeLocal": "Maison",
        "surfaceM2": 57,
        "isVefa": false
      },
      {
        "date": "2021-12-31",
        "priceEur": 587703.6,
        "typeLocal": "Maison",
        "surfaceM2": 57,
        "isVefa": false
      }
    ]
  },
  "f837891ecf39": {
    "id": "f837891ecf39",
    "label": "4 RUE PATRIOTES RGE WATTEAU, Wattrelos",
    "lat": 50.705093,
    "lng": 3.198055,
    "transactions": [
      {
        "date": "2022-03-11",
        "priceEur": 2434557.5,
        "typeLocal": "Maison",
        "surfaceM2": 120,
        "isVefa": false
      },
      {
        "date": "2021-12-31",
        "priceEur": 587703.6,
        "typeLocal": "Maison",
        "surfaceM2": 120,
        "isVefa": false
      }
    ]
  },
  "063409537ab6": {
    "id": "063409537ab6",
    "label": "3 RUE PATRIOTES RGE WATTEAU, Wattrelos",
    "lat": 50.705152,
    "lng": 3.198233,
    "transactions": [
      {
        "date": "2022-03-11",
        "priceEur": 2434557.5,
        "typeLocal": "Maison",
        "surfaceM2": 30,
        "isVefa": false
      },
      {
        "date": "2021-12-31",
        "priceEur": 587703.6,
        "typeLocal": "Maison",
        "surfaceM2": 30,
        "isVefa": false
      }
    ]
  },
  "185cfa02ba48": {
    "id": "185cfa02ba48",
    "label": "34B RUE CHARLES CASTERMANT, Wattrelos",
    "lat": 50.7043,
    "lng": 3.197879,
    "transactions": [
      {
        "date": "2022-03-11",
        "priceEur": 2434557.5,
        "typeLocal": "Maison",
        "surfaceM2": 111,
        "isVefa": false
      },
      {
        "date": "2021-12-31",
        "priceEur": 587703.6,
        "typeLocal": "Maison",
        "surfaceM2": 111,
        "isVefa": false
      }
    ]
  },
  "bb6f1cf8494f": {
    "id": "bb6f1cf8494f",
    "label": "104 RUE HENRI BRIFFAUT, Wattrelos",
    "lat": 50.704246,
    "lng": 3.204318,
    "transactions": [
      {
        "date": "2021-12-23",
        "priceEur": 120500,
        "typeLocal": "Maison",
        "surfaceM2": 68,
        "isVefa": false
      }
    ]
  },
  "53a045fe8ae5": {
    "id": "53a045fe8ae5",
    "label": "88 RUE DE LA VIGNE, Wattrelos",
    "lat": 50.701902,
    "lng": 3.202358,
    "transactions": [
      {
        "date": "2021-12-27",
        "priceEur": 218000,
        "typeLocal": "Maison",
        "surfaceM2": 95,
        "isVefa": false
      }
    ]
  },
  "961dd0d89998": {
    "id": "961dd0d89998",
    "label": "41B RUE ROYALE, Wattrelos",
    "lat": 50.707372,
    "lng": 3.204558,
    "transactions": [
      {
        "date": "2022-01-10",
        "priceEur": 148000,
        "typeLocal": "Maison",
        "surfaceM2": 73,
        "isVefa": false
      }
    ]
  },
  "1f86cb03ff69": {
    "id": "1f86cb03ff69",
    "label": "17 RUE GAMBETTA, Wattrelos",
    "lat": 50.704729,
    "lng": 3.202823,
    "transactions": [
      {
        "date": "2022-01-26",
        "priceEur": 143000,
        "typeLocal": "Maison",
        "surfaceM2": 72,
        "isVefa": false
      }
    ]
  },
  "8d7561424aae": {
    "id": "8d7561424aae",
    "label": "4 SQ DE L ENFANCE, Wattrelos",
    "lat": 50.702045,
    "lng": 3.202127,
    "transactions": [
      {
        "date": "2022-01-24",
        "priceEur": 206000,
        "typeLocal": "Maison",
        "surfaceM2": 70,
        "isVefa": false
      }
    ]
  },
  "4915c44d0bab": {
    "id": "4915c44d0bab",
    "label": "33 RUE DES PATRIOTES, Wattrelos",
    "lat": 50.705919,
    "lng": 3.197201,
    "transactions": [
      {
        "date": "2022-11-16",
        "priceEur": 630000,
        "typeLocal": "Appartement",
        "surfaceM2": 66,
        "isVefa": false
      },
      {
        "date": "2022-11-16",
        "priceEur": 630000,
        "typeLocal": "Appartement",
        "surfaceM2": 91,
        "isVefa": false
      },
      {
        "date": "2022-11-16",
        "priceEur": 630000,
        "typeLocal": "Appartement",
        "surfaceM2": 70,
        "isVefa": false
      },
      {
        "date": "2022-11-16",
        "priceEur": 630000,
        "typeLocal": "Appartement",
        "surfaceM2": 84,
        "isVefa": false
      },
      {
        "date": "2022-11-16",
        "priceEur": 630000,
        "typeLocal": "Appartement",
        "surfaceM2": 53,
        "isVefa": false
      },
      {
        "date": "2022-11-16",
        "priceEur": 630000,
        "typeLocal": "Appartement",
        "surfaceM2": 52,
        "isVefa": false
      },
      {
        "date": "2022-11-16",
        "priceEur": 630000,
        "typeLocal": "Appartement",
        "surfaceM2": 48,
        "isVefa": false
      },
      {
        "date": "2022-11-16",
        "priceEur": 630000,
        "typeLocal": "Appartement",
        "surfaceM2": 64,
        "isVefa": false
      },
      {
        "date": "2022-11-16",
        "priceEur": 630000,
        "typeLocal": "Appartement",
        "surfaceM2": 65,
        "isVefa": false
      },
      {
        "date": "2022-11-16",
        "priceEur": 630000,
        "typeLocal": "Appartement",
        "surfaceM2": 61,
        "isVefa": false
      },
      {
        "date": "2022-11-16",
        "priceEur": 630000,
        "typeLocal": "Appartement",
        "surfaceM2": 51,
        "isVefa": false
      },
      {
        "date": "2022-11-16",
        "priceEur": 630000,
        "typeLocal": "Appartement",
        "surfaceM2": 57,
        "isVefa": false
      },
      {
        "date": "2022-11-16",
        "priceEur": 630000,
        "typeLocal": "Appartement",
        "surfaceM2": 56,
        "isVefa": false
      },
      {
        "date": "2022-11-16",
        "priceEur": 630000,
        "typeLocal": "Appartement",
        "surfaceM2": 58,
        "isVefa": false
      },
      {
        "date": "2022-01-26",
        "priceEur": 630000,
        "typeLocal": "Appartement",
        "surfaceM2": 56,
        "isVefa": false
      },
      {
        "date": "2022-01-26",
        "priceEur": 630000,
        "typeLocal": "Appartement",
        "surfaceM2": 61,
        "isVefa": false
      },
      {
        "date": "2022-01-26",
        "priceEur": 630000,
        "typeLocal": "Appartement",
        "surfaceM2": 58,
        "isVefa": false
      },
      {
        "date": "2022-01-26",
        "priceEur": 630000,
        "typeLocal": "Appartement",
        "surfaceM2": 52,
        "isVefa": false
      },
      {
        "date": "2022-01-26",
        "priceEur": 630000,
        "typeLocal": "Appartement",
        "surfaceM2": 51,
        "isVefa": false
      },
      {
        "date": "2022-01-26",
        "priceEur": 630000,
        "typeLocal": "Appartement",
        "surfaceM2": 57,
        "isVefa": false
      },
      {
        "date": "2022-01-26",
        "priceEur": 630000,
        "typeLocal": "Appartement",
        "surfaceM2": 48,
        "isVefa": false
      },
      {
        "date": "2022-01-26",
        "priceEur": 630000,
        "typeLocal": "Appartement",
        "surfaceM2": 53,
        "isVefa": false
      },
      {
        "date": "2022-01-26",
        "priceEur": 630000,
        "typeLocal": "Appartement",
        "surfaceM2": 65,
        "isVefa": false
      },
      {
        "date": "2022-01-26",
        "priceEur": 630000,
        "typeLocal": "Appartement",
        "surfaceM2": 66,
        "isVefa": false
      },
      {
        "date": "2022-01-26",
        "priceEur": 630000,
        "typeLocal": "Appartement",
        "surfaceM2": 64,
        "isVefa": false
      },
      {
        "date": "2022-01-26",
        "priceEur": 630000,
        "typeLocal": "Appartement",
        "surfaceM2": 84,
        "isVefa": false
      },
      {
        "date": "2022-01-26",
        "priceEur": 630000,
        "typeLocal": "Appartement",
        "surfaceM2": 70,
        "isVefa": false
      },
      {
        "date": "2022-01-26",
        "priceEur": 630000,
        "typeLocal": "Appartement",
        "surfaceM2": 91,
        "isVefa": false
      }
    ]
  },
  "ec4c4efa7a83": {
    "id": "ec4c4efa7a83",
    "label": "16 RUE DES DRAGONS, Wattrelos",
    "lat": 50.702444,
    "lng": 3.207474,
    "transactions": [
      {
        "date": "2022-11-07",
        "priceEur": 103000,
        "typeLocal": "Maison",
        "surfaceM2": 80,
        "isVefa": false
      },
      {
        "date": "2022-01-28",
        "priceEur": 93000,
        "typeLocal": "Maison",
        "surfaceM2": 80,
        "isVefa": false
      }
    ]
  },
  "88eba53554f5": {
    "id": "88eba53554f5",
    "label": "94 RUE DU PETIT TOURNAI, Wattrelos",
    "lat": 50.707872,
    "lng": 3.204188,
    "transactions": [
      {
        "date": "2022-01-20",
        "priceEur": 153000,
        "typeLocal": "Maison",
        "surfaceM2": 100,
        "isVefa": false
      }
    ]
  },
  "9c18c1b6de07": {
    "id": "9c18c1b6de07",
    "label": "28 RUE DU PETIT TOURNAI, Wattrelos",
    "lat": 50.707264,
    "lng": 3.202476,
    "transactions": [
      {
        "date": "2022-01-26",
        "priceEur": 157000,
        "typeLocal": "Maison",
        "surfaceM2": 67,
        "isVefa": false
      }
    ]
  },
  "96c2cce86579": {
    "id": "96c2cce86579",
    "label": "33 RUE DES TROIS COULEURS, Wattrelos",
    "lat": 50.703696,
    "lng": 3.199452,
    "transactions": [
      {
        "date": "2022-02-11",
        "priceEur": 143900,
        "typeLocal": "Maison",
        "surfaceM2": 74,
        "isVefa": false
      }
    ]
  },
  "2b1c933da719": {
    "id": "2b1c933da719",
    "label": "17 RUE MA CAMPAGNE, Wattrelos",
    "lat": 50.70354,
    "lng": 3.203377,
    "transactions": [
      {
        "date": "2022-02-04",
        "priceEur": 164000,
        "typeLocal": "Maison",
        "surfaceM2": 62,
        "isVefa": false
      }
    ]
  },
  "5327fbedf0a5": {
    "id": "5327fbedf0a5",
    "label": "15 RUE DES ROSES, Wattrelos",
    "lat": 50.707787,
    "lng": 3.2068,
    "transactions": [
      {
        "date": "2022-02-01",
        "priceEur": 287000,
        "typeLocal": "Maison",
        "surfaceM2": 100,
        "isVefa": false
      }
    ]
  },
  "59db2b8b446a": {
    "id": "59db2b8b446a",
    "label": "110 RUE HENRI BRIFFAUT, Wattrelos",
    "lat": 50.704315,
    "lng": 3.203886,
    "transactions": [
      {
        "date": "2022-02-15",
        "priceEur": 324550,
        "typeLocal": "Maison",
        "surfaceM2": 84,
        "isVefa": false
      }
    ]
  },
  "e572c52ca839": {
    "id": "e572c52ca839",
    "label": "147 RUE HENRI BRIFFAUT, Wattrelos",
    "lat": 50.704211,
    "lng": 3.202661,
    "transactions": [
      {
        "date": "2022-02-15",
        "priceEur": 104000,
        "typeLocal": "Maison",
        "surfaceM2": 50,
        "isVefa": false
      }
    ]
  },
  "b25061739397": {
    "id": "b25061739397",
    "label": "10 RUE COPERNIC, Wattrelos",
    "lat": 50.705509,
    "lng": 3.207655,
    "transactions": [
      {
        "date": "2022-03-11",
        "priceEur": 317000,
        "typeLocal": "Maison",
        "surfaceM2": 118,
        "isVefa": false
      }
    ]
  },
  "6a9fa2ef8bac": {
    "id": "6a9fa2ef8bac",
    "label": "26 RUE SAINT VINCENT DE PAUL, Wattrelos",
    "lat": 50.704518,
    "lng": 3.205348,
    "transactions": [
      {
        "date": "2022-03-10",
        "priceEur": 155000,
        "typeLocal": "Maison",
        "surfaceM2": 100,
        "isVefa": false
      }
    ]
  },
  "a7272edf11aa": {
    "id": "a7272edf11aa",
    "label": "23 RUE DU PETIT TOURNAI, Wattrelos",
    "lat": 50.707498,
    "lng": 3.201688,
    "transactions": [
      {
        "date": "2022-03-14",
        "priceEur": 120000,
        "typeLocal": "Maison",
        "surfaceM2": 108,
        "isVefa": false
      }
    ]
  },
  "9f4e023ebc68": {
    "id": "9f4e023ebc68",
    "label": "120 RUE HENRI BRIFFAUT, Wattrelos",
    "lat": 50.704376,
    "lng": 3.203483,
    "transactions": [
      {
        "date": "2022-03-25",
        "priceEur": 182500,
        "typeLocal": "Maison",
        "surfaceM2": 62,
        "isVefa": false
      }
    ]
  },
  "9870ba3af193": {
    "id": "9870ba3af193",
    "label": "13 SQ PAUL LANGEVIN, Wattrelos",
    "lat": 50.702926,
    "lng": 3.200105,
    "transactions": [
      {
        "date": "2022-03-25",
        "priceEur": 140000,
        "typeLocal": "Maison",
        "surfaceM2": 83,
        "isVefa": false
      }
    ]
  },
  "c5fc98d1cb33": {
    "id": "c5fc98d1cb33",
    "label": "68 RUE ALBERT D HONDT, Wattrelos",
    "lat": 50.706202,
    "lng": 3.206462,
    "transactions": [
      {
        "date": "2022-04-19",
        "priceEur": 189000,
        "typeLocal": "Maison",
        "surfaceM2": 116,
        "isVefa": false
      }
    ]
  },
  "cfa8c5e626a8": {
    "id": "cfa8c5e626a8",
    "label": "3 RUE DE BETHUNE IMP PRUT, Wattrelos",
    "lat": 50.703999,
    "lng": 3.200014,
    "transactions": [
      {
        "date": "2022-04-11",
        "priceEur": 129200,
        "typeLocal": "Maison",
        "surfaceM2": 45,
        "isVefa": false
      }
    ]
  },
  "2296c7b7d410": {
    "id": "2296c7b7d410",
    "label": "23 RUE C WEPPE CITE LEPERS, Wattrelos",
    "lat": 50.706048,
    "lng": 3.201034,
    "transactions": [
      {
        "date": "2022-04-15",
        "priceEur": 118000,
        "typeLocal": "Maison",
        "surfaceM2": 77,
        "isVefa": false
      }
    ]
  },
  "2c2de0c1ddf4": {
    "id": "2c2de0c1ddf4",
    "label": "43 RUE DES PATRIOTES, Wattrelos",
    "lat": 50.706217,
    "lng": 3.197256,
    "transactions": [
      {
        "date": "2022-05-06",
        "priceEur": 90000,
        "typeLocal": "Maison",
        "surfaceM2": 96,
        "isVefa": false
      }
    ]
  },
  "8e27bc04fbad": {
    "id": "8e27bc04fbad",
    "label": "47 RUE FELIX FAURE, Wattrelos",
    "lat": 50.703054,
    "lng": 3.203783,
    "transactions": [
      {
        "date": "2022-05-23",
        "priceEur": 173000,
        "typeLocal": "Maison",
        "surfaceM2": 78,
        "isVefa": false
      }
    ]
  },
  "002ed9c74d5b": {
    "id": "002ed9c74d5b",
    "label": "19 RUE MA CAMPAGNE, Wattrelos",
    "lat": 50.703497,
    "lng": 3.203351,
    "transactions": [
      {
        "date": "2022-05-17",
        "priceEur": 156800,
        "typeLocal": "Maison",
        "surfaceM2": 74,
        "isVefa": false
      }
    ]
  },
  "a77be2be3c83": {
    "id": "a77be2be3c83",
    "label": "5 RUE C WEPPE CITE HENNION, Wattrelos",
    "lat": 50.705708,
    "lng": 3.200973,
    "transactions": [
      {
        "date": "2022-06-01",
        "priceEur": 137000,
        "typeLocal": "Maison",
        "surfaceM2": 67,
        "isVefa": false
      }
    ]
  },
  "cc05bee8baaf": {
    "id": "cc05bee8baaf",
    "label": "13 RUE DES TROIS COULEURS, Wattrelos",
    "lat": 50.704068,
    "lng": 3.199074,
    "transactions": [
      {
        "date": "2022-06-08",
        "priceEur": 169000,
        "typeLocal": "Maison",
        "surfaceM2": 78,
        "isVefa": false
      }
    ]
  },
  "9639a26b9a87": {
    "id": "9639a26b9a87",
    "label": "36 RUE DE LA VIGNE, Wattrelos",
    "lat": 50.703196,
    "lng": 3.205208,
    "transactions": [
      {
        "date": "2022-07-01",
        "priceEur": 148000,
        "typeLocal": "Maison",
        "surfaceM2": 74,
        "isVefa": false
      }
    ]
  },
  "ec6e7caeb519": {
    "id": "ec6e7caeb519",
    "label": "33 RUE CHARLES CASTERMANT, Wattrelos",
    "lat": 50.704093,
    "lng": 3.198395,
    "transactions": [
      {
        "date": "2022-07-08",
        "priceEur": 47750,
        "typeLocal": "Maison",
        "surfaceM2": 77,
        "isVefa": false
      }
    ]
  },
  "2f831630054f": {
    "id": "2f831630054f",
    "label": "11 RUE DU PETIT TOURNAI, Wattrelos",
    "lat": 50.707363,
    "lng": 3.201348,
    "transactions": [
      {
        "date": "2022-06-29",
        "priceEur": 182500,
        "typeLocal": "Maison",
        "surfaceM2": 75,
        "isVefa": false
      }
    ]
  },
  "8dd04e0b626e": {
    "id": "8dd04e0b626e",
    "label": "26 RUE C WEPPE CITE LEFEBVRE, Wattrelos",
    "lat": 50.705635,
    "lng": 3.200404,
    "transactions": [
      {
        "date": "2022-07-07",
        "priceEur": 143000,
        "typeLocal": "Maison",
        "surfaceM2": 65,
        "isVefa": false
      }
    ]
  },
  "0e51f78e419d": {
    "id": "0e51f78e419d",
    "label": "8 RUE DE CALAIS, Wattrelos",
    "lat": 50.704395,
    "lng": 3.199833,
    "transactions": [
      {
        "date": "2022-07-06",
        "priceEur": 103000,
        "typeLocal": "Maison",
        "surfaceM2": 110,
        "isVefa": false
      }
    ]
  },
  "67d91fd38a09": {
    "id": "67d91fd38a09",
    "label": "36 RUE DES PATRIOTES, Wattrelos",
    "lat": 50.705627,
    "lng": 3.198908,
    "transactions": [
      {
        "date": "2022-06-23",
        "priceEur": 540000,
        "typeLocal": "Maison",
        "surfaceM2": 100,
        "isVefa": false
      }
    ]
  },
  "040f1d59eb6e": {
    "id": "040f1d59eb6e",
    "label": "33 RUE FELIX FAURE, Wattrelos",
    "lat": 50.703328,
    "lng": 3.203959,
    "transactions": [
      {
        "date": "2022-06-27",
        "priceEur": 165000,
        "typeLocal": "Maison",
        "surfaceM2": 87,
        "isVefa": false
      }
    ]
  },
  "f1e9a8bdb071": {
    "id": "f1e9a8bdb071",
    "label": "42 RUE DES ROSES, Wattrelos",
    "lat": 50.707486,
    "lng": 3.205917,
    "transactions": [
      {
        "date": "2022-07-18",
        "priceEur": 177400,
        "typeLocal": "Maison",
        "surfaceM2": 99,
        "isVefa": false
      }
    ]
  },
  "62bc8c29e291": {
    "id": "62bc8c29e291",
    "label": "3 RUE SYNDICAT CITE J EDOUARD, Wattrelos",
    "lat": 50.707533,
    "lng": 3.19814,
    "transactions": [
      {
        "date": "2024-09-20",
        "priceEur": 173000,
        "typeLocal": "Maison",
        "surfaceM2": 73,
        "isVefa": false
      },
      {
        "date": "2022-08-05",
        "priceEur": 182500,
        "typeLocal": "Maison",
        "surfaceM2": 73,
        "isVefa": false
      }
    ]
  },
  "edfbd786f3d5": {
    "id": "edfbd786f3d5",
    "label": "19 RUE C WEPPE CITE LEFEBVRE, Wattrelos",
    "lat": 50.705545,
    "lng": 3.199873,
    "transactions": [
      {
        "date": "2022-08-16",
        "priceEur": 165000,
        "typeLocal": "Maison",
        "surfaceM2": 60,
        "isVefa": false
      }
    ]
  },
  "33b26ea61405": {
    "id": "33b26ea61405",
    "label": "35 RUE NADAUD, Wattrelos",
    "lat": 50.703241,
    "lng": 3.197212,
    "transactions": [
      {
        "date": "2024-12-12",
        "priceEur": 100000,
        "typeLocal": "Maison",
        "surfaceM2": 61,
        "isVefa": false
      },
      {
        "date": "2022-08-18",
        "priceEur": 150000,
        "typeLocal": "Maison",
        "surfaceM2": 61,
        "isVefa": false
      }
    ]
  },
  "6e606215c63b": {
    "id": "6e606215c63b",
    "label": "3 RANGEE DELCROIX, Wattrelos",
    "lat": 50.706145,
    "lng": 3.202793,
    "transactions": [
      {
        "date": "2022-08-29",
        "priceEur": 206300,
        "typeLocal": "Maison",
        "surfaceM2": 109,
        "isVefa": false
      }
    ]
  },
  "6df1d63bc6e6": {
    "id": "6df1d63bc6e6",
    "label": "25 RUE DE LA TEINTURERIE, Wattrelos",
    "lat": 50.703465,
    "lng": 3.201203,
    "transactions": [
      {
        "date": "2022-09-16",
        "priceEur": 76070,
        "typeLocal": "Maison",
        "surfaceM2": 75,
        "isVefa": false
      }
    ]
  },
  "a03e0d705000": {
    "id": "a03e0d705000",
    "label": "24 RUE DES DRAGONS, Wattrelos",
    "lat": 50.702332,
    "lng": 3.206949,
    "transactions": [
      {
        "date": "2022-09-21",
        "priceEur": 246500,
        "typeLocal": "Maison",
        "surfaceM2": 138,
        "isVefa": false
      }
    ]
  },
  "bb31d87dae02": {
    "id": "bb31d87dae02",
    "label": "40 RUE HENRI BRIFFAUT, Wattrelos",
    "lat": 50.703591,
    "lng": 3.20775,
    "transactions": [
      {
        "date": "2022-09-14",
        "priceEur": 160000,
        "typeLocal": "Maison",
        "surfaceM2": 54,
        "isVefa": false
      }
    ]
  },
  "b5d225943820": {
    "id": "b5d225943820",
    "label": "15 RUE DES TROIS COULEURS, Wattrelos",
    "lat": 50.704025,
    "lng": 3.199118,
    "transactions": [
      {
        "date": "2022-09-13",
        "priceEur": 97000,
        "typeLocal": "Maison",
        "surfaceM2": 73,
        "isVefa": false
      }
    ]
  },
  "bfde813cdd2d": {
    "id": "bfde813cdd2d",
    "label": "16 RUE DE BETHUNE IMP PRUT, Wattrelos",
    "lat": 50.70415,
    "lng": 3.1995,
    "transactions": [
      {
        "date": "2022-09-29",
        "priceEur": 54000,
        "typeLocal": "Maison",
        "surfaceM2": 134,
        "isVefa": false
      }
    ]
  },
  "5e0687d7c793": {
    "id": "5e0687d7c793",
    "label": "12 RUE CLAUDE WEPPE, Wattrelos",
    "lat": 50.705886,
    "lng": 3.201767,
    "transactions": [
      {
        "date": "2022-09-16",
        "priceEur": 167000,
        "typeLocal": "Maison",
        "surfaceM2": 72,
        "isVefa": false
      }
    ]
  },
  "559bbc38766c": {
    "id": "559bbc38766c",
    "label": "36 RUE MONGE, Wattrelos",
    "lat": 50.702948,
    "lng": 3.198851,
    "transactions": [
      {
        "date": "2022-10-05",
        "priceEur": 88000,
        "typeLocal": "Maison",
        "surfaceM2": 67,
        "isVefa": false
      }
    ]
  },
  "a3046397ad30": {
    "id": "a3046397ad30",
    "label": "38 RUE MONGE, Wattrelos",
    "lat": 50.702912,
    "lng": 3.198885,
    "transactions": [
      {
        "date": "2022-10-05",
        "priceEur": 88000,
        "typeLocal": "Maison",
        "surfaceM2": 67,
        "isVefa": false
      }
    ]
  },
  "c7ffba1ea229": {
    "id": "c7ffba1ea229",
    "label": "52 RUE CHARLES CASTERMANT, Wattrelos",
    "lat": 50.704092,
    "lng": 3.1973,
    "transactions": [
      {
        "date": "2022-09-29",
        "priceEur": 24534.58,
        "typeLocal": "Appartement",
        "surfaceM2": 47,
        "isVefa": false
      },
      {
        "date": "2022-09-29",
        "priceEur": 24534.58,
        "typeLocal": "Maison",
        "surfaceM2": 94,
        "isVefa": false
      }
    ]
  },
  "3dbadc2fd61d": {
    "id": "3dbadc2fd61d",
    "label": "21 RUE HAUGEDE, Wattrelos",
    "lat": 50.70482,
    "lng": 3.206143,
    "transactions": [
      {
        "date": "2022-10-05",
        "priceEur": 151000,
        "typeLocal": "Maison",
        "surfaceM2": 71,
        "isVefa": false
      }
    ]
  },
  "49e3b5ea14ea": {
    "id": "49e3b5ea14ea",
    "label": "2 SEN HENNEBELLE, Wattrelos",
    "lat": 50.706971,
    "lng": 3.203511,
    "transactions": [
      {
        "date": "2022-09-16",
        "priceEur": 97000,
        "typeLocal": "Maison",
        "surfaceM2": 48,
        "isVefa": false
      }
    ]
  },
  "259d21465162": {
    "id": "259d21465162",
    "label": "61 RUE SAINT VINCENT DE PAUL, Wattrelos",
    "lat": 50.704984,
    "lng": 3.203198,
    "transactions": [
      {
        "date": "2022-10-13",
        "priceEur": 82000,
        "typeLocal": "Maison",
        "surfaceM2": 75,
        "isVefa": false
      }
    ]
  },
  "177304c5a699": {
    "id": "177304c5a699",
    "label": "12 RUE DE CALAIS, Wattrelos",
    "lat": 50.704294,
    "lng": 3.199931,
    "transactions": [
      {
        "date": "2022-09-29",
        "priceEur": 155000,
        "typeLocal": "Maison",
        "surfaceM2": 80,
        "isVefa": false
      }
    ]
  },
  "566eb0033678": {
    "id": "566eb0033678",
    "label": "102 RUE SAINT VINCENT DE PAUL, Wattrelos",
    "lat": 50.705477,
    "lng": 3.203034,
    "transactions": [
      {
        "date": "2022-09-27",
        "priceEur": 160600,
        "typeLocal": "Maison",
        "surfaceM2": 103,
        "isVefa": false
      }
    ]
  },
  "61c1d451118f": {
    "id": "61c1d451118f",
    "label": "80 RUE MONGE, Wattrelos",
    "lat": 50.701806,
    "lng": 3.200568,
    "transactions": [
      {
        "date": "2022-10-20",
        "priceEur": 188000,
        "typeLocal": "Maison",
        "surfaceM2": 94,
        "isVefa": false
      }
    ]
  },
  "b61e48ff3bd0": {
    "id": "b61e48ff3bd0",
    "label": "20 RUE GAMBETTA, Wattrelos",
    "lat": 50.704651,
    "lng": 3.203359,
    "transactions": [
      {
        "date": "2022-10-18",
        "priceEur": 158550,
        "typeLocal": "Maison",
        "surfaceM2": 67,
        "isVefa": false
      }
    ]
  },
  "fb17bc5731df": {
    "id": "fb17bc5731df",
    "label": "28B RUE SAINT VINCENT DE PAUL, Wattrelos",
    "lat": 50.704734,
    "lng": 3.205839,
    "transactions": [
      {
        "date": "2022-10-04",
        "priceEur": 333600,
        "typeLocal": "Maison",
        "surfaceM2": 92,
        "isVefa": false
      }
    ]
  },
  "28e25064a5e0": {
    "id": "28e25064a5e0",
    "label": "65 RUE SAINT VINCENT DE PAUL, Wattrelos",
    "lat": 50.705041,
    "lng": 3.203065,
    "transactions": [
      {
        "date": "2022-10-27",
        "priceEur": 190000,
        "typeLocal": "Maison",
        "surfaceM2": 60,
        "isVefa": false
      }
    ]
  },
  "251e7398986f": {
    "id": "251e7398986f",
    "label": "87 RUE ALBERT D HONDT, Wattrelos",
    "lat": 50.704975,
    "lng": 3.205447,
    "transactions": [
      {
        "date": "2022-11-08",
        "priceEur": 100000,
        "typeLocal": "Maison",
        "surfaceM2": 90,
        "isVefa": false
      }
    ]
  },
  "6874bfe5416b": {
    "id": "6874bfe5416b",
    "label": "64 RUE DU PETIT TOURNAI, Wattrelos",
    "lat": 50.707645,
    "lng": 3.203168,
    "transactions": [
      {
        "date": "2022-11-17",
        "priceEur": 118000,
        "typeLocal": "Maison",
        "surfaceM2": 74,
        "isVefa": false
      }
    ]
  },
  "6200ab594ee5": {
    "id": "6200ab594ee5",
    "label": "17 RUE C WEPPE CITE LEFEBVRE, Wattrelos",
    "lat": 50.705509,
    "lng": 3.199895,
    "transactions": [
      {
        "date": "2022-10-31",
        "priceEur": 148000,
        "typeLocal": "Maison",
        "surfaceM2": 66,
        "isVefa": false
      }
    ]
  },
  "51e3d48186f1": {
    "id": "51e3d48186f1",
    "label": "1 RUE DE LA VIGNE, Wattrelos",
    "lat": 50.703681,
    "lng": 3.206386,
    "transactions": [
      {
        "date": "2022-11-24",
        "priceEur": 160600,
        "typeLocal": "Maison",
        "surfaceM2": 85,
        "isVefa": false
      }
    ]
  },
  "28927ad02bda": {
    "id": "28927ad02bda",
    "label": "177 RUE HENRI BRIFFAUT, Wattrelos",
    "lat": 50.704373,
    "lng": 3.201098,
    "transactions": [
      {
        "date": "2022-12-19",
        "priceEur": 85000,
        "typeLocal": "Maison",
        "surfaceM2": 47,
        "isVefa": false
      }
    ]
  },
  "c79780c5bbe2": {
    "id": "c79780c5bbe2",
    "label": "3 RUE NADAUD, Wattrelos",
    "lat": 50.703551,
    "lng": 3.198149,
    "transactions": [
      {
        "date": "2023-01-11",
        "priceEur": 159400,
        "typeLocal": "Maison",
        "surfaceM2": 98,
        "isVefa": false
      }
    ]
  },
  "80585b2f6f9a": {
    "id": "80585b2f6f9a",
    "label": "12 AV LE NOTRE, Wattrelos",
    "lat": 50.702163,
    "lng": 3.205418,
    "transactions": [
      {
        "date": "2023-01-09",
        "priceEur": 235000,
        "typeLocal": "Maison",
        "surfaceM2": 79,
        "isVefa": false
      }
    ]
  },
  "ea449ab40a03": {
    "id": "ea449ab40a03",
    "label": "20 RUE C WEPPE CITE LEPERS, Wattrelos",
    "lat": 50.706075,
    "lng": 3.201321,
    "transactions": [
      {
        "date": "2023-01-18",
        "priceEur": 83000,
        "typeLocal": "Maison",
        "surfaceM2": 65,
        "isVefa": false
      }
    ]
  },
  "93d9bf9942b4": {
    "id": "93d9bf9942b4",
    "label": "30 RUE ALBERT D HONDT, Wattrelos",
    "lat": 50.706982,
    "lng": 3.207649,
    "transactions": [
      {
        "date": "2023-01-16",
        "priceEur": 177500,
        "typeLocal": "Maison",
        "surfaceM2": 83,
        "isVefa": false
      }
    ]
  },
  "6255c2c9eb88": {
    "id": "6255c2c9eb88",
    "label": "11 RUE FELIX FAURE, Wattrelos",
    "lat": 50.703685,
    "lng": 3.204378,
    "transactions": [
      {
        "date": "2023-01-23",
        "priceEur": 154500,
        "typeLocal": "Maison",
        "surfaceM2": 70,
        "isVefa": false
      }
    ]
  },
  "a8a64b46c053": {
    "id": "a8a64b46c053",
    "label": "19 RUE NADAUD, Wattrelos",
    "lat": 50.703407,
    "lng": 3.197684,
    "transactions": [
      {
        "date": "2023-02-21",
        "priceEur": 148000,
        "typeLocal": "Maison",
        "surfaceM2": 74,
        "isVefa": false
      }
    ]
  },
  "82a26ac30e39": {
    "id": "82a26ac30e39",
    "label": "93 RUE ALBERT D HONDT, Wattrelos",
    "lat": 50.704812,
    "lng": 3.205234,
    "transactions": [
      {
        "date": "2023-02-07",
        "priceEur": 225000,
        "typeLocal": "Maison",
        "surfaceM2": 67,
        "isVefa": false
      }
    ]
  },
  "af9fbf63431f": {
    "id": "af9fbf63431f",
    "label": "20 RUE HENRI BRIFFAUT IP DELCROIX, Wattrelos",
    "lat": 50.705103,
    "lng": 3.201373,
    "transactions": [
      {
        "date": "2023-02-23",
        "priceEur": 90000,
        "typeLocal": "Maison",
        "surfaceM2": 46,
        "isVefa": false
      }
    ]
  },
  "7fe9bbba047b": {
    "id": "7fe9bbba047b",
    "label": "21 RUE DES TROIS COULEURS, Wattrelos",
    "lat": 50.704157,
    "lng": 3.198444,
    "transactions": [
      {
        "date": "2023-02-10",
        "priceEur": 160000,
        "typeLocal": "Appartement",
        "surfaceM2": 62,
        "isVefa": false
      },
      {
        "date": "2023-02-10",
        "priceEur": 160000,
        "typeLocal": "Appartement",
        "surfaceM2": 44,
        "isVefa": false
      }
    ]
  },
  "8d84b8e58ab3": {
    "id": "8d84b8e58ab3",
    "label": "18 RUE HAUGEDE, Wattrelos",
    "lat": 50.704614,
    "lng": 3.206343,
    "transactions": [
      {
        "date": "2023-02-23",
        "priceEur": 149000,
        "typeLocal": "Maison",
        "surfaceM2": 55,
        "isVefa": false
      }
    ]
  },
  "2067231b096c": {
    "id": "2067231b096c",
    "label": "30 RUE ST VT DE PAUL RGE MOUTARDE, Wattrelos",
    "lat": 50.705623,
    "lng": 3.205148,
    "transactions": [
      {
        "date": "2023-02-17",
        "priceEur": 130500,
        "typeLocal": "Maison",
        "surfaceM2": 99,
        "isVefa": false
      }
    ]
  },
  "2722b6c624b4": {
    "id": "2722b6c624b4",
    "label": "27 RUE GAMBETTA, Wattrelos",
    "lat": 50.70488,
    "lng": 3.203103,
    "transactions": [
      {
        "date": "2023-02-24",
        "priceEur": 86242,
        "typeLocal": "Maison",
        "surfaceM2": 56,
        "isVefa": false
      }
    ]
  },
  "7ee525b3c913": {
    "id": "7ee525b3c913",
    "label": "82 RUE HENRI BRIFFAUT, Wattrelos",
    "lat": 50.704164,
    "lng": 3.205061,
    "transactions": [
      {
        "date": "2023-03-02",
        "priceEur": 175000,
        "typeLocal": "Maison",
        "surfaceM2": 90,
        "isVefa": false
      }
    ]
  },
  "0359c842321e": {
    "id": "0359c842321e",
    "label": "12 RUE FELIX FAURE, Wattrelos",
    "lat": 50.703812,
    "lng": 3.204015,
    "transactions": [
      {
        "date": "2023-03-01",
        "priceEur": 117000,
        "typeLocal": "Maison",
        "surfaceM2": 70,
        "isVefa": false
      }
    ]
  },
  "bfff129a4762": {
    "id": "bfff129a4762",
    "label": "14 RUE C WEPPE CITE LEFEBVRE, Wattrelos",
    "lat": 50.705453,
    "lng": 3.200598,
    "transactions": [
      {
        "date": "2023-02-21",
        "priceEur": 135000,
        "typeLocal": "Maison",
        "surfaceM2": 55,
        "isVefa": false
      }
    ]
  },
  "5328e4a1a9f7": {
    "id": "5328e4a1a9f7",
    "label": "11 RUE ROYALE, Wattrelos",
    "lat": 50.706518,
    "lng": 3.202506,
    "transactions": [
      {
        "date": "2023-03-07",
        "priceEur": 161000,
        "typeLocal": "Maison",
        "surfaceM2": 50,
        "isVefa": false
      }
    ]
  },
  "6251c453bd0a": {
    "id": "6251c453bd0a",
    "label": "15 RUE C CASTERMANT CR DELAPLACE, Wattrelos",
    "lat": 50.704423,
    "lng": 3.197186,
    "transactions": [
      {
        "date": "2023-03-22",
        "priceEur": 118000,
        "typeLocal": "Maison",
        "surfaceM2": 70,
        "isVefa": false
      }
    ]
  },
  "710c000e65e2": {
    "id": "710c000e65e2",
    "label": "1 RUE DU PETIT TOURNAI, Wattrelos",
    "lat": 50.707165,
    "lng": 3.201131,
    "transactions": [
      {
        "date": "2024-08-20",
        "priceEur": 195000,
        "typeLocal": "Maison",
        "surfaceM2": 82,
        "isVefa": false
      },
      {
        "date": "2023-03-21",
        "priceEur": 119000,
        "typeLocal": "Maison",
        "surfaceM2": 82,
        "isVefa": false
      }
    ]
  },
  "08ddfaf102a1": {
    "id": "08ddfaf102a1",
    "label": "30 RUE FERDINAND BUISSON, Wattrelos",
    "lat": 50.707202,
    "lng": 3.206945,
    "transactions": [
      {
        "date": "2023-03-31",
        "priceEur": 315000,
        "typeLocal": "Maison",
        "surfaceM2": 116,
        "isVefa": false
      }
    ]
  },
  "fad2c495a020": {
    "id": "fad2c495a020",
    "label": "12 RUE DE CALAIS IMP HARDUIN, Wattrelos",
    "lat": 50.704142,
    "lng": 3.199986,
    "transactions": [
      {
        "date": "2023-03-31",
        "priceEur": 71000,
        "typeLocal": "Maison",
        "surfaceM2": 82,
        "isVefa": false
      }
    ]
  },
  "71454e8896bf": {
    "id": "71454e8896bf",
    "label": "18 RUE NADAUD, Wattrelos",
    "lat": 50.703641,
    "lng": 3.197509,
    "transactions": [
      {
        "date": "2023-04-05",
        "priceEur": 104000,
        "typeLocal": "Maison",
        "surfaceM2": 68,
        "isVefa": false
      }
    ]
  },
  "57d48cf74004": {
    "id": "57d48cf74004",
    "label": "27 RUE C WEPPE CITE LEPERS, Wattrelos",
    "lat": 50.706123,
    "lng": 3.20096,
    "transactions": [
      {
        "date": "2023-04-04",
        "priceEur": 140000,
        "typeLocal": "Maison",
        "surfaceM2": 68,
        "isVefa": false
      }
    ]
  },
  "11a46c4dbb97": {
    "id": "11a46c4dbb97",
    "label": "25 RUE CHARLES CASTERMANT, Wattrelos",
    "lat": 50.704306,
    "lng": 3.198714,
    "transactions": [
      {
        "date": "2023-04-24",
        "priceEur": 101600,
        "typeLocal": "Maison",
        "surfaceM2": 66,
        "isVefa": false
      }
    ]
  },
  "ad7d4894b1c5": {
    "id": "ad7d4894b1c5",
    "label": "46 RUE CLAUDE WEPPE, Wattrelos",
    "lat": 50.705301,
    "lng": 3.200554,
    "transactions": [
      {
        "date": "2023-05-25",
        "priceEur": 80000,
        "typeLocal": "Maison",
        "surfaceM2": 67,
        "isVefa": false
      }
    ]
  },
  "f2c360ca9309": {
    "id": "f2c360ca9309",
    "label": "34 RUE DES DRAGONS, Wattrelos",
    "lat": 50.701932,
    "lng": 3.206701,
    "transactions": [
      {
        "date": "2023-06-06",
        "priceEur": 227000,
        "typeLocal": "Maison",
        "surfaceM2": 83,
        "isVefa": false
      }
    ]
  },
  "e508df574ace": {
    "id": "e508df574ace",
    "label": "7 RUE BRIFFAUT COUR CATTEAU, Wattrelos",
    "lat": 50.703207,
    "lng": 3.206779,
    "transactions": [
      {
        "date": "2023-05-24",
        "priceEur": 145000,
        "typeLocal": "Maison",
        "surfaceM2": 54,
        "isVefa": false
      }
    ]
  },
  "f18f7dbfd754": {
    "id": "f18f7dbfd754",
    "label": "42 RUE MONGE, Wattrelos",
    "lat": 50.702836,
    "lng": 3.198943,
    "transactions": [
      {
        "date": "2023-07-03",
        "priceEur": 115000,
        "typeLocal": "Maison",
        "surfaceM2": 67,
        "isVefa": false
      }
    ]
  },
  "009f147fba10": {
    "id": "009f147fba10",
    "label": "10 RUE HENRI BRIFFAUT IP DELCROIX, Wattrelos",
    "lat": 50.704819,
    "lng": 3.201569,
    "transactions": [
      {
        "date": "2023-07-04",
        "priceEur": 178000,
        "typeLocal": "Maison",
        "surfaceM2": 102,
        "isVefa": false
      }
    ]
  },
  "c025b093e94d": {
    "id": "c025b093e94d",
    "label": "40 RUE ALBERT D HONDT, Wattrelos",
    "lat": 50.706805,
    "lng": 3.207378,
    "transactions": [
      {
        "date": "2023-08-22",
        "priceEur": 235000,
        "typeLocal": "Maison",
        "surfaceM2": 146,
        "isVefa": false
      }
    ]
  },
  "3b626ea9094d": {
    "id": "3b626ea9094d",
    "label": "10 RUE DE BETHUNE, Wattrelos",
    "lat": 50.704259,
    "lng": 3.201226,
    "transactions": [
      {
        "date": "2023-08-21",
        "priceEur": 133500,
        "typeLocal": "Maison",
        "surfaceM2": 58,
        "isVefa": false
      }
    ]
  },
  "24bd0463ad85": {
    "id": "24bd0463ad85",
    "label": "6 RUE FERDINAND BUISSON, Wattrelos",
    "lat": 50.706014,
    "lng": 3.204804,
    "transactions": [
      {
        "date": "2023-09-01",
        "priceEur": 95000,
        "typeLocal": "Maison",
        "surfaceM2": 121,
        "isVefa": false
      }
    ]
  },
  "5c0c3a6634bb": {
    "id": "5c0c3a6634bb",
    "label": "16 RUE HAUGEDE, Wattrelos",
    "lat": 50.704582,
    "lng": 3.206303,
    "transactions": [
      {
        "date": "2023-08-30",
        "priceEur": 110000,
        "typeLocal": "Maison",
        "surfaceM2": 46,
        "isVefa": false
      }
    ]
  },
  "f9cb0eb658f9": {
    "id": "f9cb0eb658f9",
    "label": "157 RUE GEORGES PHILIPPOT, Wattrelos",
    "lat": 50.708535,
    "lng": 3.206802,
    "transactions": [
      {
        "date": "2023-08-11",
        "priceEur": 92000,
        "typeLocal": "Maison",
        "surfaceM2": 57,
        "isVefa": false
      }
    ]
  },
  "78b09157f298": {
    "id": "78b09157f298",
    "label": "5 RUE DE CALAIS IMP HARDUIN, Wattrelos",
    "lat": 50.704252,
    "lng": 3.199698,
    "transactions": [
      {
        "date": "2023-09-26",
        "priceEur": 70000,
        "typeLocal": "Maison",
        "surfaceM2": 82,
        "isVefa": false
      }
    ]
  },
  "378e70af4fa7": {
    "id": "378e70af4fa7",
    "label": "62B RUE MONGE, Wattrelos",
    "lat": 50.702277,
    "lng": 3.199699,
    "transactions": [
      {
        "date": "2023-09-13",
        "priceEur": 154000,
        "typeLocal": "Maison",
        "surfaceM2": 87,
        "isVefa": false
      }
    ]
  },
  "dfa4ae927e05": {
    "id": "dfa4ae927e05",
    "label": "44 RUE DE LA VIGNE, Wattrelos",
    "lat": 50.703073,
    "lng": 3.205014,
    "transactions": [
      {
        "date": "2023-10-04",
        "priceEur": 137400,
        "typeLocal": "Maison",
        "surfaceM2": 73,
        "isVefa": false
      }
    ]
  },
  "60a274d2fb40": {
    "id": "60a274d2fb40",
    "label": "67 RUE DE TOUL, Wattrelos",
    "lat": 50.707305,
    "lng": 3.20012,
    "transactions": [
      {
        "date": "2023-11-08",
        "priceEur": 85000,
        "typeLocal": "Maison",
        "surfaceM2": 72,
        "isVefa": false
      }
    ]
  },
  "3d925cd5ea85": {
    "id": "3d925cd5ea85",
    "label": "18 RUE HENRI BRIFFAUT IP DELCROIX, Wattrelos",
    "lat": 50.705029,
    "lng": 3.201425,
    "transactions": [
      {
        "date": "2023-11-23",
        "priceEur": 99750,
        "typeLocal": "Maison",
        "surfaceM2": 48,
        "isVefa": false
      }
    ]
  },
  "17492e787663": {
    "id": "17492e787663",
    "label": "155 RUE GEORGES PHILIPPOT, Wattrelos",
    "lat": 50.708479,
    "lng": 3.206845,
    "transactions": [
      {
        "date": "2023-11-16",
        "priceEur": 83000,
        "typeLocal": "Maison",
        "surfaceM2": 72,
        "isVefa": false
      }
    ]
  },
  "638008f6b2f0": {
    "id": "638008f6b2f0",
    "label": "53 RUE DU PETIT TOURNAI, Wattrelos",
    "lat": 50.707853,
    "lng": 3.202525,
    "transactions": [
      {
        "date": "2023-12-06",
        "priceEur": 94500,
        "typeLocal": "Maison",
        "surfaceM2": 70,
        "isVefa": false
      }
    ]
  },
  "44a282e2c124": {
    "id": "44a282e2c124",
    "label": "8 RUE DE LA VIGNE, Wattrelos",
    "lat": 50.703717,
    "lng": 3.205882,
    "transactions": [
      {
        "date": "2023-12-14",
        "priceEur": 142500,
        "typeLocal": "Maison",
        "surfaceM2": 85,
        "isVefa": false
      }
    ]
  },
  "abc1d57f5b92": {
    "id": "abc1d57f5b92",
    "label": "51 RUE DU PETIT TOURNAI, Wattrelos",
    "lat": 50.707836,
    "lng": 3.202464,
    "transactions": [
      {
        "date": "2024-01-18",
        "priceEur": 200000,
        "typeLocal": "Maison",
        "surfaceM2": 98,
        "isVefa": false
      }
    ]
  },
  "3b2cf4e0fdf5": {
    "id": "3b2cf4e0fdf5",
    "label": "8 RUE FELIX FAURE, Wattrelos",
    "lat": 50.703879,
    "lng": 3.204094,
    "transactions": [
      {
        "date": "2024-01-24",
        "priceEur": 73000,
        "typeLocal": "Maison",
        "surfaceM2": 70,
        "isVefa": false
      }
    ]
  },
  "4acdd54f5c15": {
    "id": "4acdd54f5c15",
    "label": "187B RUE HENRI BRIFFAUT, Wattrelos",
    "lat": 50.704444,
    "lng": 3.200375,
    "transactions": [
      {
        "date": "2024-02-14",
        "priceEur": 155780,
        "typeLocal": "Maison",
        "surfaceM2": 40,
        "isVefa": false
      }
    ]
  },
  "6536d855e3a3": {
    "id": "6536d855e3a3",
    "label": "1 RUE CLAUDE WEPPE, Wattrelos",
    "lat": 50.705692,
    "lng": 3.202192,
    "transactions": [
      {
        "date": "2024-02-19",
        "priceEur": 70000,
        "typeLocal": "Maison",
        "surfaceM2": 104,
        "isVefa": false
      }
    ]
  },
  "f8bc0006c4cc": {
    "id": "f8bc0006c4cc",
    "label": "9 RANGEE DELCROIX, Wattrelos",
    "lat": 50.706289,
    "lng": 3.2031,
    "transactions": [
      {
        "date": "2024-02-29",
        "priceEur": 92000,
        "typeLocal": "Maison",
        "surfaceM2": 51,
        "isVefa": false
      }
    ]
  },
  "79cc3ef743eb": {
    "id": "79cc3ef743eb",
    "label": "54 RUE FELIX FAURE, Wattrelos",
    "lat": 50.703167,
    "lng": 3.203194,
    "transactions": [
      {
        "date": "2024-02-23",
        "priceEur": 107000,
        "typeLocal": "Maison",
        "surfaceM2": 70,
        "isVefa": false
      }
    ]
  },
  "05c25d310da6": {
    "id": "05c25d310da6",
    "label": "46 RUE FELIX FAURE, Wattrelos",
    "lat": 50.703296,
    "lng": 3.203317,
    "transactions": [
      {
        "date": "2024-03-15",
        "priceEur": 85000,
        "typeLocal": "Maison",
        "surfaceM2": 90,
        "isVefa": false
      }
    ]
  },
  "6207583bbea3": {
    "id": "6207583bbea3",
    "label": "47 RUE MA CAMPAGNE, Wattrelos",
    "lat": 50.702612,
    "lng": 3.20193,
    "transactions": [
      {
        "date": "2024-04-11",
        "priceEur": 171500,
        "typeLocal": "Maison",
        "surfaceM2": 63,
        "isVefa": false
      }
    ]
  },
  "9ec10a483546": {
    "id": "9ec10a483546",
    "label": "25 RUE BOIELDIEU, Wattrelos",
    "lat": 50.704559,
    "lng": 3.19814,
    "transactions": [
      {
        "date": "2024-04-19",
        "priceEur": 73000,
        "typeLocal": "Maison",
        "surfaceM2": 64,
        "isVefa": false
      }
    ]
  },
  "41c3e50555d6": {
    "id": "41c3e50555d6",
    "label": "8 RUE CHARLES CASTERMANT, Wattrelos",
    "lat": 50.704702,
    "lng": 3.19887,
    "transactions": [
      {
        "date": "2024-05-07",
        "priceEur": 76000,
        "typeLocal": "Maison",
        "surfaceM2": 91,
        "isVefa": false
      }
    ]
  },
  "7d3ab7908c82": {
    "id": "7d3ab7908c82",
    "label": "6 RUE MA CAMPAGNE, Wattrelos",
    "lat": 50.704013,
    "lng": 3.203494,
    "transactions": [
      {
        "date": "2024-05-06",
        "priceEur": 113000,
        "typeLocal": "Maison",
        "surfaceM2": 100,
        "isVefa": false
      }
    ]
  },
  "ef5cf499b172": {
    "id": "ef5cf499b172",
    "label": "12 RUE ST VT DE PAUL RGE MOUTARDE, Wattrelos",
    "lat": 50.705087,
    "lng": 3.2045,
    "transactions": [
      {
        "date": "2024-05-17",
        "priceEur": 90000,
        "typeLocal": "Maison",
        "surfaceM2": 93,
        "isVefa": false
      }
    ]
  },
  "8dfec715c43b": {
    "id": "8dfec715c43b",
    "label": "1 SQ MARX DORMOY, Wattrelos",
    "lat": 50.706948,
    "lng": 3.206232,
    "transactions": [
      {
        "date": "2024-06-04",
        "priceEur": 231130,
        "typeLocal": "Maison",
        "surfaceM2": 142,
        "isVefa": false
      }
    ]
  },
  "6ec766a62cd4": {
    "id": "6ec766a62cd4",
    "label": "38 RUE DE BETHUNE, Wattrelos",
    "lat": 50.703861,
    "lng": 3.199664,
    "transactions": [
      {
        "date": "2024-06-07",
        "priceEur": 162000,
        "typeLocal": "Maison",
        "surfaceM2": 91,
        "isVefa": false
      }
    ]
  },
  "237e2c38293b": {
    "id": "237e2c38293b",
    "label": "19 RUE DES TROIS COULEURS, Wattrelos",
    "lat": 50.70395,
    "lng": 3.19917,
    "transactions": [
      {
        "date": "2024-06-10",
        "priceEur": 168000,
        "typeLocal": "Maison",
        "surfaceM2": 85,
        "isVefa": false
      }
    ]
  },
  "7968f10daa0f": {
    "id": "7968f10daa0f",
    "label": "73 RUE DE TOUL, Wattrelos",
    "lat": 50.707503,
    "lng": 3.200199,
    "transactions": [
      {
        "date": "2024-06-11",
        "priceEur": 147000,
        "typeLocal": "Maison",
        "surfaceM2": 59,
        "isVefa": false
      }
    ]
  },
  "6d2f8f35bf95": {
    "id": "6d2f8f35bf95",
    "label": "11 RUE DE BETHUNE IMP PRUT, Wattrelos",
    "lat": 50.703846,
    "lng": 3.200096,
    "transactions": [
      {
        "date": "2024-06-25",
        "priceEur": 127000,
        "typeLocal": "Appartement",
        "surfaceM2": 56,
        "isVefa": false
      },
      {
        "date": "2024-06-25",
        "priceEur": 127000,
        "typeLocal": "Appartement",
        "surfaceM2": 36,
        "isVefa": false
      }
    ]
  },
  "d4fd4d89d097": {
    "id": "d4fd4d89d097",
    "label": "83 RUE ALBERT D HONDT, Wattrelos",
    "lat": 50.705041,
    "lng": 3.205597,
    "transactions": [
      {
        "date": "2024-06-17",
        "priceEur": 168000,
        "typeLocal": "Maison",
        "surfaceM2": 90,
        "isVefa": false
      }
    ]
  },
  "dea1c1433fb0": {
    "id": "dea1c1433fb0",
    "label": "5 RUE HENRI BRIFFAUT CR DUTHOIT, Wattrelos",
    "lat": 50.703337,
    "lng": 3.206537,
    "transactions": [
      {
        "date": "2024-07-12",
        "priceEur": 170000,
        "typeLocal": "Maison",
        "surfaceM2": 76,
        "isVefa": false
      }
    ]
  },
  "23af9c4e3984": {
    "id": "23af9c4e3984",
    "label": "15 RUE BOIELDIEU, Wattrelos",
    "lat": 50.704665,
    "lng": 3.198375,
    "transactions": [
      {
        "date": "2024-07-18",
        "priceEur": 133000,
        "typeLocal": "Maison",
        "surfaceM2": 72,
        "isVefa": false
      }
    ]
  },
  "d508c99e28de": {
    "id": "d508c99e28de",
    "label": "31 RUE DES TROIS COULEURS, Wattrelos",
    "lat": 50.70375,
    "lng": 3.199447,
    "transactions": [
      {
        "date": "2024-07-08",
        "priceEur": 169900,
        "typeLocal": "Maison",
        "surfaceM2": 82,
        "isVefa": false
      }
    ]
  },
  "1b41fa987bd6": {
    "id": "1b41fa987bd6",
    "label": "7 RUE HAUGEDE, Wattrelos",
    "lat": 50.704571,
    "lng": 3.205854,
    "transactions": [
      {
        "date": "2024-07-01",
        "priceEur": 152200,
        "typeLocal": "Maison",
        "surfaceM2": 84,
        "isVefa": false
      }
    ]
  },
  "c31ac0bce879": {
    "id": "c31ac0bce879",
    "label": "30 RUE CHARLES CASTERMANT, Wattrelos",
    "lat": 50.704425,
    "lng": 3.198194,
    "transactions": [
      {
        "date": "2024-06-24",
        "priceEur": 125000,
        "typeLocal": "Maison",
        "surfaceM2": 80,
        "isVefa": false
      }
    ]
  },
  "4e8d8816a643": {
    "id": "4e8d8816a643",
    "label": "33 RUE DE LA VIGNE, Wattrelos",
    "lat": 50.702362,
    "lng": 3.204934,
    "transactions": [
      {
        "date": "2024-07-18",
        "priceEur": 158000,
        "typeLocal": "Maison",
        "surfaceM2": 79,
        "isVefa": false
      }
    ]
  },
  "2ac063bdc3aa": {
    "id": "2ac063bdc3aa",
    "label": "8 RUE GAMBETTA, Wattrelos",
    "lat": 50.70451,
    "lng": 3.202992,
    "transactions": [
      {
        "date": "2024-08-19",
        "priceEur": 74000,
        "typeLocal": "Maison",
        "surfaceM2": 67,
        "isVefa": false
      }
    ]
  },
  "3e03f92f1ff2": {
    "id": "3e03f92f1ff2",
    "label": "29 RUE ROYALE, Wattrelos",
    "lat": 50.707205,
    "lng": 3.203838,
    "transactions": [
      {
        "date": "2024-08-06",
        "priceEur": 124500,
        "typeLocal": "Maison",
        "surfaceM2": 40,
        "isVefa": false
      }
    ]
  },
  "edfd309cea7a": {
    "id": "edfd309cea7a",
    "label": "9 RUE C WEPPE CITE LEFEBVRE, Wattrelos",
    "lat": 50.705391,
    "lng": 3.200026,
    "transactions": [
      {
        "date": "2024-08-19",
        "priceEur": 97674,
        "typeLocal": "Maison",
        "surfaceM2": 84,
        "isVefa": false
      }
    ]
  },
  "e1f3c1966597": {
    "id": "e1f3c1966597",
    "label": "185 RUE HENRI BRIFFAUT, Wattrelos",
    "lat": 50.704422,
    "lng": 3.200565,
    "transactions": [
      {
        "date": "2024-09-02",
        "priceEur": 131480,
        "typeLocal": "Maison",
        "surfaceM2": 80,
        "isVefa": false
      }
    ]
  },
  "0136cd283274": {
    "id": "0136cd283274",
    "label": "13 RUE C CASTERMANT CR DELAPLACE, Wattrelos",
    "lat": 50.704389,
    "lng": 3.197226,
    "transactions": [
      {
        "date": "2024-08-23",
        "priceEur": 97000,
        "typeLocal": "Maison",
        "surfaceM2": 54,
        "isVefa": false
      }
    ]
  },
  "5ebabeb3497b": {
    "id": "5ebabeb3497b",
    "label": "9 RUE DE BETHUNE IMP BYTTEBIER, Wattrelos",
    "lat": 50.704003,
    "lng": 3.201998,
    "transactions": [
      {
        "date": "2024-09-10",
        "priceEur": 90000,
        "typeLocal": "Maison",
        "surfaceM2": 60,
        "isVefa": false
      }
    ]
  },
  "1d5eb43c90fe": {
    "id": "1d5eb43c90fe",
    "label": "60 RUE DU PETIT TOURNAI, Wattrelos",
    "lat": 50.707565,
    "lng": 3.203086,
    "transactions": [
      {
        "date": "2024-09-10",
        "priceEur": 120000,
        "typeLocal": "Maison",
        "surfaceM2": 81,
        "isVefa": false
      }
    ]
  },
  "3be3d65de6d3": {
    "id": "3be3d65de6d3",
    "label": "47 RUE DE LA BELLE PROMENADE, Wattrelos",
    "lat": 50.705581,
    "lng": 3.205996,
    "transactions": [
      {
        "date": "2024-09-09",
        "priceEur": 193000,
        "typeLocal": "Maison",
        "surfaceM2": 85,
        "isVefa": false
      }
    ]
  },
  "f8086ff1bd27": {
    "id": "f8086ff1bd27",
    "label": "45 RUE SAINT VINCENT DE PAUL, Wattrelos",
    "lat": 50.704643,
    "lng": 3.203754,
    "transactions": [
      {
        "date": "2024-09-10",
        "priceEur": 108000,
        "typeLocal": "Maison",
        "surfaceM2": 55,
        "isVefa": false
      }
    ]
  },
  "5e4233804601": {
    "id": "5e4233804601",
    "label": "26 RUE DE TOUL, Wattrelos",
    "lat": 50.706806,
    "lng": 3.201692,
    "transactions": [
      {
        "date": "2024-09-26",
        "priceEur": 130000,
        "typeLocal": "Maison",
        "surfaceM2": 81,
        "isVefa": false
      }
    ]
  },
  "6511175af8eb": {
    "id": "6511175af8eb",
    "label": "63 RUE CHARLES CASTERMANT, Wattrelos",
    "lat": 50.703696,
    "lng": 3.197324,
    "transactions": [
      {
        "date": "2024-10-07",
        "priceEur": 70000,
        "typeLocal": "Maison",
        "surfaceM2": 96,
        "isVefa": false
      }
    ]
  },
  "bdccf2e0aec6": {
    "id": "bdccf2e0aec6",
    "label": "29 RUE DE BETHUNE, Wattrelos",
    "lat": 50.703848,
    "lng": 3.200809,
    "transactions": [
      {
        "date": "2024-09-17",
        "priceEur": 126000,
        "typeLocal": "Maison",
        "surfaceM2": 72,
        "isVefa": false
      }
    ]
  },
  "a755b8341ea9": {
    "id": "a755b8341ea9",
    "label": "18 RUE DE CALAIS, Wattrelos",
    "lat": 50.704103,
    "lng": 3.200114,
    "transactions": [
      {
        "date": "2024-10-08",
        "priceEur": 117000,
        "typeLocal": "Maison",
        "surfaceM2": 92,
        "isVefa": false
      }
    ]
  },
  "b3f9765378c9": {
    "id": "b3f9765378c9",
    "label": "10 RUE ST VINCENT COUR BOURLET, Wattrelos",
    "lat": 50.70588,
    "lng": 3.203159,
    "transactions": [
      {
        "date": "2024-09-27",
        "priceEur": 130200,
        "typeLocal": "Maison",
        "surfaceM2": 71,
        "isVefa": false
      }
    ]
  },
  "8846bfe8d559": {
    "id": "8846bfe8d559",
    "label": "10 RUE MAXIME GORKI, Wattrelos",
    "lat": 50.70516,
    "lng": 3.207196,
    "transactions": [
      {
        "date": "2024-10-07",
        "priceEur": 190000,
        "typeLocal": "Maison",
        "surfaceM2": 88,
        "isVefa": false
      }
    ]
  },
  "5c68b71c0cdb": {
    "id": "5c68b71c0cdb",
    "label": "12 RUE CHARLES CASTERMANT, Wattrelos",
    "lat": 50.704697,
    "lng": 3.19877,
    "transactions": [
      {
        "date": "2024-10-17",
        "priceEur": 190000,
        "typeLocal": "Appartement",
        "surfaceM2": 46,
        "isVefa": false
      },
      {
        "date": "2024-10-17",
        "priceEur": 190000,
        "typeLocal": "Appartement",
        "surfaceM2": 30,
        "isVefa": false
      },
      {
        "date": "2024-10-17",
        "priceEur": 190000,
        "typeLocal": "Appartement",
        "surfaceM2": 45,
        "isVefa": false
      }
    ]
  },
  "4ce250e690e3": {
    "id": "4ce250e690e3",
    "label": "71 RUE FERDINAND BUISSON, Wattrelos",
    "lat": 50.707295,
    "lng": 3.206261,
    "transactions": [
      {
        "date": "2024-10-09",
        "priceEur": 190000,
        "typeLocal": "Maison",
        "surfaceM2": 106,
        "isVefa": false
      }
    ]
  },
  "50c101e94e6e": {
    "id": "50c101e94e6e",
    "label": "22 RUE DES DRAGONS, Wattrelos",
    "lat": 50.702279,
    "lng": 3.207364,
    "transactions": [
      {
        "date": "2024-09-16",
        "priceEur": 3435641.5,
        "typeLocal": "Maison",
        "surfaceM2": 87,
        "isVefa": false
      }
    ]
  },
  "3697b7394e2c": {
    "id": "3697b7394e2c",
    "label": "6 RUE FELIX FAURE, Wattrelos",
    "lat": 50.703902,
    "lng": 3.204137,
    "transactions": [
      {
        "date": "2024-10-31",
        "priceEur": 77000,
        "typeLocal": "Maison",
        "surfaceM2": 102,
        "isVefa": false
      }
    ]
  },
  "e9487755f702": {
    "id": "e9487755f702",
    "label": "14 RUE FELIX FAURE, Wattrelos",
    "lat": 50.703781,
    "lng": 3.203977,
    "transactions": [
      {
        "date": "2024-11-18",
        "priceEur": 115000,
        "typeLocal": "Maison",
        "surfaceM2": 70,
        "isVefa": false
      }
    ]
  },
  "ff46e61a1cc7": {
    "id": "ff46e61a1cc7",
    "label": "162 RUE DU COMMANDANT BOSSUT, Wattrelos",
    "lat": 50.702291,
    "lng": 3.198145,
    "transactions": [
      {
        "date": "2024-11-29",
        "priceEur": 266700,
        "typeLocal": "Maison",
        "surfaceM2": 80,
        "isVefa": false
      }
    ]
  },
  "cc70a9ca9328": {
    "id": "cc70a9ca9328",
    "label": "89 RUE SAINT VINCENT DE PAUL, Wattrelos",
    "lat": 50.705633,
    "lng": 3.202231,
    "transactions": [
      {
        "date": "2024-12-16",
        "priceEur": 148800,
        "typeLocal": "Maison",
        "surfaceM2": 96,
        "isVefa": false
      }
    ]
  },
  "c2e54e94b375": {
    "id": "c2e54e94b375",
    "label": "65 RUE DE TOUL, Wattrelos",
    "lat": 50.707282,
    "lng": 3.20024,
    "transactions": [
      {
        "date": "2024-11-29",
        "priceEur": 157000,
        "typeLocal": "Maison",
        "surfaceM2": 140,
        "isVefa": false
      }
    ]
  },
  "e2c380b60883": {
    "id": "e2c380b60883",
    "label": "79 RUE HENRI BRIFFAUT, Wattrelos",
    "lat": 50.70377,
    "lng": 3.205672,
    "transactions": [
      {
        "date": "2024-12-17",
        "priceEur": 90000,
        "typeLocal": "Maison",
        "surfaceM2": 82,
        "isVefa": false
      }
    ]
  },
  "cbff459e89c0": {
    "id": "cbff459e89c0",
    "label": "14 RUE C WEPPE CITE HENNION, Wattrelos",
    "lat": 50.706043,
    "lng": 3.200634,
    "transactions": [
      {
        "date": "2024-12-23",
        "priceEur": 94000,
        "typeLocal": "Maison",
        "surfaceM2": 58,
        "isVefa": false
      }
    ]
  },
  "a85edffcbb67": {
    "id": "a85edffcbb67",
    "label": "20 RUE C WEPPE CITE LEFEBVRE, Wattrelos",
    "lat": 50.705541,
    "lng": 3.200483,
    "transactions": [
      {
        "date": "2025-01-10",
        "priceEur": 82000,
        "typeLocal": "Maison",
        "surfaceM2": 52,
        "isVefa": false
      }
    ]
  },
  "a17414732bcc": {
    "id": "a17414732bcc",
    "label": "1 RUE DES TROIS COULEURS, Wattrelos",
    "lat": 50.704242,
    "lng": 3.198792,
    "transactions": [
      {
        "date": "2025-01-07",
        "priceEur": 85000,
        "typeLocal": "Maison",
        "surfaceM2": 63,
        "isVefa": false
      }
    ]
  },
  "c727b9470c77": {
    "id": "c727b9470c77",
    "label": "21A RUE WATTEAU, Wattrelos",
    "lat": 50.70464,
    "lng": 3.197319,
    "transactions": [
      {
        "date": "2025-01-17",
        "priceEur": 217000,
        "typeLocal": "Maison",
        "surfaceM2": 83,
        "isVefa": false
      },
      {
        "date": "2025-01-17",
        "priceEur": 217000,
        "typeLocal": "Maison",
        "surfaceM2": 97,
        "isVefa": false
      }
    ]
  },
  "dc72055c0004": {
    "id": "dc72055c0004",
    "label": "81 RUE ALBERT D HONDT, Wattrelos",
    "lat": 50.705121,
    "lng": 3.205592,
    "transactions": [
      {
        "date": "2025-01-17",
        "priceEur": 147500,
        "typeLocal": "Maison",
        "surfaceM2": 84,
        "isVefa": false
      }
    ]
  },
  "5b84e15c17a3": {
    "id": "5b84e15c17a3",
    "label": "12 RUE GAMBETTA, Wattrelos",
    "lat": 50.704524,
    "lng": 3.203148,
    "transactions": [
      {
        "date": "2025-02-03",
        "priceEur": 117000,
        "typeLocal": "Maison",
        "surfaceM2": 67,
        "isVefa": false
      }
    ]
  },
  "b3b6c0ef61fa": {
    "id": "b3b6c0ef61fa",
    "label": "29 RUE BOIELDIEU, Wattrelos",
    "lat": 50.704522,
    "lng": 3.198048,
    "transactions": [
      {
        "date": "2025-01-31",
        "priceEur": 80000,
        "typeLocal": "Maison",
        "surfaceM2": 60,
        "isVefa": false
      }
    ]
  },