{
  "b8f6f02a706c": {
    "id": "b8f6f02a706c",
    "label": "98 RUE CAMILLE DUFAY, Anstaing",
    "lat": 50.602272,
    "lng": 3.19715,
    "transactions": [
      {
        "date": "2020-07-10",
        "priceEur": 372000,
        "typeLocal": "Maison",
        "surfaceM2": 120,
        "isVefa": false
      }
    ]
  },
  "8127719ee110": {
    "id": "8127719ee110",
    "label": "20 RUE DES BUISSONS, Gruson",
    "lat": 50.597344,
    "lng": 3.202044,
    "transactions": [
      {
        "date": "2020-11-30",
        "priceEur": 248000,
        "typeLocal": "Maison",
        "surfaceM2": 95,
        "isVefa": false
      }
    ]
  },
  "1331664782a2": {
    "id": "1331664782a2",
    "label": "19 RUE DU MARECHAL LECLERC, Gruson",
    "lat": 50.598151,
    "lng": 3.201034,
    "transactions": [
      {
        "date": "2021-07-16",
        "priceEur": 369000,
        "typeLocal": "Maison",
        "surfaceM2": 72,
        "isVefa": false
      }
    ]
  },
  "bdd4b590b79a": {
    "id": "bdd4b590b79a",
    "label": "5 RES LES ERABLES, Gruson",
    "lat": 50.59752,
    "lng": 3.205377,
    "transactions": [
      {
        "date": "2021-08-18",
        "priceEur": 648000,
        "typeLocal": "Maison",
        "surfaceM2": 165,
        "isVefa": false
      }
    ]
  },
  "f89233b76d08": {
    "id": "f89233b76d08",
    "label": "15 RUE DES LUPINS, Gruson",
    "lat": 50.597943,
    "lng": 3.207884,
    "transactions": [
      {
        "date": "2021-10-01",
        "priceEur": 557000,
        "typeLocal": "Maison",
        "surfaceM2": 140,
        "isVefa": false
      }
    ]
  },
  "20c16108c5b4": {
    "id": "20c16108c5b4",
    "label": "7 RUE DU MARECHAL LECLERC, Gruson",
    "lat": 50.597608,
    "lng": 3.201618,
    "transactions": [
      {
        "date": "2021-10-01",
        "priceEur": 540000,
        "typeLocal": "Maison",
        "surfaceM2": 145,
        "isVefa": false
      }
    ]
  },
  "e2755fbf3449": {
    "id": "e2755fbf3449",
    "label": "4 RUE DES BOULEAUX, Gruson",
    "lat": 50.597722,
    "lng": 3.20622,
    "transactions": [
      {
        "date": "2021-11-15",
        "priceEur": 775000,
        "typeLocal": "Maison",
        "surfaceM2": 208,
        "isVefa": false
      }
    ]
  },
  "c62d78352c5f": {
    "id": "c62d78352c5f",
    "label": "23 RUE PASTEUR, Gruson",
    "lat": 50.598341,
    "lng": 3.203992,
    "transactions": [
      {
        "date": "2022-03-11",
        "priceEur": 470000,
        "typeLocal": "Maison",
        "surfaceM2": 108,
        "isVefa": false
      }
    ]
  },
  "f808d7e31181": {
    "id": "f808d7e31181",
    "label": "35 RUE CAMILLE DUFAY, Anstaing",
    "lat": 50.60235,
    "lng": 3.197751,
    "transactions": [
      {
        "date": "2022-06-29",
        "priceEur": 260000,
        "typeLocal": "Maison",
        "surfaceM2": 63,
        "isVefa": false
      }
    ]
  },
  "21d1299239d4": {
    "id": "21d1299239d4",
    "label": "39A RUE CAMILLE DUFAY, Anstaing",
    "lat": 50.602019,
    "lng": 3.199442,
    "transactions": [
      {
        "date": "2023-01-16",
        "priceEur": 475000,
        "typeLocal": "Maison",
        "surfaceM2": 212,
        "isVefa": false
      }
    ]
  },
  "9c3b893dec01": {
    "id": "9c3b893dec01",
    "label": "102 RUE CAMILLE DUFAY, Anstaing",
    "lat": 50.602088,
    "lng": 3.197955,
    "transactions": [
      {
        "date": "2023-01-09",
        "priceEur": 278000,
        "typeLocal": "Maison",
        "surfaceM2": 77,
        "isVefa": false
      }
    ]
  },
  "288befb25b22": {
    "id": "288befb25b22",
    "label": "11 RUE DU MARECHAL LECLERC, Gruson",
    "lat": 50.597787,
    "lng": 3.20131,
    "transactions": [
      {
        "date": "2023-09-22",
        "priceEur": 235850,
        "typeLocal": "Maison",
        "surfaceM2": 100,
        "isVefa": false
      }
    ]
  },
  "5e1565d619b9": {
    "id": "5e1565d619b9",
    "label": "23 RUE DU MARECHAL LECLERC, Gruson",
    "lat": 50.598394,
    "lng": 3.20099,
    "transactions": [
      {
        "date": "2023-12-20",
        "priceEur": 378000,
        "typeLocal": "Maison",
        "surfaceM2": 146,
        "isVefa": false
      }
    ]
  },
  "6b02df53674c": {
    "id": "6b02df53674c",
    "label": "43 RUE CAMILLE DUFAY, Anstaing",
    "lat": 50.601686,
    "lng": 3.19996,
    "transactions": [
      {
        "date": "2024-06-12",
        "priceEur": 620000,
        "typeLocal": "Maison",
        "surfaceM2": 224,
        "isVefa": false
      }
    ]
  },
  "900a51b68eb6": {
    "id": "900a51b68eb6",
    "label": "9 RUE DES BOULEAUX, Gruson",
    "lat": 50.598395,
    "lng": 3.205231,
    "transactions": [
      {
        "date": "2025-03-21",
        "priceEur": 673340,
        "typeLocal": "Maison",
        "surfaceM2": 169,
        "isVefa": false
      }
    ]
  },
  "7fd8f120f3bf": {
    "id": "7fd8f120f3bf",
    "label": "28 RUE DES BUISSONS, Gruson",
    "lat": 50.597306,
    "lng": 3.201289,
    "transactions": [
      {
        "date": "2025-04-24",
        "priceEur": 325000,
        "typeLocal": "Maison",
        "surfaceM2": 105,
        "isVefa": false
      }
    ]
  },
  "cc6c9265c298": {
    "id": "cc6c9265c298",
    "label": "1 CLOS DU ROMARIN, Gruson",
    "lat": 50.59816,
    "lng": 3.206834,
    "transactions": [
      {
        "date": "2025-06-10",
        "priceEur": 775000,
        "typeLocal": "Maison",
        "surfaceM2": 159,
        "isVefa": false
      }
    ]
  }
}