{
  "28a3c0805fa2": {
    "id": "28a3c0805fa2",
    "label": "12 RUE DU PECH DES MOULINS, Béziers",
    "lat": 43.346544,
    "lng": 3.207114,
    "transactions": [
      {
        "date": "2020-09-25",
        "priceEur": 278350,
        "typeLocal": "Maison",
        "surfaceM2": 213,
        "isVefa": false
      }
    ]
  },
  "27a48c18d5da": {
    "id": "27a48c18d5da",
    "label": "9138F REBAUT LE BAS, Béziers",
    "lat": 43.344131,
    "lng": 3.205413,
    "transactions": [
      {
        "date": "2020-12-23",
        "priceEur": 35000,
        "typeLocal": "Maison",
        "surfaceM2": 75,
        "isVefa": false
      }
    ]
  },
  "281ae9ccfdc6": {
    "id": "281ae9ccfdc6",
    "label": "9030F REBAUT LE BAS, Béziers",
    "lat": 43.344366,
    "lng": 3.200702,
    "transactions": [
      {
        "date": "2021-01-13",
        "priceEur": 22000,
        "typeLocal": "Maison",
        "surfaceM2": 30,
        "isVefa": false
      }
    ]
  },
  "c680cd6426cd": {
    "id": "c680cd6426cd",
    "label": "2 RUE DU CYGNE, Béziers",
    "lat": 43.347416,
    "lng": 3.207749,
    "transactions": [
      {
        "date": "2021-02-17",
        "priceEur": 252000,
        "typeLocal": "Maison",
        "surfaceM2": 60,
        "isVefa": false
      }
    ]
  },
  "8ed0d2c20681": {
    "id": "8ed0d2c20681",
    "label": "4 RUE DU PECH DES MOULINS, Béziers",
    "lat": 43.345802,
    "lng": 3.207708,
    "transactions": [
      {
        "date": "2021-03-05",
        "priceEur": 100000,
        "typeLocal": "Maison",
        "surfaceM2": 55,
        "isVefa": false
      }
    ]
  },
  "c00c04b4626a": {
    "id": "c00c04b4626a",
    "label": "21 RUE JEAN LOUIS FORAIN, Béziers",
    "lat": 43.349054,
    "lng": 3.207044,
    "transactions": [
      {
        "date": "2021-03-16",
        "priceEur": 166500,
        "typeLocal": "Maison",
        "surfaceM2": 68,
        "isVefa": false
      }
    ]
  },
  "1fcbb8e266e0": {
    "id": "1fcbb8e266e0",
    "label": "9002 RUE JEAN LOUIS FORAIN, Béziers",
    "lat": 43.348583,
    "lng": 3.207475,
    "transactions": [
      {
        "date": "2025-04-30",
        "priceEur": 150000,
        "typeLocal": "Maison",
        "surfaceM2": 68,
        "isVefa": false
      },
      {
        "date": "2021-05-03",
        "priceEur": 180000,
        "typeLocal": "Maison",
        "surfaceM2": 68,
        "isVefa": false
      }
    ]
  },
  "f86a2a0ce73f": {
    "id": "f86a2a0ce73f",
    "label": "39 RUE DES RAMIERS, Béziers",
    "lat": 43.347211,
    "lng": 3.207177,
    "transactions": [
      {
        "date": "2021-08-04",
        "priceEur": 220000,
        "typeLocal": "Maison",
        "surfaceM2": 72,
        "isVefa": false
      }
    ]
  },
  "01e83dbd43ac": {
    "id": "01e83dbd43ac",
    "label": "9027F REBAUT LE BAS, Béziers",
    "lat": 43.343839,
    "lng": 3.201876,
    "transactions": [
      {
        "date": "2021-11-19",
        "priceEur": 148220,
        "typeLocal": "Maison",
        "surfaceM2": 49,
        "isVefa": false
      }
    ]
  },
  "72d29c5777d2": {
    "id": "72d29c5777d2",
    "label": "5 RUE JEAN LOUIS FORAIN, Béziers",
    "lat": 43.347863,
    "lng": 3.2066,
    "transactions": [
      {
        "date": "2022-04-14",
        "priceEur": 260000,
        "typeLocal": "Maison",
        "surfaceM2": 89,
        "isVefa": false
      }
    ]
  },
  "fd3a85400ef5": {
    "id": "fd3a85400ef5",
    "label": "686 CR BEZIERS REBAUT BAS CR 103, Béziers",
    "lat": 43.346203,
    "lng": 3.20397,
    "transactions": [
      {
        "date": "2022-05-23",
        "priceEur": 291810,
        "typeLocal": "Maison",
        "surfaceM2": 90,
        "isVefa": false
      }
    ]
  },
  "921ee3131f01": {
    "id": "921ee3131f01",
    "label": "70 RTE DE MURVIEL, Béziers",
    "lat": 43.347876,
    "lng": 3.205194,
    "transactions": [
      {
        "date": "2022-07-15",
        "priceEur": 370000,
        "typeLocal": "Maison",
        "surfaceM2": 206,
        "isVefa": false
      }
    ]
  },
  "358f222fa64e": {
    "id": "358f222fa64e",
    "label": "58 RTE DE MURVIEL, Béziers",
    "lat": 43.347036,
    "lng": 3.205971,
    "transactions": [
      {
        "date": "2022-07-04",
        "priceEur": 195000,
        "typeLocal": "Appartement",
        "surfaceM2": 36,
        "isVefa": false
      },
      {
        "date": "2022-07-04",
        "priceEur": 195000,
        "typeLocal": "Appartement",
        "surfaceM2": 65,
        "isVefa": false
      },
      {
        "date": "2022-07-04",
        "priceEur": 195000,
        "typeLocal": "Appartement",
        "surfaceM2": 22,
        "isVefa": false
      }
    ]
  },
  "7a6ec65db336": {
    "id": "7a6ec65db336",
    "label": "9112F REBAUT LE BAS, Béziers",
    "lat": 43.343588,
    "lng": 3.206298,
    "transactions": [
      {
        "date": "2022-09-09",
        "priceEur": 6000,
        "typeLocal": "Maison",
        "surfaceM2": 38,
        "isVefa": false
      },
      {
        "date": "2022-09-09",
        "priceEur": 6000,
        "typeLocal": "Maison",
        "surfaceM2": 45,
        "isVefa": false
      }
    ]
  },
  "8febcb3ab941": {
    "id": "8febcb3ab941",
    "label": "15 RUE JEAN SOULAIROL, Béziers",
    "lat": 43.347863,
    "lng": 3.2066,
    "transactions": [
      {
        "date": "2022-10-06",
        "priceEur": 235000,
        "typeLocal": "Maison",
        "surfaceM2": 82,
        "isVefa": false
      }
    ]
  },
  "f04e651fc6b5": {
    "id": "f04e651fc6b5",
    "label": "9001 RUE JEAN LOUIS FORAIN, Béziers",
    "lat": 43.349054,
    "lng": 3.207044,
    "transactions": [
      {
        "date": "2023-03-13",
        "priceEur": 172000,
        "typeLocal": "Maison",
        "surfaceM2": 68,
        "isVefa": false
      },
      {
        "date": "2022-11-07",
        "priceEur": 222500,
        "typeLocal": "Maison",
        "surfaceM2": 92,
        "isVefa": false
      }
    ]
  },
  "3aef0d61dd8b": {
    "id": "3aef0d61dd8b",
    "label": "29 RUE DES RAMIERS, Béziers",
    "lat": 43.346874,
    "lng": 3.207575,
    "transactions": [
      {
        "date": "2024-02-05",
        "priceEur": 155000,
        "typeLocal": "Maison",
        "surfaceM2": 46,
        "isVefa": false
      }
    ]
  }
}