{
  "786deba3d0ba": {
    "id": "786deba3d0ba",
    "label": "2 RUE DE BRUXELLES, Cambrai",
    "lat": 50.162815,
    "lng": 3.263455,
    "transactions": [
      {
        "date": "2021-03-24",
        "priceEur": 110000,
        "typeLocal": "Maison",
        "surfaceM2": 82,
        "isVefa": false
      }
    ]
  },
  "abe3aa921375": {
    "id": "abe3aa921375",
    "label": "25 PL DU LUXEMBOURG, Cambrai",
    "lat": 50.16227,
    "lng": 3.263931,
    "transactions": [
      {
        "date": "2021-04-22",
        "priceEur": 83000,
        "typeLocal": "Maison",
        "surfaceM2": 102,
        "isVefa": false
      }
    ]
  },
  "26b8880ffb96": {
    "id": "26b8880ffb96",
    "label": "6 RUE DES VOSGES, Cambrai",
    "lat": 50.157448,
    "lng": 3.264535,
    "transactions": [
      {
        "date": "2021-06-18",
        "priceEur": 143500,
        "typeLocal": "Maison",
        "surfaceM2": 105,
        "isVefa": false
      }
    ]
  },
  "6c2a030c0c07": {
    "id": "6c2a030c0c07",
    "label": "4 RUE DES PYRENEES, Cambrai",
    "lat": 50.157167,
    "lng": 3.266417,
    "transactions": [
      {
        "date": "2021-10-11",
        "priceEur": 168000,
        "typeLocal": "Maison",
        "surfaceM2": 113,
        "isVefa": false
      }
    ]
  },
  "b410d785e1ad": {
    "id": "b410d785e1ad",
    "label": "15 RUE ROBERT SCHUMAN, Cambrai",
    "lat": 50.15688,
    "lng": 3.262948,
    "transactions": [
      {
        "date": "2021-12-09",
        "priceEur": 65000,
        "typeLocal": "Maison",
        "surfaceM2": 64,
        "isVefa": false
      }
    ]
  },
  "e7ec9f4091b3": {
    "id": "e7ec9f4091b3",
    "label": "27 PL DU LUXEMBOURG, Cambrai",
    "lat": 50.162199,
    "lng": 3.264044,
    "transactions": [
      {
        "date": "2021-12-15",
        "priceEur": 131990,
        "typeLocal": "Maison",
        "surfaceM2": 82,
        "isVefa": false
      }
    ]
  },
  "5ff762eaba3f": {
    "id": "5ff762eaba3f",
    "label": "20 RUE DES VOSGES, Cambrai",
    "lat": 50.157772,
    "lng": 3.263788,
    "transactions": [
      {
        "date": "2022-03-02",
        "priceEur": 110565,
        "typeLocal": "Maison",
        "surfaceM2": 89,
        "isVefa": false
      }
    ]
  },
  "f63dea9759f1": {
    "id": "f63dea9759f1",
    "label": "7 RUE DU JURA, Cambrai",
    "lat": 50.15765,
    "lng": 3.264423,
    "transactions": [
      {
        "date": "2022-07-08",
        "priceEur": 165000,
        "typeLocal": "Maison",
        "surfaceM2": 115,
        "isVefa": false
      }
    ]
  },
  "62d7b4b3b748": {
    "id": "62d7b4b3b748",
    "label": "4 RUE DU JURA, Cambrai",
    "lat": 50.158016,
    "lng": 3.264668,
    "transactions": [
      {
        "date": "2022-07-13",
        "priceEur": 143000,
        "typeLocal": "Maison",
        "surfaceM2": 89,
        "isVefa": false
      }
    ]
  },
  "92a6c1df55f1": {
    "id": "92a6c1df55f1",
    "label": "18 RUE DES ALPES, Cambrai",
    "lat": 50.155949,
    "lng": 3.264571,
    "transactions": [
      {
        "date": "2022-09-27",
        "priceEur": 135000,
        "typeLocal": "Maison",
        "surfaceM2": 89,
        "isVefa": false
      }
    ]
  },
  "93091f0a3e9d": {
    "id": "93091f0a3e9d",
    "label": "13A RUE DES VOSGES, Cambrai",
    "lat": 50.157168,
    "lng": 3.263808,
    "transactions": [
      {
        "date": "2023-06-20",
        "priceEur": 117000,
        "typeLocal": "Maison",
        "surfaceM2": 89,
        "isVefa": false
      }
    ]
  },
  "abb0e67947a3": {
    "id": "abb0e67947a3",
    "label": "5 RUE DES VOSGES, Cambrai",
    "lat": 50.157006,
    "lng": 3.264655,
    "transactions": [
      {
        "date": "2023-11-02",
        "priceEur": 135920,
        "typeLocal": "Maison",
        "surfaceM2": 89,
        "isVefa": false
      }
    ]
  },
  "55b4f31f7666": {
    "id": "55b4f31f7666",
    "label": "40 RUE DE VIENNE, Cambrai",
    "lat": 50.162549,
    "lng": 3.264787,
    "transactions": [
      {
        "date": "2023-11-06",
        "priceEur": 77000,
        "typeLocal": "Maison",
        "surfaceM2": 82,
        "isVefa": false
      }
    ]
  },
  "6c323060852e": {
    "id": "6c323060852e",
    "label": "69 RUE DE MOSCOU, Cambrai",
    "lat": 50.161128,
    "lng": 3.263276,
    "transactions": [
      {
        "date": "2024-01-19",
        "priceEur": 80000,
        "typeLocal": "Maison",
        "surfaceM2": 82,
        "isVefa": false
      }
    ]
  },
  "462dc7aba6e5": {
    "id": "462dc7aba6e5",
    "label": "37 RUE DE VIENNE, Cambrai",
    "lat": 50.162805,
    "lng": 3.265764,
    "transactions": [
      {
        "date": "2024-02-23",
        "priceEur": 70000,
        "typeLocal": "Maison",
        "surfaceM2": 99,
        "isVefa": false
      }
    ]
  },
  "b0581bcb5ba1": {
    "id": "b0581bcb5ba1",
    "label": "24 RUE ROBERT SCHUMAN, Cambrai",
    "lat": 50.156192,
    "lng": 3.262989,
    "transactions": [
      {
        "date": "2024-03-01",
        "priceEur": 70400,
        "typeLocal": "Maison",
        "surfaceM2": 64,
        "isVefa": false
      }
    ]
  },
  "c56076fcf417": {
    "id": "c56076fcf417",
    "label": "10 RUE DES ALPES, Cambrai",
    "lat": 50.156346,
    "lng": 3.264761,
    "transactions": [
      {
        "date": "2024-05-16",
        "priceEur": 116300,
        "typeLocal": "Maison",
        "surfaceM2": 89,
        "isVefa": false
      }
    ]
  },
  "9719641f9e0a": {
    "id": "9719641f9e0a",
    "label": "23 RUE DES ALPES, Cambrai",
    "lat": 50.156762,
    "lng": 3.265068,
    "transactions": [
      {
        "date": "2024-09-17",
        "priceEur": 120300,
        "typeLocal": "Maison",
        "surfaceM2": 89,
        "isVefa": false
      }
    ]
  },
  "8cb5990784ae": {
    "id": "8cb5990784ae",
    "label": "19 RUE DES PYRENEES, Cambrai",
    "lat": 50.156828,
    "lng": 3.266781,
    "transactions": [
      {
        "date": "2024-10-08",
        "priceEur": 180000,
        "typeLocal": "Maison",
        "surfaceM2": 100,
        "isVefa": false
      }
    ]
  },
  "68f476716312": {
    "id": "68f476716312",
    "label": "16 RUE D OSLO, Cambrai",
    "lat": 50.162558,
    "lng": 3.264205,
    "transactions": [
      {
        "date": "2024-11-23",
        "priceEur": 140500,
        "typeLocal": "Maison",
        "surfaceM2": 98,
        "isVefa": false
      }
    ]
  },
  "c1d013fa43df": {
    "id": "c1d013fa43df",
    "label": "14 RUE DES ALPES, Cambrai",
    "lat": 50.156191,
    "lng": 3.264785,
    "transactions": [
      {
        "date": "2024-12-09",
        "priceEur": 152050,
        "typeLocal": "Maison",
        "surfaceM2": 125,
        "isVefa": false
      }
    ]
  },
  "05846954e1da": {
    "id": "05846954e1da",
    "label": "2 RUE DE BERNE, Cambrai",
    "lat": 50.161461,
    "lng": 3.263047,
    "transactions": [
      {
        "date": "2024-12-12",
        "priceEur": 97000,
        "typeLocal": "Maison",
        "surfaceM2": 95,
        "isVefa": false
      }
    ]
  },
  "1c91f93561c1": {
    "id": "1c91f93561c1",
    "label": "10 PL DU LUXEMBOURG, Cambrai",
    "lat": 50.161728,
    "lng": 3.26315,
    "transactions": [
      {
        "date": "2025-01-09",
        "priceEur": 85000,
        "typeLocal": "Maison",
        "surfaceM2": 104,
        "isVefa": false
      }
    ]
  }
}