{
  "bea873c7f77c": {
    "id": "bea873c7f77c",
    "label": "42 RUE DE FOURNES, Beaucamps-Ligny",
    "lat": 50.602871,
    "lng": 2.91203,
    "transactions": [
      {
        "date": "2020-09-28",
        "priceEur": 343000,
        "typeLocal": "Maison",
        "surfaceM2": 125,
        "isVefa": false
      }
    ]
  },
  "77f179beb7e1": {
    "id": "77f179beb7e1",
    "label": "14B RUE DE FOURNES, Beaucamps-Ligny",
    "lat": 50.603889,
    "lng": 2.914872,
    "transactions": [
      {
        "date": "2020-11-19",
        "priceEur": 270000,
        "typeLocal": "Maison",
        "surfaceM2": 121,
        "isVefa": false
      }
    ]
  },
  "74ee6f39ca30": {
    "id": "74ee6f39ca30",
    "label": "14T RUE DE FOURNES, Beaucamps-Ligny",
    "lat": 50.603936,
    "lng": 2.914989,
    "transactions": [
      {
        "date": "2021-04-01",
        "priceEur": 220000,
        "typeLocal": "Maison",
        "surfaceM2": 108,
        "isVefa": false
      }
    ]
  },
  "31159d3ac1d7": {
    "id": "31159d3ac1d7",
    "label": "22 RUE DE L EGLISE, Beaucamps-Ligny",
    "lat": 50.604133,
    "lng": 2.918289,
    "transactions": [
      {
        "date": "2021-08-17",
        "priceEur": 337700,
        "typeLocal": "Maison",
        "surfaceM2": 99,
        "isVefa": false
      }
    ]
  },
  "c772a8c29d39": {
    "id": "c772a8c29d39",
    "label": "14 RUE DU VIEUX MOULIN, Beaucamps-Ligny",
    "lat": 50.603497,
    "lng": 2.914878,
    "transactions": [
      {
        "date": "2021-12-06",
        "priceEur": 169000,
        "typeLocal": "Appartement",
        "surfaceM2": 47,
        "isVefa": false
      }
    ]
  },
  "d86c3a11d851": {
    "id": "d86c3a11d851",
    "label": "36 RUE DE FOURNES, Beaucamps-Ligny",
    "lat": 50.603015,
    "lng": 2.91242,
    "transactions": [
      {
        "date": "2022-11-30",
        "priceEur": 484000,
        "typeLocal": "Maison",
        "surfaceM2": 137,
        "isVefa": false
      }
    ]
  },
  "9e18df0ec5cd": {
    "id": "9e18df0ec5cd",
    "label": "24 RUE DE FOURNES, Beaucamps-Ligny",
    "lat": 50.603849,
    "lng": 2.913824,
    "transactions": [
      {
        "date": "2023-01-23",
        "priceEur": 768550,
        "typeLocal": "Maison",
        "surfaceM2": 210,
        "isVefa": false
      }
    ]
  },
  "772c73f7ffdd": {
    "id": "772c73f7ffdd",
    "label": "46 RUE DE FOURNES, Beaucamps-Ligny",
    "lat": 50.602657,
    "lng": 2.911426,
    "transactions": [
      {
        "date": "2023-01-31",
        "priceEur": 616515,
        "typeLocal": "Maison",
        "surfaceM2": 138,
        "isVefa": false
      }
    ]
  },
  "ef1dfbdcfed9": {
    "id": "ef1dfbdcfed9",
    "label": "26 RUE MARCELLIN CHAMPAGNAT, Beaucamps-Ligny",
    "lat": 50.600014,
    "lng": 2.921641,
    "transactions": [
      {
        "date": "2025-01-27",
        "priceEur": 497000,
        "typeLocal": "Maison",
        "surfaceM2": 148,
        "isVefa": false
      }
    ]
  },
  "2cb3306ce0d1": {
    "id": "2cb3306ce0d1",
    "label": "7 RUE DU VIEUX MOULIN, Beaucamps-Ligny",
    "lat": 50.603139,
    "lng": 2.914448,
    "transactions": [
      {
        "date": "2025-06-20",
        "priceEur": 333000,
        "typeLocal": "Maison",
        "surfaceM2": 91,
        "isVefa": false
      }
    ]
  }
}