{
  "045e817263e3": {
    "id": "045e817263e3",
    "label": "6 RTE DE CLERMONT, Villeveyrac",
    "lat": 43.499817,
    "lng": 3.605538,
    "transactions": [
      {
        "date": "2020-07-06",
        "priceEur": 117000,
        "typeLocal": "Appartement",
        "surfaceM2": 73,
        "isVefa": false
      }
    ]
  },
  "25f3914efda5": {
    "id": "25f3914efda5",
    "label": "146 CHE DU REC, Villeveyrac",
    "lat": 43.498798,
    "lng": 3.612445,
    "transactions": [
      {
        "date": "2020-07-08",
        "priceEur": 125000,
        "typeLocal": "Maison",
        "surfaceM2": 121,
        "isVefa": false
      },
      {
        "date": "2020-07-08",
        "priceEur": 125000,
        "typeLocal": "Maison",
        "surfaceM2": 121,
        "isVefa": false
      }
    ]
  },
  "f6d9dbdced2e": {
    "id": "f6d9dbdced2e",
    "label": "42 RUE TURENNE, Villeveyrac",
    "lat": 43.500723,
    "lng": 3.607187,
    "transactions": [
      {
        "date": "2025-01-03",
        "priceEur": 231780,
        "typeLocal": "Maison",
        "surfaceM2": 106,
        "isVefa": false
      },
      {
        "date": "2025-01-03",
        "priceEur": 231780,
        "typeLocal": "Appartement",
        "surfaceM2": 23,
        "isVefa": false
      },
      {
        "date": "2022-06-03",
        "priceEur": 197000,
        "typeLocal": "Appartement",
        "surfaceM2": 23,
        "isVefa": false
      },
      {
        "date": "2022-06-03",
        "priceEur": 197000,
        "typeLocal": "Maison",
        "surfaceM2": 106,
        "isVefa": false
      },
      {
        "date": "2020-07-09",
        "priceEur": 185000,
        "typeLocal": "Maison",
        "surfaceM2": 106,
        "isVefa": false
      },
      {
        "date": "2020-07-09",
        "priceEur": 185000,
        "typeLocal": "Appartement",
        "surfaceM2": 23,
        "isVefa": false
      }
    ]
  },
  "5c6e225b7771": {
    "id": "5c6e225b7771",
    "label": "180 CHEM DE LA ROQUE, Villeveyrac",
    "lat": 43.496416,
    "lng": 3.610159,
    "transactions": [
      {
        "date": "2020-09-22",
        "priceEur": 268680,
        "typeLocal": "Maison",
        "surfaceM2": 95,
        "isVefa": false
      },
      {
        "date": "2020-09-22",
        "priceEur": 268680,
        "typeLocal": "Maison",
        "surfaceM2": 95,
        "isVefa": false
      }
    ]
  },
  "26f1cd261ed4": {
    "id": "26f1cd261ed4",
    "label": "10 RUE DES AMANDIERS, Villeveyrac",
    "lat": 43.500111,
    "lng": 3.607525,
    "transactions": [
      {
        "date": "2022-07-27",
        "priceEur": 201500,
        "typeLocal": "Maison",
        "surfaceM2": 62,
        "isVefa": false
      },
      {
        "date": "2020-09-25",
        "priceEur": 165000,
        "typeLocal": "Maison",
        "surfaceM2": 62,
        "isVefa": false
      }
    ]
  },
  "fed497007aea": {
    "id": "fed497007aea",
    "label": "5615 LE VILLAGE, Villeveyrac",
    "lat": 43.499945,
    "lng": 3.604891,
    "transactions": [
      {
        "date": "2020-10-13",
        "priceEur": 128000,
        "typeLocal": "Maison",
        "surfaceM2": 100,
        "isVefa": false
      }
    ]
  },
  "de4a8e188ab0": {
    "id": "de4a8e188ab0",
    "label": "16 RUE DU CHATEAU, Villeveyrac",
    "lat": 43.500378,
    "lng": 3.608305,
    "transactions": [
      {
        "date": "2023-05-13",
        "priceEur": 209800,
        "typeLocal": "Maison",
        "surfaceM2": 76,
        "isVefa": false
      },
      {
        "date": "2020-10-13",
        "priceEur": 181320,
        "typeLocal": "Maison",
        "surfaceM2": 76,
        "isVefa": false
      }
    ]
  },
  "a00f397cf551": {
    "id": "a00f397cf551",
    "label": "145 CHEM DE LA ROQUE, Villeveyrac",
    "lat": 43.49676,
    "lng": 3.611407,
    "transactions": [
      {
        "date": "2020-10-19",
        "priceEur": 257000,
        "typeLocal": "Maison",
        "surfaceM2": 99,
        "isVefa": false
      }
    ]
  },
  "3bc7e1b320d9": {
    "id": "3bc7e1b320d9",
    "label": "21 RUE DU CHATEAU, Villeveyrac",
    "lat": 43.500256,
    "lng": 3.608291,
    "transactions": [
      {
        "date": "2020-11-09",
        "priceEur": 145000,
        "typeLocal": "Maison",
        "surfaceM2": 98,
        "isVefa": false
      }
    ]
  },
  "6897e494e74f": {
    "id": "6897e494e74f",
    "label": "5035 LE VILLAGE, Villeveyrac",
    "lat": 43.50051,
    "lng": 3.60732,
    "transactions": [
      {
        "date": "2021-07-06",
        "priceEur": 82000,
        "typeLocal": "Maison",
        "surfaceM2": 75,
        "isVefa": false
      },
      {
        "date": "2020-11-27",
        "priceEur": 65000,
        "typeLocal": "Maison",
        "surfaceM2": 75,
        "isVefa": false
      }
    ]
  },
  "40b870383cbf": {
    "id": "40b870383cbf",
    "label": "20 RUE DE LA GLORIETTE, Villeveyrac",
    "lat": 43.498935,
    "lng": 3.604558,
    "transactions": [
      {
        "date": "2021-02-12",
        "priceEur": 235000,
        "typeLocal": "Maison",
        "surfaceM2": 89,
        "isVefa": false
      }
    ]
  },
  "fa8f34cc5588": {
    "id": "fa8f34cc5588",
    "label": "6 RTE DE LA GARE, Villeveyrac",
    "lat": 43.499963,
    "lng": 3.60946,
    "transactions": [
      {
        "date": "2021-02-12",
        "priceEur": 400000,
        "typeLocal": "Maison",
        "surfaceM2": 105,
        "isVefa": false
      },
      {
        "date": "2021-02-12",
        "priceEur": 400000,
        "typeLocal": "Maison",
        "surfaceM2": 105,
        "isVefa": false
      }
    ]
  },
  "fb0d22196e82": {
    "id": "fb0d22196e82",
    "label": "8 RUE DES CASERNES, Villeveyrac",
    "lat": 43.500665,
    "lng": 3.608502,
    "transactions": [
      {
        "date": "2023-02-28",
        "priceEur": 291150,
        "typeLocal": "Maison",
        "surfaceM2": 64,
        "isVefa": false
      },
      {
        "date": "2021-02-11",
        "priceEur": 193900,
        "typeLocal": "Maison",
        "surfaceM2": 64,
        "isVefa": false
      }
    ]
  },
  "60fca27e9a40": {
    "id": "60fca27e9a40",
    "label": "5114 LE VILLAGE, Villeveyrac",
    "lat": 43.49926,
    "lng": 3.606392,
    "transactions": [
      {
        "date": "2021-03-02",
        "priceEur": 60000,
        "typeLocal": "Maison",
        "surfaceM2": 84,
        "isVefa": false
      }
    ]
  },
  "b5f5c4c4a46c": {
    "id": "b5f5c4c4a46c",
    "label": "8 CHEM DU THO NORD, Villeveyrac",
    "lat": 43.496968,
    "lng": 3.604223,
    "transactions": [
      {
        "date": "2021-02-19",
        "priceEur": 624240,
        "typeLocal": "Maison",
        "surfaceM2": 255,
        "isVefa": false
      },
      {
        "date": "2021-02-19",
        "priceEur": 624240,
        "typeLocal": "Maison",
        "surfaceM2": 255,
        "isVefa": false
      }
    ]
  },
  "e37ac0b6ea5c": {
    "id": "e37ac0b6ea5c",
    "label": "8 LOT LES LAURIERS, Villeveyrac",
    "lat": 43.498368,
    "lng": 3.605861,
    "transactions": [
      {
        "date": "2021-03-01",
        "priceEur": 285000,
        "typeLocal": "Maison",
        "surfaceM2": 92,
        "isVefa": false
      }
    ]
  },
  "0972ff49c2af": {
    "id": "0972ff49c2af",
    "label": "33 RUE DES HORTS VIELS, Villeveyrac",
    "lat": 43.500696,
    "lng": 3.607406,
    "transactions": [
      {
        "date": "2021-03-19",
        "priceEur": 187060,
        "typeLocal": "Maison",
        "surfaceM2": 78,
        "isVefa": false
      }
    ]
  },
  "2238a6483cc1": {
    "id": "2238a6483cc1",
    "label": "215 CHEM DE LA ROQUE, Villeveyrac",
    "lat": 43.496335,
    "lng": 3.610544,
    "transactions": [
      {
        "date": "2021-03-26",
        "priceEur": 266460,
        "typeLocal": "Maison",
        "surfaceM2": 82,
        "isVefa": false
      }
    ]
  },
  "b258202bab65": {
    "id": "b258202bab65",
    "label": "21 RUE QUARTIER DES GRIFFES, Villeveyrac",
    "lat": 43.500339,
    "lng": 3.605565,
    "transactions": [
      {
        "date": "2021-04-16",
        "priceEur": 145000,
        "typeLocal": "Maison",
        "surfaceM2": 95,
        "isVefa": false
      }
    ]
  },
  "4c0402ec150d": {
    "id": "4c0402ec150d",
    "label": "13T RUE DE LA SOURCE, Villeveyrac",
    "lat": 43.498363,
    "lng": 3.603772,
    "transactions": [
      {
        "date": "2021-04-27",
        "priceEur": 270000,
        "typeLocal": "Maison",
        "surfaceM2": 82,
        "isVefa": false
      }
    ]
  },
  "b51bc7b81b4b": {
    "id": "b51bc7b81b4b",
    "label": "13 QUA DES GRIFFES, Villeveyrac",
    "lat": 43.500264,
    "lng": 3.60604,
    "transactions": [
      {
        "date": "2021-04-12",
        "priceEur": 148700,
        "typeLocal": "Maison",
        "surfaceM2": 70,
        "isVefa": false
      }
    ]
  },
  "2442b4ab3de3": {
    "id": "2442b4ab3de3",
    "label": "5652 LE VILLAGE, Villeveyrac",
    "lat": 43.49894,
    "lng": 3.607104,
    "transactions": [
      {
        "date": "2021-04-29",
        "priceEur": 260000,
        "typeLocal": "Maison",
        "surfaceM2": 115,
        "isVefa": false
      }
    ]
  },
  "76cb78393d0d": {
    "id": "76cb78393d0d",
    "label": "5B CHE DE LA MARTINE, Villeveyrac",
    "lat": 43.498386,
    "lng": 3.608309,
    "transactions": [
      {
        "date": "2021-04-28",
        "priceEur": 310000,
        "typeLocal": "Maison",
        "surfaceM2": 87,
        "isVefa": false
      }
    ]
  },
  "8feda9a6d0eb": {
    "id": "8feda9a6d0eb",
    "label": "5005F CHE DE LA MARTINE, Villeveyrac",
    "lat": 43.498386,
    "lng": 3.608309,
    "transactions": [
      {
        "date": "2021-04-28",
        "priceEur": 310000,
        "typeLocal": "Maison",
        "surfaceM2": 51,
        "isVefa": false
      }
    ]
  },
  "bbe52abb37a0": {
    "id": "bbe52abb37a0",
    "label": "1A RUE DE LA MONNAIE, Villeveyrac",
    "lat": 43.500505,
    "lng": 3.60668,
    "transactions": [
      {
        "date": "2021-05-18",
        "priceEur": 110500,
        "typeLocal": "Appartement",
        "surfaceM2": 48,
        "isVefa": false
      }
    ]
  },
  "9e9dad5c139e": {
    "id": "9e9dad5c139e",
    "label": "4 RUE D'ULYSSE, Villeveyrac",
    "lat": 43.499774,
    "lng": 3.604679,
    "transactions": [
      {
        "date": "2021-05-25",
        "priceEur": 427500,
        "typeLocal": "Maison",
        "surfaceM2": 147,
        "isVefa": false
      }
    ]
  },
  "9520a608c190": {
    "id": "9520a608c190",
    "label": "17 RUE DE LA FONTAINE, Villeveyrac",
    "lat": 43.500691,
    "lng": 3.605116,
    "transactions": [
      {
        "date": "2023-06-01",
        "priceEur": 266000,
        "typeLocal": "Maison",
        "surfaceM2": 103,
        "isVefa": false
      },
      {
        "date": "2021-05-12",
        "priceEur": 217000,
        "typeLocal": "Maison",
        "surfaceM2": 103,
        "isVefa": false
      }
    ]
  },
  "956e8fc088af": {
    "id": "956e8fc088af",
    "label": "130 CHEM DE LA ROQUE, Villeveyrac",
    "lat": 43.497325,
    "lng": 3.611373,
    "transactions": [
      {
        "date": "2021-06-28",
        "priceEur": 340890,
        "typeLocal": "Maison",
        "surfaceM2": 106,
        "isVefa": false
      },
      {
        "date": "2021-06-28",
        "priceEur": 340890,
        "typeLocal": "Maison",
        "surfaceM2": 106,
        "isVefa": false
      }
    ]
  },
  "403a7b5e4e11": {
    "id": "403a7b5e4e11",
    "label": "6 CHE DE LA MARTINE, Villeveyrac",
    "lat": 43.497448,
    "lng": 3.607068,
    "transactions": [
      {
        "date": "2021-06-21",
        "priceEur": 316500,
        "typeLocal": "Maison",
        "surfaceM2": 110,
        "isVefa": false
      }
    ]
  },
  "2a86a070f901": {
    "id": "2a86a070f901",
    "label": "5918 LE VILLAGE, Villeveyrac",
    "lat": 43.500085,
    "lng": 3.604212,
    "transactions": [
      {
        "date": "2021-07-20",
        "priceEur": 211550,
        "typeLocal": "Maison",
        "surfaceM2": 112,
        "isVefa": false
      }
    ]
  },
  "1e7bb99fdfb9": {
    "id": "1e7bb99fdfb9",
    "label": "2 RUE COPE CAMBES, Villeveyrac",
    "lat": 43.50023,
    "lng": 3.606874,
    "transactions": [
      {
        "date": "2021-07-21",
        "priceEur": 126000,
        "typeLocal": "Appartement",
        "surfaceM2": 114,
        "isVefa": false
      },
      {
        "date": "2021-07-21",
        "priceEur": 126000,
        "typeLocal": "Appartement",
        "surfaceM2": 114,
        "isVefa": false
      }
    ]
  },
  "b53ab4c1d84a": {
    "id": "b53ab4c1d84a",
    "label": "18 RUE TURENNE, Villeveyrac",
    "lat": 43.500003,
    "lng": 3.606551,
    "transactions": [
      {
        "date": "2021-08-30",
        "priceEur": 160000,
        "typeLocal": "Appartement",
        "surfaceM2": 65,
        "isVefa": false
      }
    ]
  },
  "b397c2b447f1": {
    "id": "b397c2b447f1",
    "label": "5363 LE VILLAGE, Villeveyrac",
    "lat": 43.499778,
    "lng": 3.605577,
    "transactions": [
      {
        "date": "2021-07-23",
        "priceEur": 258270,
        "typeLocal": "Maison",
        "surfaceM2": 92,
        "isVefa": false
      }
    ]
  },
  "c9e3b77effaa": {
    "id": "c9e3b77effaa",
    "label": "8 RUE COURBET, Villeveyrac",
    "lat": 43.500398,
    "lng": 3.605158,
    "transactions": [
      {
        "date": "2021-10-29",
        "priceEur": 350000,
        "typeLocal": "Appartement",
        "surfaceM2": 55,
        "isVefa": false
      },
      {
        "date": "2021-10-29",
        "priceEur": 350000,
        "typeLocal": "Appartement",
        "surfaceM2": 55,
        "isVefa": false
      }
    ]
  },
  "743053bc06c3": {
    "id": "743053bc06c3",
    "label": "20 RTE DE CLERMONT, Villeveyrac",
    "lat": 43.500347,
    "lng": 3.604988,
    "transactions": [
      {
        "date": "2021-10-29",
        "priceEur": 350000,
        "typeLocal": "Appartement",
        "surfaceM2": 57,
        "isVefa": false
      },
      {
        "date": "2021-10-29",
        "priceEur": 350000,
        "typeLocal": "Appartement",
        "surfaceM2": 57,
        "isVefa": false
      },
      {
        "date": "2021-10-29",
        "priceEur": 350000,
        "typeLocal": "Appartement",
        "surfaceM2": 54,
        "isVefa": false
      }
    ]
  },
  "39643e1a6392": {
    "id": "39643e1a6392",
    "label": "5357 LE VILLAGE, Villeveyrac",
    "lat": 43.499937,
    "lng": 3.605891,
    "transactions": [
      {
        "date": "2021-11-05",
        "priceEur": 250000,
        "typeLocal": "Maison",
        "surfaceM2": 102,
        "isVefa": false
      }
    ]
  },
  "c24805332a66": {
    "id": "c24805332a66",
    "label": "5B RUE SOLITAIRE, Villeveyrac",
    "lat": 43.500547,
    "lng": 3.607266,
    "transactions": [
      {
        "date": "2021-11-05",
        "priceEur": 185000,
        "typeLocal": "Maison",
        "surfaceM2": 76,
        "isVefa": false
      },
      {
        "date": "2021-11-05",
        "priceEur": 185000,
        "typeLocal": "Appartement",
        "surfaceM2": 35,
        "isVefa": false
      }
    ]
  },
  "227ac95a4e8d": {
    "id": "227ac95a4e8d",
    "label": "5387 LE VILLAGE, Villeveyrac",
    "lat": 43.500389,
    "lng": 3.60586,
    "transactions": [
      {
        "date": "2021-11-30",
        "priceEur": 204000,
        "typeLocal": "Maison",
        "surfaceM2": 95,
        "isVefa": false
      }
    ]
  },
  "0de3f2e11473": {
    "id": "0de3f2e11473",
    "label": "18 RUE DE LA FONTAINE, Villeveyrac",
    "lat": 43.500644,
    "lng": 3.605749,
    "transactions": [
      {
        "date": "2021-12-09",
        "priceEur": 175000,
        "typeLocal": "Maison",
        "surfaceM2": 78,
        "isVefa": false
      }
    ]
  },
  "fd7b77f8a0ff": {
    "id": "fd7b77f8a0ff",
    "label": "10 RUE TURENNE, Villeveyrac",
    "lat": 43.499709,
    "lng": 3.606411,
    "transactions": [
      {
        "date": "2021-12-29",
        "priceEur": 170000,
        "typeLocal": "Maison",
        "surfaceM2": 98,
        "isVefa": false
      }
    ]
  },
  "a96dfc8be476": {
    "id": "a96dfc8be476",
    "label": "45 CHEM DE LA ROQUE, Villeveyrac",
    "lat": 43.497627,
    "lng": 3.612559,
    "transactions": [
      {
        "date": "2021-12-30",
        "priceEur": 75000,
        "typeLocal": "Maison",
        "surfaceM2": 100,
        "isVefa": false
      }
    ]
  },
  "e2c07b93fe9f": {
    "id": "e2c07b93fe9f",
    "label": "23B RTE DE MEZE, Villeveyrac",
    "lat": 43.496367,
    "lng": 3.603804,
    "transactions": [
      {
        "date": "2022-02-14",
        "priceEur": 500100,
        "typeLocal": "Maison",
        "surfaceM2": 114,
        "isVefa": false
      },
      {
        "date": "2022-02-14",
        "priceEur": 500100,
        "typeLocal": "Maison",
        "surfaceM2": 114,
        "isVefa": false
      }
    ]
  },
  "f3023ad9ac78": {
    "id": "f3023ad9ac78",
    "label": "3 RUE DE LA GLORIETTE, Villeveyrac",
    "lat": 43.499537,
    "lng": 3.605334,
    "transactions": [
      {
        "date": "2022-02-14",
        "priceEur": 366170,
        "typeLocal": "Appartement",
        "surfaceM2": 137,
        "isVefa": false
      },
      {
        "date": "2022-02-14",
        "priceEur": 366170,
        "typeLocal": "Appartement",
        "surfaceM2": 100,
        "isVefa": false
      }
    ]
  },
  "ae2477ac9558": {
    "id": "ae2477ac9558",
    "label": "5015 LE VILLAGE, Villeveyrac",
    "lat": 43.499554,
    "lng": 3.606264,
    "transactions": [
      {
        "date": "2022-03-07",
        "priceEur": 245210,
        "typeLocal": "Maison",
        "surfaceM2": 101,
        "isVefa": false
      }
    ]
  },
  "a6eb7cb5b4d6": {
    "id": "a6eb7cb5b4d6",
    "label": "5 RUE DU CARDINAL, Villeveyrac",
    "lat": 43.498783,
    "lng": 3.604655,
    "transactions": [
      {
        "date": "2022-04-08",
        "priceEur": 278500,
        "typeLocal": "Maison",
        "surfaceM2": 91,
        "isVefa": false
      }
    ]
  },
  "16718181bfe5": {
    "id": "16718181bfe5",
    "label": "11 RUE SOLITAIRE, Villeveyrac",
    "lat": 43.500432,
    "lng": 3.607707,
    "transactions": [
      {
        "date": "2022-05-13",
        "priceEur": 119400,
        "typeLocal": "Maison",
        "surfaceM2": 63,
        "isVefa": false
      }
    ]
  },
  "19d4e3efba26": {
    "id": "19d4e3efba26",
    "label": "5124 LE VILLAGE, Villeveyrac",
    "lat": 43.500423,
    "lng": 3.608156,
    "transactions": [
      {
        "date": "2023-08-23",
        "priceEur": 354308,
        "typeLocal": "Maison",
        "surfaceM2": 120,
        "isVefa": false
      },
      {
        "date": "2022-05-24",
        "priceEur": 382308,
        "typeLocal": "Maison",
        "surfaceM2": 120,
        "isVefa": false
      }
    ]
  },
  "81d52b3b348e": {
    "id": "81d52b3b348e",
    "label": "195 CHEM DES OEILLADES, Villeveyrac",
    "lat": 43.496913,
    "lng": 3.611031,
    "transactions": [
      {
        "date": "2022-06-20",
        "priceEur": 400000,
        "typeLocal": "Maison",
        "surfaceM2": 119,
        "isVefa": false
      },
      {
        "date": "2022-06-20",
        "priceEur": 400000,
        "typeLocal": "Maison",
        "surfaceM2": 119,
        "isVefa": false
      }
    ]
  },
  "ac8afff08dea": {
    "id": "ac8afff08dea",
    "label": "5659 LA COUSSE, Villeveyrac",
    "lat": 43.497531,
    "lng": 3.609399,
    "transactions": [
      {
        "date": "2022-07-04",
        "priceEur": 422800,
        "typeLocal": "Maison",
        "surfaceM2": 106,
        "isVefa": false
      }
    ]
  },
  "f47aa47d9666": {
    "id": "f47aa47d9666",
    "label": "9 RUE DE LA GLORIETTE, Villeveyrac",
    "lat": 43.499361,
    "lng": 3.605092,
    "transactions": [
      {
        "date": "2022-06-20",
        "priceEur": 200000,
        "typeLocal": "Maison",
        "surfaceM2": 156,
        "isVefa": false
      }
    ]
  },
  "60f5454c1dc3": {
    "id": "60f5454c1dc3",
    "label": "5129 RUE DU SOUQUET, Villeveyrac",
    "lat": 43.499753,
    "lng": 3.613323,
    "transactions": [
      {
        "date": "2022-07-08",
        "priceEur": 416000,
        "typeLocal": "Maison",
        "surfaceM2": 82,
        "isVefa": false
      }
    ]
  },
  "3202cac2d39a": {
    "id": "3202cac2d39a",
    "label": "27 CHE DE LA MARTINE, Villeveyrac",
    "lat": 43.496126,
    "lng": 3.608435,
    "transactions": [
      {
        "date": "2022-06-30",
        "priceEur": 510750,
        "typeLocal": "Maison",
        "surfaceM2": 157,
        "isVefa": false
      },
      {
        "date": "2022-06-30",
        "priceEur": 510750,
        "typeLocal": "Maison",
        "surfaceM2": 157,
        "isVefa": false
      }
    ]
  },
  "b299c4559630": {
    "id": "b299c4559630",
    "label": "16 PL DU MARCHE, Villeveyrac",
    "lat": 43.500708,
    "lng": 3.607944,
    "transactions": [
      {
        "date": "2022-07-20",
        "priceEur": 370000,
        "typeLocal": "Maison",
        "surfaceM2": 168,
        "isVefa": false
      }
    ]
  },
  "2b82ff5a674a": {
    "id": "2b82ff5a674a",
    "label": "5 RUE DES VIGNES DE LA RESSE, Villeveyrac",
    "lat": 43.497288,
    "lng": 3.608615,
    "transactions": [
      {
        "date": "2022-09-27",
        "priceEur": 513090,
        "typeLocal": "Maison",
        "surfaceM2": 213,
        "isVefa": false
      },
      {
        "date": "2022-09-27",
        "priceEur": 513090,
        "typeLocal": "Maison",
        "surfaceM2": 213,
        "isVefa": false
      }
    ]
  },
  "cc163f32dce6": {
    "id": "cc163f32dce6",
    "label": "3 RUE DE LA FONTAINE, Villeveyrac",
    "lat": 43.500591,
    "lng": 3.604658,
    "transactions": [
      {
        "date": "2022-11-10",
        "priceEur": 300000,
        "typeLocal": "Maison",
        "surfaceM2": 91,
        "isVefa": false
      }
    ]
  },
  "265b11833eea": {
    "id": "265b11833eea",
    "label": "14 RTE DE MEZE, Villeveyrac",
    "lat": 43.499192,
    "lng": 3.604928,
    "transactions": [
      {
        "date": "2022-12-15",
        "priceEur": 300000,
        "typeLocal": "Maison",
        "surfaceM2": 140,
        "isVefa": false
      }
    ]
  },
  "77545eef7b5d": {
    "id": "77545eef7b5d",
    "label": "5007F CHEM DES OEILLADES, Villeveyrac",
    "lat": 43.498454,
    "lng": 3.610008,
    "transactions": [
      {
        "date": "2023-04-06",
        "priceEur": 470000,
        "typeLocal": "Maison",
        "surfaceM2": 128,
        "isVefa": false
      },
      {
        "date": "2023-04-06",
        "priceEur": 470000,
        "typeLocal": "Maison",
        "surfaceM2": 128,
        "isVefa": false
      }
    ]
  },
  "82d8540bdb55": {
    "id": "82d8540bdb55",
    "label": "8 RUE DU CHATEAU, Villeveyrac",
    "lat": 43.500161,
    "lng": 3.607943,
    "transactions": [
      {
        "date": "2023-04-17",
        "priceEur": 147680,
        "typeLocal": "Maison",
        "surfaceM2": 60,
        "isVefa": false
      }
    ]
  },
  "acfec053231e": {
    "id": "acfec053231e",
    "label": "9 RUE DES AMANDIERS, Villeveyrac",
    "lat": 43.500086,
    "lng": 3.607258,
    "transactions": [
      {
        "date": "2023-05-26",
        "priceEur": 185730,
        "typeLocal": "Maison",
        "surfaceM2": 84,
        "isVefa": false
      }
    ]
  },
  "216333fff7ae": {
    "id": "216333fff7ae",
    "label": "4 RTE DE MEZE, Villeveyrac",
    "lat": 43.499418,
    "lng": 3.605305,
    "transactions": [
      {
        "date": "2023-06-22",
        "priceEur": 197000,
        "typeLocal": "Appartement",
        "surfaceM2": 43,
        "isVefa": false
      },
      {
        "date": "2023-06-22",
        "priceEur": 197000,
        "typeLocal": "Appartement",
        "surfaceM2": 55,
        "isVefa": false
      }
    ]
  },
  "f241dcc9d045": {
    "id": "f241dcc9d045",
    "label": "4 RUE DU CARDINAL, Villeveyrac",
    "lat": 43.498614,
    "lng": 3.604191,
    "transactions": [
      {
        "date": "2023-07-25",
        "priceEur": 350000,
        "typeLocal": "Maison",
        "surfaceM2": 87,
        "isVefa": false
      }
    ]
  },
  "e8642ad9e976": {
    "id": "e8642ad9e976",
    "label": "1 RTE DE MONTAGNAC, Villeveyrac",
    "lat": 43.500282,
    "lng": 3.604545,
    "transactions": [
      {
        "date": "2023-07-18",
        "priceEur": 80000,
        "typeLocal": "Appartement",
        "surfaceM2": 28,
        "isVefa": false
      },
      {
        "date": "2023-07-18",
        "priceEur": 80000,
        "typeLocal": "Appartement",
        "surfaceM2": 78,
        "isVefa": false
      }
    ]
  },
  "2c61c4f2ef6c": {
    "id": "2c61c4f2ef6c",
    "label": "70 CHEM DES OEILLADES, Villeveyrac",
    "lat": 43.497916,
    "lng": 3.609804,
    "transactions": [
      {
        "date": "2023-09-20",
        "priceEur": 335000,
        "typeLocal": "Maison",
        "surfaceM2": 120,
        "isVefa": false
      }
    ]
  },
  "9082ad2e5873": {
    "id": "9082ad2e5873",
    "label": "5667 LE VILLAGE, Villeveyrac",
    "lat": 43.49772,
    "lng": 3.608642,
    "transactions": [
      {
        "date": "2023-11-07",
        "priceEur": 215000,
        "typeLocal": "Maison",
        "surfaceM2": 60,
        "isVefa": false
      }
    ]
  },
  "3f2c07698781": {
    "id": "3f2c07698781",
    "label": "5003 LE VILLAGE, Villeveyrac",
    "lat": 43.49948,
    "lng": 3.606274,
    "transactions": [
      {
        "date": "2023-11-21",
        "priceEur": 210000,
        "typeLocal": "Maison",
        "surfaceM2": 72,
        "isVefa": false
      }
    ]
  },
  "16e222cc4b65": {
    "id": "16e222cc4b65",
    "label": "1B RUE DE LA MONNAIE, Villeveyrac",
    "lat": 43.500505,
    "lng": 3.60668,
    "transactions": [
      {
        "date": "2023-12-21",
        "priceEur": 55000,
        "typeLocal": "Appartement",
        "surfaceM2": 37,
        "isVefa": false
      }
    ]
  },
  "6671b34bebf6": {
    "id": "6671b34bebf6",
    "label": "2 RUE DES HORTS VIELS, Villeveyrac",
    "lat": 43.499274,
    "lng": 3.606523,
    "transactions": [
      {
        "date": "2023-12-15",
        "priceEur": 225000,
        "typeLocal": "Maison",
        "surfaceM2": 80,
        "isVefa": false
      }
    ]
  },
  "85a4f6168727": {
    "id": "85a4f6168727",
    "label": "10 CHE DE LA CALADE, Villeveyrac",
    "lat": 43.498908,
    "lng": 3.608709,
    "transactions": [
      {
        "date": "2024-06-26",
        "priceEur": 384000,
        "typeLocal": "Maison",
        "surfaceM2": 124,
        "isVefa": false
      },
      {
        "date": "2024-06-26",
        "priceEur": 384000,
        "typeLocal": "Maison",
        "surfaceM2": 124,
        "isVefa": false
      }
    ]
  },
  "3b72cc915f5a": {
    "id": "3b72cc915f5a",
    "label": "13 RUE DES LAURIERS, Villeveyrac",
    "lat": 43.498301,
    "lng": 3.606397,
    "transactions": [
      {
        "date": "2024-07-05",
        "priceEur": 2692.98,
        "typeLocal": "Maison",
        "surfaceM2": 80,
        "isVefa": false
      }
    ]
  },
  "b21127c57d88": {
    "id": "b21127c57d88",
    "label": "5391 LE VILLAGE, Villeveyrac",
    "lat": 43.500555,
    "lng": 3.605797,
    "transactions": [
      {
        "date": "2024-07-16",
        "priceEur": 132000,
        "typeLocal": "Maison",
        "surfaceM2": 55,
        "isVefa": false
      }
    ]
  },
  "de60894171e0": {
    "id": "de60894171e0",
    "label": "37 RUE DU SOUQUET, Villeveyrac",
    "lat": 43.498435,
    "lng": 3.613557,
    "transactions": [
      {
        "date": "2024-09-12",
        "priceEur": 449000,
        "typeLocal": "Maison",
        "surfaceM2": 90,
        "isVefa": false
      }
    ]
  },
  "c4bd17ef4836": {
    "id": "c4bd17ef4836",
    "label": "5650 HORTS VIELS, Villeveyrac",
    "lat": 43.498077,
    "lng": 3.606696,
    "transactions": [
      {
        "date": "2024-09-05",
        "priceEur": 278000,
        "typeLocal": "Maison",
        "surfaceM2": 81,
        "isVefa": false
      }
    ]
  },
  "d83b589f2976": {
    "id": "d83b589f2976",
    "label": "10 LOT LE SOUQUET, Villeveyrac",
    "lat": 43.498986,
    "lng": 3.613799,
    "transactions": [
      {
        "date": "2024-10-30",
        "priceEur": 301650,
        "typeLocal": "Maison",
        "surfaceM2": 97,
        "isVefa": false
      }
    ]
  },
  "53119dfb218b": {
    "id": "53119dfb218b",
    "label": "5365 LE VILLAGE, Villeveyrac",
    "lat": 43.499869,
    "lng": 3.605458,
    "transactions": [
      {
        "date": "2024-10-25",
        "priceEur": 140000,
        "typeLocal": "Maison",
        "surfaceM2": 78,
        "isVefa": false
      }
    ]
  },
  "2defe49fb6d0": {
    "id": "2defe49fb6d0",
    "label": "13 RUE DU CHATEAU, Villeveyrac",
    "lat": 43.500091,
    "lng": 3.608147,
    "transactions": [
      {
        "date": "2024-12-16",
        "priceEur": 120000,
        "typeLocal": "Maison",
        "surfaceM2": 90,
        "isVefa": false
      }
    ]
  },
  "8587b2ed8a7f": {
    "id": "8587b2ed8a7f",
    "label": "18 RTE DE POUSSAN, Villeveyrac",
    "lat": 43.498869,
    "lng": 3.60761,
    "transactions": [
      {
        "date": "2024-12-16",
        "priceEur": 212500,
        "typeLocal": "Appartement",
        "surfaceM2": 80,
        "isVefa": false
      },
      {
        "date": "2024-12-16",
        "priceEur": 212500,
        "typeLocal": "Appartement",
        "surfaceM2": 84,
        "isVefa": false
      }
    ]
  },
  "fe5d593ca2c3": {
    "id": "fe5d593ca2c3",
    "label": "13 RTE DE CLERMONT, Villeveyrac",
    "lat": 43.499996,
    "lng": 3.604804,
    "transactions": [
      {
        "date": "2025-01-21",
        "priceEur": 311760,
        "typeLocal": "Maison",
        "surfaceM2": 127,
        "isVefa": false
      }
    ]
  },
  "14e91f91272c": {
    "id": "14e91f91272c",
    "label": "4 RUE SOLITAIRE, Villeveyrac",
    "lat": 43.500554,
    "lng": 3.60765,
    "transactions": [
      {
        "date": "2025-03-03",
        "priceEur": 120000,
        "typeLocal": "Maison",
        "surfaceM2": 85,
        "isVefa": false
      }
    ]
  },
  "90c82f9c948a": {
    "id": "90c82f9c948a",
    "label": "150 CHE DE LA ROQUE, Villeveyrac",
    "lat": 43.497104,
    "lng": 3.611227,
    "transactions": [
      {
        "date": "2025-04-15",
        "priceEur": 391790,
        "typeLocal": "Maison",
        "surfaceM2": 115,
        "isVefa": false
      },
      {
        "date": "2025-04-15",
        "priceEur": 391790,
        "typeLocal": "Maison",
        "surfaceM2": 115,
        "isVefa": false
      }
    ]
  },
  "a4c52bf9224d": {
    "id": "a4c52bf9224d",
    "label": "14 RUE DE LA FONTAINE, Villeveyrac",
    "lat": 43.500539,
    "lng": 3.605682,
    "transactions": [
      {
        "date": "2025-04-22",
        "priceEur": 190000,
        "typeLocal": "Maison",
        "surfaceM2": 62,
        "isVefa": false
      }
    ]
  },
  "106273e527ec": {
    "id": "106273e527ec",
    "label": "35 CHE DU REC, Villeveyrac",
    "lat": 43.499715,
    "lng": 3.612711,
    "transactions": [
      {
        "date": "2025-04-29",
        "priceEur": 240000,
        "typeLocal": "Maison",
        "surfaceM2": 132,
        "isVefa": false
      }
    ]
  }
}