{
  "9721a4c38b6b": {
    "id": "9721a4c38b6b",
    "label": "6756 LOT LA ROUTE DU GOLF, Octeville-sur-Mer",
    "lat": 49.557034,
    "lng": 0.119826,
    "transactions": [
      {
        "date": "2020-08-27",
        "priceEur": 288000,
        "typeLocal": "Maison",
        "surfaceM2": 97,
        "isVefa": false
      }
    ]
  },
  "8c6df20bd3f1": {
    "id": "8c6df20bd3f1",
    "label": "5723 IMP DU BEL AIR, Octeville-sur-Mer",
    "lat": 49.554501,
    "lng": 0.112011,
    "transactions": [
      {
        "date": "2020-09-10",
        "priceEur": 180000,
        "typeLocal": "Maison",
        "surfaceM2": 40,
        "isVefa": false
      }
    ]
  },
  "04e9c8f37361": {
    "id": "04e9c8f37361",
    "label": "2 CHE DU TOT, Octeville-sur-Mer",
    "lat": 49.554365,
    "lng": 0.110654,
    "transactions": [
      {
        "date": "2020-11-12",
        "priceEur": 428000,
        "typeLocal": "Maison",
        "surfaceM2": 150,
        "isVefa": false
      }
    ]
  },
  "946c0343d361": {
    "id": "946c0343d361",
    "label": "13 RUE FELIX FAURE, Octeville-sur-Mer",
    "lat": 49.554183,
    "lng": 0.116232,
    "transactions": [
      {
        "date": "2021-02-26",
        "priceEur": 170000,
        "typeLocal": "Maison",
        "surfaceM2": 72,
        "isVefa": false
      }
    ]
  },
  "b46931e7621a": {
    "id": "b46931e7621a",
    "label": "3 RUE ABBE JEAN RIBAULT, Octeville-sur-Mer",
    "lat": 49.554301,
    "lng": 0.114281,
    "transactions": [
      {
        "date": "2021-04-07",
        "priceEur": 334000,
        "typeLocal": "Maison",
        "surfaceM2": 70,
        "isVefa": false
      }
    ]
  },
  "af9b66b0ec4a": {
    "id": "af9b66b0ec4a",
    "label": "8 IMP DES THUYATS, Octeville-sur-Mer",
    "lat": 49.556004,
    "lng": 0.112913,
    "transactions": [
      {
        "date": "2021-06-01",
        "priceEur": 365000,
        "typeLocal": "Maison",
        "surfaceM2": 116,
        "isVefa": false
      }
    ]
  },
  "c57196a064e3": {
    "id": "c57196a064e3",
    "label": "5599 RUE FAFIN, Octeville-sur-Mer",
    "lat": 49.555011,
    "lng": 0.115757,
    "transactions": [
      {
        "date": "2021-12-08",
        "priceEur": 1633111.8,
        "typeLocal": "Maison",
        "surfaceM2": 72,
        "isVefa": false
      },
      {
        "date": "2021-09-08",
        "priceEur": 250000,
        "typeLocal": "Maison",
        "surfaceM2": 72,
        "isVefa": false
      }
    ]
  },
  "63b98747d323": {
    "id": "63b98747d323",
    "label": "28 RUE FELIX FAURE, Octeville-sur-Mer",
    "lat": 49.554577,
    "lng": 0.115984,
    "transactions": [
      {
        "date": "2021-09-24",
        "priceEur": 185000,
        "typeLocal": "Maison",
        "surfaceM2": 47,
        "isVefa": false
      }
    ]
  },
  "1b22af921c6f": {
    "id": "1b22af921c6f",
    "label": "8 RUE GEORGES LEROUX, Octeville-sur-Mer",
    "lat": 49.557463,
    "lng": 0.120157,
    "transactions": [
      {
        "date": "2021-11-05",
        "priceEur": 475000,
        "typeLocal": "Maison",
        "surfaceM2": 125,
        "isVefa": false
      }
    ]
  },
  "82ab20592928": {
    "id": "82ab20592928",
    "label": "6 RUE RENE COTY, Octeville-sur-Mer",
    "lat": 49.554174,
    "lng": 0.115295,
    "transactions": [
      {
        "date": "2021-12-14",
        "priceEur": 262000,
        "typeLocal": "Maison",
        "surfaceM2": 75,
        "isVefa": false
      }
    ]
  },
  "796b16bc9e63": {
    "id": "796b16bc9e63",
    "label": "4 RUE FAFIN, Octeville-sur-Mer",
    "lat": 49.555052,
    "lng": 0.115686,
    "transactions": [
      {
        "date": "2021-12-08",
        "priceEur": 1633111.8,
        "typeLocal": "Maison",
        "surfaceM2": 126,
        "isVefa": false
      }
    ]
  },
  "3ff520501b4c": {
    "id": "3ff520501b4c",
    "label": "22 RUE FELIX FAURE, Octeville-sur-Mer",
    "lat": 49.555068,
    "lng": 0.115874,
    "transactions": [
      {
        "date": "2021-12-08",
        "priceEur": 1633111.8,
        "typeLocal": "Appartement",
        "surfaceM2": 72,
        "isVefa": false
      },
      {
        "date": "2021-12-08",
        "priceEur": 1633111.8,
        "typeLocal": "Appartement",
        "surfaceM2": 78,
        "isVefa": false
      },
      {
        "date": "2021-12-08",
        "priceEur": 1633111.8,
        "typeLocal": "Appartement",
        "surfaceM2": 25,
        "isVefa": false
      }
    ]
  },
  "d3a437c3475b": {
    "id": "d3a437c3475b",
    "label": "5 RUE DE VERDUN, Octeville-sur-Mer",
    "lat": 49.555387,
    "lng": 0.115294,
    "transactions": [
      {
        "date": "2021-12-08",
        "priceEur": 1633111.8,
        "typeLocal": "Appartement",
        "surfaceM2": 40,
        "isVefa": false
      },
      {
        "date": "2021-12-08",
        "priceEur": 1633111.8,
        "typeLocal": "Appartement",
        "surfaceM2": 38,
        "isVefa": false
      },
      {
        "date": "2021-12-08",
        "priceEur": 1633111.8,
        "typeLocal": "Appartement",
        "surfaceM2": 32,
        "isVefa": false
      }
    ]
  },
  "2a90c4fe93d9": {
    "id": "2a90c4fe93d9",
    "label": "4 RUE FELIX FAURE, Octeville-sur-Mer",
    "lat": 49.555163,
    "lng": 0.115747,
    "transactions": [
      {
        "date": "2021-12-08",
        "priceEur": 1633111.8,
        "typeLocal": "Maison",
        "surfaceM2": 143,
        "isVefa": false
      }
    ]
  },
  "24193f76e8aa": {
    "id": "24193f76e8aa",
    "label": "6916 RUE DES MARTYRS, Octeville-sur-Mer",
    "lat": 49.553733,
    "lng": 0.117456,
    "transactions": [
      {
        "date": "2022-01-21",
        "priceEur": 366000,
        "typeLocal": "Maison",
        "surfaceM2": 93,
        "isVefa": false
      }
    ]
  },
  "7036209c2d9c": {
    "id": "7036209c2d9c",
    "label": "6211 RUE DES GENETS, Octeville-sur-Mer",
    "lat": 49.558441,
    "lng": 0.115791,
    "transactions": [
      {
        "date": "2022-03-31",
        "priceEur": 272000,
        "typeLocal": "Maison",
        "surfaceM2": 87,
        "isVefa": false
      }
    ]
  },
  "4969de714634": {
    "id": "4969de714634",
    "label": "5 RUE DU LIEUTENANT MALANDAIN, Octeville-sur-Mer",
    "lat": 49.555864,
    "lng": 0.120146,
    "transactions": [
      {
        "date": "2022-11-28",
        "priceEur": 355000,
        "typeLocal": "Maison",
        "surfaceM2": 103,
        "isVefa": false
      }
    ]
  },
  "c2dd8a055833": {
    "id": "c2dd8a055833",
    "label": "17 IMP DU COMMANDANT COUSTEAU, Octeville-sur-Mer",
    "lat": 49.559521,
    "lng": 0.120332,
    "transactions": [
      {
        "date": "2022-11-30",
        "priceEur": 375000,
        "typeLocal": "Maison",
        "surfaceM2": 126,
        "isVefa": false
      }
    ]
  },
  "199d56040ae7": {
    "id": "199d56040ae7",
    "label": "8F RUE DU LIEUTENANT MALANDAIN, Octeville-sur-Mer",
    "lat": 49.554916,
    "lng": 0.119439,
    "transactions": [
      {
        "date": "2022-12-16",
        "priceEur": 595000,
        "typeLocal": "Maison",
        "surfaceM2": 169,
        "isVefa": false
      }
    ]
  },
  "1f26d904bb36": {
    "id": "1f26d904bb36",
    "label": "1 IMP LEON HUART, Octeville-sur-Mer",
    "lat": 49.556746,
    "lng": 0.11631,
    "transactions": [
      {
        "date": "2022-11-23",
        "priceEur": 173000,
        "typeLocal": "Maison",
        "surfaceM2": 68,
        "isVefa": false
      }
    ]
  },
  "9cc139eb7306": {
    "id": "9cc139eb7306",
    "label": "25 RUE ASSELIN DE VILLEQUIER, Octeville-sur-Mer",
    "lat": 49.556324,
    "lng": 0.119552,
    "transactions": [
      {
        "date": "2023-02-07",
        "priceEur": 440000,
        "typeLocal": "Maison",
        "surfaceM2": 144,
        "isVefa": false
      }
    ]
  },
  "3eb07446f42b": {
    "id": "3eb07446f42b",
    "label": "5354 RUE FAFIN, Octeville-sur-Mer",
    "lat": 49.554763,
    "lng": 0.115828,
    "transactions": [
      {
        "date": "2023-03-30",
        "priceEur": 302000,
        "typeLocal": "Maison",
        "surfaceM2": 74,
        "isVefa": false
      }
    ]
  },
  "f06b58ea9bea": {
    "id": "f06b58ea9bea",
    "label": "6788 LOT LA ROUTE DU GOLF, Octeville-sur-Mer",
    "lat": 49.557964,
    "lng": 0.120681,
    "transactions": [
      {
        "date": "2023-05-15",
        "priceEur": 440000,
        "typeLocal": "Maison",
        "surfaceM2": 93,
        "isVefa": false
      }
    ]
  },
  "b77b5a4c4dae": {
    "id": "b77b5a4c4dae",
    "label": "6836 LOT LA ROUTE DU GOLF, Octeville-sur-Mer",
    "lat": 49.556982,
    "lng": 0.119133,
    "transactions": [
      {
        "date": "2023-06-07",
        "priceEur": 350500,
        "typeLocal": "Maison",
        "surfaceM2": 126,
        "isVefa": false
      }
    ]
  },
  "d040a4165a9c": {
    "id": "d040a4165a9c",
    "label": "1 RUE HERAULT DE CAEN, Octeville-sur-Mer",
    "lat": 49.554794,
    "lng": 0.116342,
    "transactions": [
      {
        "date": "2023-07-20",
        "priceEur": 350000,
        "typeLocal": "Appartement",
        "surfaceM2": 116,
        "isVefa": false
      }
    ]
  },
  "c821017eff13": {
    "id": "c821017eff13",
    "label": "5 RUE HERAULT DE CAEN, Octeville-sur-Mer",
    "lat": 49.554878,
    "lng": 0.116484,
    "transactions": [
      {
        "date": "2023-11-13",
        "priceEur": 165000,
        "typeLocal": "Maison",
        "surfaceM2": 64,
        "isVefa": false
      }
    ]
  },
  "02b3acf8272d": {
    "id": "02b3acf8272d",
    "label": "44 RUE FELIX FAURE, Octeville-sur-Mer",
    "lat": 49.554115,
    "lng": 0.115464,
    "transactions": [
      {
        "date": "2023-12-22",
        "priceEur": 293000,
        "typeLocal": "Maison",
        "surfaceM2": 107,
        "isVefa": false
      }
    ]
  },
  "e79f74a559f1": {
    "id": "e79f74a559f1",
    "label": "8 RUE BOSSIERE, Octeville-sur-Mer",
    "lat": 49.554502,
    "lng": 0.115763,
    "transactions": [
      {
        "date": "2024-06-27",
        "priceEur": 97500,
        "typeLocal": "Maison",
        "surfaceM2": 47,
        "isVefa": false
      }
    ]
  },
  "94b00b638dc9": {
    "id": "94b00b638dc9",
    "label": "12 RUE ALBERT LEBIGRE, Octeville-sur-Mer",
    "lat": 49.553947,
    "lng": 0.117559,
    "transactions": [
      {
        "date": "2024-11-06",
        "priceEur": 155000,
        "typeLocal": "Maison",
        "surfaceM2": 67,
        "isVefa": false
      }
    ]
  },
  "b79663c4b441": {
    "id": "b79663c4b441",
    "label": "3 RUE HERAULT DE CAEN, Octeville-sur-Mer",
    "lat": 49.554832,
    "lng": 0.11643,
    "transactions": [
      {
        "date": "2024-11-14",
        "priceEur": 210000,
        "typeLocal": "Maison",
        "surfaceM2": 72,
        "isVefa": false
      }
    ]
  },
  "483f2cbe758c": {
    "id": "483f2cbe758c",
    "label": "8E RUE DU LIEUTENANT MALANDAIN, Octeville-sur-Mer",
    "lat": 49.554694,
    "lng": 0.119322,
    "transactions": [
      {
        "date": "2024-12-16",
        "priceEur": 506000,
        "typeLocal": "Maison",
        "surfaceM2": 147,
        "isVefa": false
      }
    ]
  }
}