{
  "9adec1061a9d": {
    "id": "9adec1061a9d",
    "label": "7 RUE DE LA RANDOUERIE, Fontenay",
    "lat": 49.561277,
    "lng": 0.180636,
    "transactions": [
      {
        "date": "2022-01-11",
        "priceEur": 309000,
        "typeLocal": "Maison",
        "surfaceM2": 115,
        "isVefa": false
      }
    ]
  },
  "2236ae661b27": {
    "id": "2236ae661b27",
    "label": "46 RUE SAINT MICHEL, Fontenay",
    "lat": 49.562966,
    "lng": 0.183949,
    "transactions": [
      {
        "date": "2022-04-08",
        "priceEur": 279500,
        "typeLocal": "Maison",
        "surfaceM2": 120,
        "isVefa": false
      }
    ]
  },
  "c7fbeedebb75": {
    "id": "c7fbeedebb75",
    "label": "6 IMP DES ERABLES, Fontenay",
    "lat": 49.561193,
    "lng": 0.182985,
    "transactions": [
      {
        "date": "2024-02-27",
        "priceEur": 140000,
        "typeLocal": "Maison",
        "surfaceM2": 100,
        "isVefa": false
      },
      {
        "date": "2022-06-22",
        "priceEur": 160000,
        "typeLocal": "Maison",
        "surfaceM2": 100,
        "isVefa": false
      }
    ]
  },
  "d9e549255fa8": {
    "id": "d9e549255fa8",
    "label": "3 RUE DES ROUGES GORGES, Fontenay",
    "lat": 49.562618,
    "lng": 0.186076,
    "transactions": [
      {
        "date": "2022-09-30",
        "priceEur": 341000,
        "typeLocal": "Maison",
        "surfaceM2": 131,
        "isVefa": false
      }
    ]
  },
  "a0b52c5f77a6": {
    "id": "a0b52c5f77a6",
    "label": "5136 RUE DE LA RANDOUERIE, Fontenay",
    "lat": 49.562978,
    "lng": 0.177401,
    "transactions": [
      {
        "date": "2022-11-03",
        "priceEur": 250000,
        "typeLocal": "Maison",
        "surfaceM2": 120,
        "isVefa": false
      }
    ]
  },
  "f6b88d825c36": {
    "id": "f6b88d825c36",
    "label": "2 RUE DE LA RANDOUERIE, Fontenay",
    "lat": 49.561727,
    "lng": 0.181698,
    "transactions": [
      {
        "date": "2022-11-24",
        "priceEur": 155001,
        "typeLocal": "Maison",
        "surfaceM2": 98,
        "isVefa": false
      }
    ]
  },
  "08a1da645802": {
    "id": "08a1da645802",
    "label": "4 RUE PETITONVILLE, Fontenay",
    "lat": 49.560912,
    "lng": 0.181716,
    "transactions": [
      {
        "date": "2023-11-24",
        "priceEur": 303000,
        "typeLocal": "Maison",
        "surfaceM2": 99,
        "isVefa": false
      }
    ]
  },
  "758df72a3452": {
    "id": "758df72a3452",
    "label": "5 CLOS SAINT MICHEL, Fontenay",
    "lat": 49.562819,
    "lng": 0.18116,
    "transactions": [
      {
        "date": "2024-06-28",
        "priceEur": 335000,
        "typeLocal": "Maison",
        "surfaceM2": 108,
        "isVefa": false
      }
    ]
  },
  "6d6ff3e3a04c": {
    "id": "6d6ff3e3a04c",
    "label": "1 RUE DES ROUGES GORGES, Fontenay",
    "lat": 49.562521,
    "lng": 0.186277,
    "transactions": [
      {
        "date": "2024-12-06",
        "priceEur": 332000,
        "typeLocal": "Maison",
        "surfaceM2": 115,
        "isVefa": false
      }
    ]
  },
  "e55521786451": {
    "id": "e55521786451",
    "label": "13 RUE DE LA RANDOUERIE, Fontenay",
    "lat": 49.561348,
    "lng": 0.179178,
    "transactions": [
      {
        "date": "2025-03-17",
        "priceEur": 318000,
        "typeLocal": "Maison",
        "surfaceM2": 158,
        "isVefa": false
      }
    ]
  },
  "f58ebf161f11": {
    "id": "f58ebf161f11",
    "label": "2 CLOS SAINT MICHEL, Fontenay",
    "lat": 49.562773,
    "lng": 0.182088,
    "transactions": [
      {
        "date": "2025-06-02",
        "priceEur": 571500,
        "typeLocal": "Maison",
        "surfaceM2": 159,
        "isVefa": false
      }
    ]
  }
}