{
  "4e94ff95926e": {
    "id": "4e94ff95926e",
    "label": "15 RUE DE LA CAROLINE, Anglesqueville-l'Esneval",
    "lat": 49.634816,
    "lng": 0.237318,
    "transactions": [
      {
        "date": "2022-08-25",
        "priceEur": 255000,
        "typeLocal": "Maison",
        "surfaceM2": 84,
        "isVefa": false
      }
    ]
  },
  "350b0ffa5e90": {
    "id": "350b0ffa5e90",
    "label": "16 RUE MAXIMILIENNE, Anglesqueville-l'Esneval",
    "lat": 49.633815,
    "lng": 0.234269,
    "transactions": [
      {
        "date": "2022-09-19",
        "priceEur": 370000,
        "typeLocal": "Maison",
        "surfaceM2": 152,
        "isVefa": false
      }
    ]
  },
  "8a5a6903d08e": {
    "id": "8a5a6903d08e",
    "label": "14 RUE DE LA CAROLINE, Anglesqueville-l'Esneval",
    "lat": 49.633977,
    "lng": 0.237574,
    "transactions": [
      {
        "date": "2022-12-08",
        "priceEur": 285000,
        "typeLocal": "Maison",
        "surfaceM2": 150,
        "isVefa": false
      }
    ]
  },
  "ea2fc1d732ac": {
    "id": "ea2fc1d732ac",
    "label": "7 PL DE L'EGLISE, Anglesqueville-l'Esneval",
    "lat": 49.632182,
    "lng": 0.235915,
    "transactions": [
      {
        "date": "2023-01-16",
        "priceEur": 135000,
        "typeLocal": "Maison",
        "surfaceM2": 72,
        "isVefa": false
      }
    ]
  },
  "158340ead12b": {
    "id": "158340ead12b",
    "label": "27 RUE DU CALVAIRE, Anglesqueville-l'Esneval",
    "lat": 49.634292,
    "lng": 0.239374,
    "transactions": [
      {
        "date": "2023-03-21",
        "priceEur": 258300,
        "typeLocal": "Maison",
        "surfaceM2": 120,
        "isVefa": false
      }
    ]
  },
  "cad5c26c8ec5": {
    "id": "cad5c26c8ec5",
    "label": "24 RUE MAXIMILIENNE, Anglesqueville-l'Esneval",
    "lat": 49.634101,
    "lng": 0.235446,
    "transactions": [
      {
        "date": "2024-06-18",
        "priceEur": 272000,
        "typeLocal": "Maison",
        "surfaceM2": 111,
        "isVefa": false
      }
    ]
  },
  "79e3c4f537e9": {
    "id": "79e3c4f537e9",
    "label": "5 SEN DES PEUPLIERS, Anglesqueville-l'Esneval",
    "lat": 49.632981,
    "lng": 0.23391,
    "transactions": [
      {
        "date": "2024-07-22",
        "priceEur": 284300,
        "typeLocal": "Maison",
        "surfaceM2": 153,
        "isVefa": false
      }
    ]
  },
  "8b150a32363a": {
    "id": "8b150a32363a",
    "label": "21 RUE DES BROUETTES, Anglesqueville-l'Esneval",
    "lat": 49.634184,
    "lng": 0.231679,
    "transactions": [
      {
        "date": "2025-01-10",
        "priceEur": 275000,
        "typeLocal": "Maison",
        "surfaceM2": 122,
        "isVefa": false
      }
    ]
  }
}