{
  "5e5bc5a7cde8": {
    "id": "5e5bc5a7cde8",
    "label": "7 RUE ANDRE MABIRE, Saint-Martin-du-Manoir",
    "lat": 49.530803,
    "lng": 0.235882,
    "transactions": [
      {
        "date": "2020-09-29",
        "priceEur": 190000,
        "typeLocal": "Maison",
        "surfaceM2": 63,
        "isVefa": false
      }
    ]
  },
  "dc044012fd09": {
    "id": "dc044012fd09",
    "label": "5118 LE BOURG, Saint-Martin-du-Manoir",
    "lat": 49.530957,
    "lng": 0.232631,
    "transactions": [
      {
        "date": "2020-09-30",
        "priceEur": 250000,
        "typeLocal": "Maison",
        "surfaceM2": 89,
        "isVefa": false
      }
    ]
  },
  "6c81b147c37e": {
    "id": "6c81b147c37e",
    "label": "8 CHE DU SAPIN, Saint-Martin-du-Manoir",
    "lat": 49.529861,
    "lng": 0.23426,
    "transactions": [
      {
        "date": "2020-10-05",
        "priceEur": 429000,
        "typeLocal": "Maison",
        "surfaceM2": 157,
        "isVefa": false
      }
    ]
  },
  "e9727228016f": {
    "id": "e9727228016f",
    "label": "9 RUE DE LA VALLEE, Gainneville",
    "lat": 49.52698,
    "lng": 0.238589,
    "transactions": [
      {
        "date": "2022-07-29",
        "priceEur": 165000,
        "typeLocal": "Maison",
        "surfaceM2": 55,
        "isVefa": false
      },
      {
        "date": "2020-10-15",
        "priceEur": 139000,
        "typeLocal": "Maison",
        "surfaceM2": 55,
        "isVefa": false
      }
    ]
  },
  "7a798165399f": {
    "id": "7a798165399f",
    "label": "5225 RES SAINT MARTIN, Saint-Martin-du-Manoir",
    "lat": 49.532233,
    "lng": 0.237926,
    "transactions": [
      {
        "date": "2021-02-26",
        "priceEur": 314000,
        "typeLocal": "Maison",
        "surfaceM2": 104,
        "isVefa": false
      }
    ]
  },
  "7408292b006f": {
    "id": "7408292b006f",
    "label": "8 CHE DU MOULIN, Saint-Martin-du-Manoir",
    "lat": 49.530458,
    "lng": 0.235446,
    "transactions": [
      {
        "date": "2024-06-10",
        "priceEur": 180500,
        "typeLocal": "Maison",
        "surfaceM2": 60,
        "isVefa": false
      },
      {
        "date": "2021-02-26",
        "priceEur": 155000,
        "typeLocal": "Maison",
        "surfaceM2": 60,
        "isVefa": false
      }
    ]
  },
  "882126556ab9": {
    "id": "882126556ab9",
    "label": "5143 LA VALLEE, Saint-Martin-du-Manoir",
    "lat": 49.527779,
    "lng": 0.235419,
    "transactions": [
      {
        "date": "2021-08-20",
        "priceEur": 105000,
        "typeLocal": "Maison",
        "surfaceM2": 48,
        "isVefa": false
      }
    ]
  },
  "a1e1e9baa9c4": {
    "id": "a1e1e9baa9c4",
    "label": "3 CHE DU SAPIN, Saint-Martin-du-Manoir",
    "lat": 49.530361,
    "lng": 0.234935,
    "transactions": [
      {
        "date": "2021-09-30",
        "priceEur": 340000,
        "typeLocal": "Maison",
        "surfaceM2": 123,
        "isVefa": false
      }
    ]
  },
  "15021fdc477d": {
    "id": "15021fdc477d",
    "label": "40 RUE ANDRE MABIRE, Saint-Martin-du-Manoir",
    "lat": 49.531147,
    "lng": 0.241245,
    "transactions": [
      {
        "date": "2021-10-19",
        "priceEur": 242000,
        "typeLocal": "Maison",
        "surfaceM2": 68,
        "isVefa": false
      }
    ]
  },
  "f2947880aaee": {
    "id": "f2947880aaee",
    "label": "10 RTE DE LA CAYENNE, Saint-Martin-du-Manoir",
    "lat": 49.529422,
    "lng": 0.231395,
    "transactions": [
      {
        "date": "2021-11-19",
        "priceEur": 400000,
        "typeLocal": "Maison",
        "surfaceM2": 156,
        "isVefa": false
      }
    ]
  },
  "68338e722843": {
    "id": "68338e722843",
    "label": "21 RUE ANDRE MABIRE, Saint-Martin-du-Manoir",
    "lat": 49.530936,
    "lng": 0.238377,
    "transactions": [
      {
        "date": "2021-12-13",
        "priceEur": 170000,
        "typeLocal": "Maison",
        "surfaceM2": 185,
        "isVefa": false
      }
    ]
  },
  "caf0a5799e95": {
    "id": "caf0a5799e95",
    "label": "29 RES DE LA MAISON BLANCHE, Saint-Martin-du-Manoir",
    "lat": 49.530977,
    "lng": 0.239912,
    "transactions": [
      {
        "date": "2021-12-24",
        "priceEur": 120000,
        "typeLocal": "Maison",
        "surfaceM2": 65,
        "isVefa": false
      }
    ]
  },
  "1d8027eefb64": {
    "id": "1d8027eefb64",
    "label": "22 RES DU MANOIR, Saint-Martin-du-Manoir",
    "lat": 49.532331,
    "lng": 0.235334,
    "transactions": [
      {
        "date": "2022-02-25",
        "priceEur": 258500,
        "typeLocal": "Maison",
        "surfaceM2": 90,
        "isVefa": false
      }
    ]
  },
  "b7bb8f84d4c4": {
    "id": "b7bb8f84d4c4",
    "label": "42 RUE ANDRE MABIRE, Saint-Martin-du-Manoir",
    "lat": 49.531373,
    "lng": 0.241511,
    "transactions": [
      {
        "date": "2022-08-22",
        "priceEur": 335000,
        "typeLocal": "Maison",
        "surfaceM2": 150,
        "isVefa": false
      }
    ]
  },
  "72f0ead6fce8": {
    "id": "72f0ead6fce8",
    "label": "27 RUE ANDRE MABIRE, Saint-Martin-du-Manoir",
    "lat": 49.530779,
    "lng": 0.239155,
    "transactions": [
      {
        "date": "2022-08-30",
        "priceEur": 555000,
        "typeLocal": "Maison",
        "surfaceM2": 290,
        "isVefa": false
      }
    ]
  },
  "9d9a7c5f1831": {
    "id": "9d9a7c5f1831",
    "label": "5158 IMP DE L EGLISE, Saint-Martin-du-Manoir",
    "lat": 49.531718,
    "lng": 0.237521,
    "transactions": [
      {
        "date": "2023-03-03",
        "priceEur": 450010,
        "typeLocal": "Maison",
        "surfaceM2": 216,
        "isVefa": false
      }
    ]
  },
  "1fa438dc3bb2": {
    "id": "1fa438dc3bb2",
    "label": "18 RUE ANDRE MABIRE, Saint-Martin-du-Manoir",
    "lat": 49.531178,
    "lng": 0.237652,
    "transactions": [
      {
        "date": "2023-07-07",
        "priceEur": 268000,
        "typeLocal": "Maison",
        "surfaceM2": 105,
        "isVefa": false
      }
    ]
  },
  "3a2b862cca40": {
    "id": "3a2b862cca40",
    "label": "16 COTE DE GOURNAY, Saint-Martin-du-Manoir",
    "lat": 49.530303,
    "lng": 0.232407,
    "transactions": [
      {
        "date": "2023-08-04",
        "priceEur": 500000,
        "typeLocal": "Maison",
        "surfaceM2": 140,
        "isVefa": false
      }
    ]
  },
  "d5abfdd93d19": {
    "id": "d5abfdd93d19",
    "label": "8 LA RUELLETTE, Saint-Martin-du-Manoir",
    "lat": 49.532279,
    "lng": 0.240581,
    "transactions": [
      {
        "date": "2023-09-07",
        "priceEur": 230500,
        "typeLocal": "Maison",
        "surfaceM2": 86,
        "isVefa": false
      }
    ]
  },
  "38896949c6d9": {
    "id": "38896949c6d9",
    "label": "13 LA ROSELIERE, Saint-Martin-du-Manoir",
    "lat": 49.530939,
    "lng": 0.23075,
    "transactions": [
      {
        "date": "2023-10-26",
        "priceEur": 390000,
        "typeLocal": "Maison",
        "surfaceM2": 164,
        "isVefa": false
      }
    ]
  },
  "5dcedfd96a66": {
    "id": "5dcedfd96a66",
    "label": "27B RES DE LA MAISON BLANCHE, Saint-Martin-du-Manoir",
    "lat": 49.530958,
    "lng": 0.239539,
    "transactions": [
      {
        "date": "2023-12-27",
        "priceEur": 93140,
        "typeLocal": "Maison",
        "surfaceM2": 32,
        "isVefa": false
      }
    ]
  },
  "ef319e20e693": {
    "id": "ef319e20e693",
    "label": "7 RES SAINT MARTIN, Saint-Martin-du-Manoir",
    "lat": 49.532009,
    "lng": 0.237975,
    "transactions": [
      {
        "date": "2024-02-07",
        "priceEur": 260000,
        "typeLocal": "Maison",
        "surfaceM2": 82,
        "isVefa": false
      }
    ]
  },
  "025c53a8f1e7": {
    "id": "025c53a8f1e7",
    "label": "31 RUE ANDRE MABIRE, Saint-Martin-du-Manoir",
    "lat": 49.530467,
    "lng": 0.240551,
    "transactions": [
      {
        "date": "2024-06-28",
        "priceEur": 100000,
        "typeLocal": "Maison",
        "surfaceM2": 42,
        "isVefa": false
      },
      {
        "date": "2024-06-28",
        "priceEur": 100000,
        "typeLocal": "Maison",
        "surfaceM2": 344,
        "isVefa": false
      }
    ]
  }
}