{
  "a496ca4a3826": {
    "id": "a496ca4a3826",
    "label": "18 IMP DU BELVEDERE, Malleville-les-Grès",
    "lat": 49.830394,
    "lng": 0.611042,
    "transactions": [
      {
        "date": "2020-12-18",
        "priceEur": 144000,
        "typeLocal": "Maison",
        "surfaceM2": 110,
        "isVefa": false
      }
    ]
  },
  "3c036174e92d": {
    "id": "3c036174e92d",
    "label": "48 RUE DES CATOUILLETTES, Malleville-les-Grès",
    "lat": 49.829795,
    "lng": 0.608485,
    "transactions": [
      {
        "date": "2021-04-16",
        "priceEur": 216500,
        "typeLocal": "Maison",
        "surfaceM2": 104,
        "isVefa": false
      }
    ]
  },
  "dbe8c3efb89b": {
    "id": "dbe8c3efb89b",
    "label": "100 RUE DU CENTRE, Malleville-les-Grès",
    "lat": 49.829611,
    "lng": 0.608085,
    "transactions": [
      {
        "date": "2021-06-04",
        "priceEur": 295000,
        "typeLocal": "Maison",
        "surfaceM2": 148,
        "isVefa": false
      }
    ]
  },
  "b786587f37c4": {
    "id": "b786587f37c4",
    "label": "29 RUE DE LA BRIQUETTERIE, Malleville-les-Grès",
    "lat": 49.829291,
    "lng": 0.611208,
    "transactions": [
      {
        "date": "2021-06-16",
        "priceEur": 150000,
        "typeLocal": "Maison",
        "surfaceM2": 70,
        "isVefa": false
      }
    ]
  },
  "61a7d1f7df60": {
    "id": "61a7d1f7df60",
    "label": "372 RTE DE PALUEL, Malleville-les-Grès",
    "lat": 49.829016,
    "lng": 0.609889,
    "transactions": [
      {
        "date": "2021-06-28",
        "priceEur": 199500,
        "typeLocal": "Maison",
        "surfaceM2": 118,
        "isVefa": false
      }
    ]
  },
  "ad6548a9697a": {
    "id": "ad6548a9697a",
    "label": "126 IMP DE LA PLAINE, Malleville-les-Grès",
    "lat": 49.827649,
    "lng": 0.607495,
    "transactions": [
      {
        "date": "2021-07-30",
        "priceEur": 275000,
        "typeLocal": "Maison",
        "surfaceM2": 168,
        "isVefa": false
      }
    ]
  },
  "b073592cde8f": {
    "id": "b073592cde8f",
    "label": "55 RUE DE LA BRIQUETTERIE, Malleville-les-Grès",
    "lat": 49.829016,
    "lng": 0.611247,
    "transactions": [
      {
        "date": "2023-05-17",
        "priceEur": 80000,
        "typeLocal": "Maison",
        "surfaceM2": 70,
        "isVefa": false
      }
    ]
  },
  "c37f57c2562c": {
    "id": "c37f57c2562c",
    "label": "47 IMP DE LA COLONIE, Malleville-les-Grès",
    "lat": 49.829134,
    "lng": 0.607006,
    "transactions": [
      {
        "date": "2023-10-19",
        "priceEur": 629200,
        "typeLocal": "Maison",
        "surfaceM2": 350,
        "isVefa": false
      }
    ]
  },
  "64b05b178a44": {
    "id": "64b05b178a44",
    "label": "41 RUE DU CENTRE, Malleville-les-Grès",
    "lat": 49.829201,
    "lng": 0.607531,
    "transactions": [
      {
        "date": "2024-01-12",
        "priceEur": 250000,
        "typeLocal": "Maison",
        "surfaceM2": 148,
        "isVefa": false
      }
    ]
  }
}