{
  "6914227f55c1": {
    "id": "6914227f55c1",
    "label": "45 RTE DE CANY, Ourville-en-Caux",
    "lat": 49.729479,
    "lng": 0.60435,
    "transactions": [
      {
        "date": "2020-09-17",
        "priceEur": 196500,
        "typeLocal": "Maison",
        "surfaceM2": 41,
        "isVefa": false
      },
      {
        "date": "2020-09-17",
        "priceEur": 196500,
        "typeLocal": "Maison",
        "surfaceM2": 210,
        "isVefa": false
      }
    ]
  },
  "e6c68eb7820d": {
    "id": "e6c68eb7820d",
    "label": "4 RUE DES ANCIENS COMBATTANTS, Ourville-en-Caux",
    "lat": 49.727929,
    "lng": 0.607028,
    "transactions": [
      {
        "date": "2020-12-10",
        "priceEur": 300000,
        "typeLocal": "Maison",
        "surfaceM2": 165,
        "isVefa": false
      }
    ]
  },
  "2f545946c0d3": {
    "id": "2f545946c0d3",
    "label": "3 RUE DE LA PAIX, Ourville-en-Caux",
    "lat": 49.727321,
    "lng": 0.609321,
    "transactions": [
      {
        "date": "2021-12-15",
        "priceEur": 148000,
        "typeLocal": "Maison",
        "surfaceM2": 68,
        "isVefa": false
      }
    ]
  },
  "c420064d9ceb": {
    "id": "c420064d9ceb",
    "label": "181 RUE DE LA FLAMMECHE, Ourville-en-Caux",
    "lat": 49.725836,
    "lng": 0.608929,
    "transactions": [
      {
        "date": "2022-03-28",
        "priceEur": 267000,
        "typeLocal": "Maison",
        "surfaceM2": 120,
        "isVefa": false
      }
    ]
  },
  "25614364cf03": {
    "id": "25614364cf03",
    "label": "2 RUE DE LA PAIX, Ourville-en-Caux",
    "lat": 49.727288,
    "lng": 0.609763,
    "transactions": [
      {
        "date": "2024-10-09",
        "priceEur": 177100,
        "typeLocal": "Maison",
        "surfaceM2": 88,
        "isVefa": false
      },
      {
        "date": "2022-05-12",
        "priceEur": 186300,
        "typeLocal": "Maison",
        "surfaceM2": 88,
        "isVefa": false
      }
    ]
  },
  "e28a083618e0": {
    "id": "e28a083618e0",
    "label": "2 IMP DU LEVANT, Ourville-en-Caux",
    "lat": 49.726969,
    "lng": 0.608203,
    "transactions": [
      {
        "date": "2022-05-31",
        "priceEur": 75000,
        "typeLocal": "Maison",
        "surfaceM2": 67,
        "isVefa": false
      }
    ]
  },
  "9224c6953f8c": {
    "id": "9224c6953f8c",
    "label": "6 IMP DU PONANT, Ourville-en-Caux",
    "lat": 49.726599,
    "lng": 0.607434,
    "transactions": [
      {
        "date": "2022-06-27",
        "priceEur": 125100,
        "typeLocal": "Maison",
        "surfaceM2": 62,
        "isVefa": false
      }
    ]
  },
  "9c9a98e849a5": {
    "id": "9c9a98e849a5",
    "label": "16 RUE SAINT LAURENT, Ourville-en-Caux",
    "lat": 49.726486,
    "lng": 0.60956,
    "transactions": [
      {
        "date": "2022-06-21",
        "priceEur": 242000,
        "typeLocal": "Maison",
        "surfaceM2": 144,
        "isVefa": false
      }
    ]
  },
  "8767c9a85042": {
    "id": "8767c9a85042",
    "label": "8 RUE DE LA PAIX, Ourville-en-Caux",
    "lat": 49.727782,
    "lng": 0.61019,
    "transactions": [
      {
        "date": "2022-07-11",
        "priceEur": 146000,
        "typeLocal": "Maison",
        "surfaceM2": 73,
        "isVefa": false
      }
    ]
  },
  "ab5f3606ec09": {
    "id": "ab5f3606ec09",
    "label": "11B CRS DU CHESNAY, Ourville-en-Caux",
    "lat": 49.727401,
    "lng": 0.611553,
    "transactions": [
      {
        "date": "2022-07-25",
        "priceEur": 113000,
        "typeLocal": "Maison",
        "surfaceM2": 90,
        "isVefa": false
      }
    ]
  },
  "cf36c6a06e84": {
    "id": "cf36c6a06e84",
    "label": "2 RUE SAINT LAURENT, Ourville-en-Caux",
    "lat": 49.726955,
    "lng": 0.60756,
    "transactions": [
      {
        "date": "2022-11-28",
        "priceEur": 140000,
        "typeLocal": "Maison",
        "surfaceM2": 120,
        "isVefa": false
      }
    ]
  },
  "1ea12d7b90f1": {
    "id": "1ea12d7b90f1",
    "label": "5 RUE DES ANCIENS COMBATTANTS, Ourville-en-Caux",
    "lat": 49.72811,
    "lng": 0.607186,
    "transactions": [
      {
        "date": "2023-10-04",
        "priceEur": 130000,
        "typeLocal": "Maison",
        "surfaceM2": 35,
        "isVefa": false
      }
    ]
  },
  "a7a0cf86c83b": {
    "id": "a7a0cf86c83b",
    "label": "2 RES DE LA MAIRIE, Ourville-en-Caux",
    "lat": 49.730452,
    "lng": 0.60543,
    "transactions": [
      {
        "date": "2024-01-04",
        "priceEur": 107000,
        "typeLocal": "Maison",
        "surfaceM2": 76,
        "isVefa": false
      }
    ]
  },
  "ab917bc1aade": {
    "id": "ab917bc1aade",
    "label": "16 PL JEAN LEPICARD, Ourville-en-Caux",
    "lat": 49.728696,
    "lng": 0.604974,
    "transactions": [
      {
        "date": "2024-06-17",
        "priceEur": 64500,
        "typeLocal": "Maison",
        "surfaceM2": 60,
        "isVefa": false
      }
    ]
  },
  "6443d1aa965e": {
    "id": "6443d1aa965e",
    "label": "50A RTE DE FAUVILLE, Ourville-en-Caux",
    "lat": 49.728904,
    "lng": 0.606148,
    "transactions": [
      {
        "date": "2024-09-05",
        "priceEur": 170000,
        "typeLocal": "Maison",
        "surfaceM2": 140,
        "isVefa": false
      }
    ]
  },
  "02e9d4a94cf9": {
    "id": "02e9d4a94cf9",
    "label": "2 RES GUY DE MAUPASSANT, Ourville-en-Caux",
    "lat": 49.730446,
    "lng": 0.606574,
    "transactions": [
      {
        "date": "2024-10-31",
        "priceEur": 95000,
        "typeLocal": "Maison",
        "surfaceM2": 61,
        "isVefa": false
      }
    ]
  },
  "9432c5e2fc59": {
    "id": "9432c5e2fc59",
    "label": "5 RES GUY DE MAUPASSANT, Ourville-en-Caux",
    "lat": 49.730789,
    "lng": 0.606214,
    "transactions": [
      {
        "date": "2024-11-29",
        "priceEur": 105000,
        "typeLocal": "Maison",
        "surfaceM2": 74,
        "isVefa": false
      }
    ]
  },
  "4c5cd428fbd9": {
    "id": "4c5cd428fbd9",
    "label": "2 IMP DU PONANT, Ourville-en-Caux",
    "lat": 49.726788,
    "lng": 0.607728,
    "transactions": [
      {
        "date": "2025-03-13",
        "priceEur": 95000,
        "typeLocal": "Maison",
        "surfaceM2": 49,
        "isVefa": false
      }
    ]
  },
  "d39ce76beda8": {
    "id": "d39ce76beda8",
    "label": "13 PL JEAN LEPICARD, Ourville-en-Caux",
    "lat": 49.728452,
    "lng": 0.604974,
    "transactions": [
      {
        "date": "2025-05-23",
        "priceEur": 97000,
        "typeLocal": "Maison",
        "surfaceM2": 155,
        "isVefa": false
      }
    ]
  }
}