{
  "8665d4a4aa11": {
    "id": "8665d4a4aa11",
    "label": "2B IMP ODET SORET, Terres-de-Caux",
    "lat": 49.639112,
    "lng": 0.607909,
    "transactions": [
      {
        "date": "2020-07-09",
        "priceEur": 152000,
        "typeLocal": "Maison",
        "surfaceM2": 88,
        "isVefa": false
      }
    ]
  },
  "5ebce1244cc4": {
    "id": "5ebce1244cc4",
    "label": "6 IMP DES PINSONS - RICARVILLE, Terres-de-Caux",
    "lat": 49.636858,
    "lng": 0.608513,
    "transactions": [
      {
        "date": "2021-12-01",
        "priceEur": 128500,
        "typeLocal": "Maison",
        "surfaceM2": 82,
        "isVefa": false
      }
    ]
  },
  "70ed13bc2d42": {
    "id": "70ed13bc2d42",
    "label": "6 RUE DU PUITS D AVRIL, Terres-de-Caux",
    "lat": 49.636911,
    "lng": 0.608124,
    "transactions": [
      {
        "date": "2022-04-07",
        "priceEur": 175000,
        "typeLocal": "Maison",
        "surfaceM2": 99,
        "isVefa": false
      }
    ]
  },
  "cccf3e0dd589": {
    "id": "cccf3e0dd589",
    "label": "7 RUE DU PUITS D AVRIL, Terres-de-Caux",
    "lat": 49.637912,
    "lng": 0.608036,
    "transactions": [
      {
        "date": "2022-05-20",
        "priceEur": 148000,
        "typeLocal": "Maison",
        "surfaceM2": 90,
        "isVefa": false
      }
    ]
  },
  "0de4039bbdc0": {
    "id": "0de4039bbdc0",
    "label": "8 RUE DE LA HETRAIE, Terres-de-Caux",
    "lat": 49.637309,
    "lng": 0.607401,
    "transactions": [
      {
        "date": "2022-06-17",
        "priceEur": 148000,
        "typeLocal": "Maison",
        "surfaceM2": 57,
        "isVefa": false
      }
    ]
  },
  "eba4a5f9c941": {
    "id": "eba4a5f9c941",
    "label": "1C RUE DU BOUT ENRAGE, Terres-de-Caux",
    "lat": 49.634816,
    "lng": 0.604298,
    "transactions": [
      {
        "date": "2022-06-22",
        "priceEur": 285000,
        "typeLocal": "Maison",
        "surfaceM2": 126,
        "isVefa": false
      }
    ]
  },
  "39e5b509d80c": {
    "id": "39e5b509d80c",
    "label": "1 IMP DU PUITS D AVRIL, Terres-de-Caux",
    "lat": 49.63879,
    "lng": 0.608517,
    "transactions": [
      {
        "date": "2022-10-26",
        "priceEur": 142000,
        "typeLocal": "Maison",
        "surfaceM2": 81,
        "isVefa": false
      }
    ]
  },
  "3781afb6198d": {
    "id": "3781afb6198d",
    "label": "2 PL RAYMOND SOUDAIS - RICARVIL, Terres-de-Caux",
    "lat": 49.634758,
    "lng": 0.607287,
    "transactions": [
      {
        "date": "2025-04-22",
        "priceEur": 178000,
        "typeLocal": "Maison",
        "surfaceM2": 65,
        "isVefa": false
      },
      {
        "date": "2024-01-25",
        "priceEur": 180000,
        "typeLocal": "Maison",
        "surfaceM2": 65,
        "isVefa": false
      }
    ]
  },
  "99815b6d22a6": {
    "id": "99815b6d22a6",
    "label": "3 RUE DU CARREAU, Terres-de-Caux",
    "lat": 49.638645,
    "lng": 0.60825,
    "transactions": [
      {
        "date": "2024-04-29",
        "priceEur": 60000,
        "typeLocal": "Maison",
        "surfaceM2": 74,
        "isVefa": false
      }
    ]
  },
  "c8ffe48893ac": {
    "id": "c8ffe48893ac",
    "label": "6 PL RAYMOND SOUDAIS - RICARVIL, Terres-de-Caux",
    "lat": 49.635132,
    "lng": 0.607135,
    "transactions": [
      {
        "date": "2024-08-28",
        "priceEur": 135000,
        "typeLocal": "Maison",
        "surfaceM2": 90,
        "isVefa": false
      }
    ]
  },
  "ec80d81b16b5": {
    "id": "ec80d81b16b5",
    "label": "1 IMP DU PRIEURE - RICARVILLE, Terres-de-Caux",
    "lat": 49.637469,
    "lng": 0.608345,
    "transactions": [
      {
        "date": "2024-11-19",
        "priceEur": 231000,
        "typeLocal": "Maison",
        "surfaceM2": 112,
        "isVefa": false
      }
    ]
  },
  "2c6737983263": {
    "id": "2c6737983263",
    "label": "9 LOTISSEMENT DE LA HETRAIE, Terres-de-Caux",
    "lat": 49.636322,
    "lng": 0.606324,
    "transactions": [
      {
        "date": "2024-12-26",
        "priceEur": 98000,
        "typeLocal": "Maison",
        "surfaceM2": 67,
        "isVefa": false
      }
    ]
  }
}