{
  "48915b40b997": {
    "id": "48915b40b997",
    "label": "4 IMP DE LA RAMPE, Portiragnes",
    "lat": 43.303884,
    "lng": 3.335105,
    "transactions": [
      {
        "date": "2024-11-20",
        "priceEur": 71250,
        "typeLocal": "Appartement",
        "surfaceM2": 26,
        "isVefa": false
      },
      {
        "date": "2020-07-23",
        "priceEur": 53228,
        "typeLocal": "Appartement",
        "surfaceM2": 26,
        "isVefa": false
      }
    ]
  },
  "70413221b728": {
    "id": "70413221b728",
    "label": "9 CHE DE LA PROCESSION, Portiragnes",
    "lat": 43.308329,
    "lng": 3.339222,
    "transactions": [
      {
        "date": "2020-08-03",
        "priceEur": 226000,
        "typeLocal": "Maison",
        "surfaceM2": 85,
        "isVefa": false
      }
    ]
  },
  "370257028460": {
    "id": "370257028460",
    "label": "1 RUE LA BRUYERE, Portiragnes",
    "lat": 43.302205,
    "lng": 3.339093,
    "transactions": [
      {
        "date": "2020-09-29",
        "priceEur": 345000,
        "typeLocal": "Maison",
        "surfaceM2": 102,
        "isVefa": false
      }
    ]
  },
  "d953d0d0cb5c": {
    "id": "d953d0d0cb5c",
    "label": "6B AV JEAN MOULIN, Portiragnes",
    "lat": 43.303367,
    "lng": 3.332596,
    "transactions": [
      {
        "date": "2024-04-18",
        "priceEur": 99000,
        "typeLocal": "Appartement",
        "surfaceM2": 34,
        "isVefa": false
      },
      {
        "date": "2024-03-20",
        "priceEur": 125000,
        "typeLocal": "Appartement",
        "surfaceM2": 50,
        "isVefa": false
      },
      {
        "date": "2023-06-16",
        "priceEur": 129000,
        "typeLocal": "Appartement",
        "surfaceM2": 54,
        "isVefa": false
      },
      {
        "date": "2022-12-20",
        "priceEur": 150000,
        "typeLocal": "Appartement",
        "surfaceM2": 61,
        "isVefa": false
      },
      {
        "date": "2022-09-19",
        "priceEur": 143200,
        "typeLocal": "Appartement",
        "surfaceM2": 72,
        "isVefa": false
      },
      {
        "date": "2022-02-18",
        "priceEur": 136000,
        "typeLocal": "Appartement",
        "surfaceM2": 74,
        "isVefa": false
      },
      {
        "date": "2021-10-18",
        "priceEur": 121050,
        "typeLocal": "Appartement",
        "surfaceM2": 57,
        "isVefa": false
      },
      {
        "date": "2021-07-16",
        "priceEur": 120000,
        "typeLocal": "Appartement",
        "surfaceM2": 68,
        "isVefa": false
      },
      {
        "date": "2020-09-30",
        "priceEur": 119000,
        "typeLocal": "Appartement",
        "surfaceM2": 47,
        "isVefa": false
      }
    ]
  },
  "2f4e3b71ce65": {
    "id": "2f4e3b71ce65",
    "label": "9 AV JEAN MOULIN, Portiragnes",
    "lat": 43.303462,
    "lng": 3.333863,
    "transactions": [
      {
        "date": "2020-10-15",
        "priceEur": 230000,
        "typeLocal": "Maison",
        "surfaceM2": 76,
        "isVefa": false
      }
    ]
  },
  "d565e469a667": {
    "id": "d565e469a667",
    "label": "1 IMP PHILIPPE LAMOUR, Portiragnes",
    "lat": 43.306564,
    "lng": 3.331401,
    "transactions": [
      {
        "date": "2020-11-19",
        "priceEur": 300000,
        "typeLocal": "Maison",
        "surfaceM2": 98,
        "isVefa": false
      },
      {
        "date": "2020-11-19",
        "priceEur": 300000,
        "typeLocal": "Maison",
        "surfaceM2": 98,
        "isVefa": false
      }
    ]
  },
  "846169011a57": {
    "id": "846169011a57",
    "label": "5 RUE ROGER ALQUIER, Portiragnes",
    "lat": 43.305967,
    "lng": 3.337059,
    "transactions": [
      {
        "date": "2020-11-10",
        "priceEur": 263000,
        "typeLocal": "Maison",
        "surfaceM2": 104,
        "isVefa": false
      }
    ]
  },
  "5613ebbf6c3e": {
    "id": "5613ebbf6c3e",
    "label": "5 RUE DES BASSINS, Portiragnes",
    "lat": 43.30669,
    "lng": 3.335441,
    "transactions": [
      {
        "date": "2020-11-03",
        "priceEur": 686670,
        "typeLocal": "Maison",
        "surfaceM2": 123,
        "isVefa": false
      },
      {
        "date": "2020-11-03",
        "priceEur": 686670,
        "typeLocal": "Maison",
        "surfaceM2": 123,
        "isVefa": false
      }
    ]
  },
  "e239a67cf4c8": {
    "id": "e239a67cf4c8",
    "label": "2B RUE DES ECOLES, Portiragnes",
    "lat": 43.304041,
    "lng": 3.333922,
    "transactions": [
      {
        "date": "2023-04-21",
        "priceEur": 270000,
        "typeLocal": "Maison",
        "surfaceM2": 58,
        "isVefa": false
      },
      {
        "date": "2020-12-03",
        "priceEur": 180000,
        "typeLocal": "Maison",
        "surfaceM2": 58,
        "isVefa": false
      }
    ]
  },
  "3e696d2baff1": {
    "id": "3e696d2baff1",
    "label": "10 RUE PIERRE ET MARIE CURIE, Portiragnes",
    "lat": 43.306115,
    "lng": 3.333829,
    "transactions": [
      {
        "date": "2022-09-30",
        "priceEur": 260000,
        "typeLocal": "Maison",
        "surfaceM2": 105,
        "isVefa": false
      },
      {
        "date": "2020-11-27",
        "priceEur": 223000,
        "typeLocal": "Maison",
        "surfaceM2": 105,
        "isVefa": false
      }
    ]
  },
  "37df65968415": {
    "id": "37df65968415",
    "label": "4 RUE DE LA CAVE, Portiragnes",
    "lat": 43.303065,
    "lng": 3.336204,
    "transactions": [
      {
        "date": "2020-12-17",
        "priceEur": 180800,
        "typeLocal": "Maison",
        "surfaceM2": 70,
        "isVefa": false
      }
    ]
  },
  "302c4d2a3d3e": {
    "id": "302c4d2a3d3e",
    "label": "5 RUE DU FOUR BANAL, Portiragnes",
    "lat": 43.304025,
    "lng": 3.335798,
    "transactions": [
      {
        "date": "2023-08-22",
        "priceEur": 262000,
        "typeLocal": "Maison",
        "surfaceM2": 60,
        "isVefa": false
      },
      {
        "date": "2023-08-22",
        "priceEur": 262000,
        "typeLocal": "Maison",
        "surfaceM2": 30,
        "isVefa": false
      },
      {
        "date": "2020-12-18",
        "priceEur": 184500,
        "typeLocal": "Maison",
        "surfaceM2": 60,
        "isVefa": false
      },
      {
        "date": "2020-12-18",
        "priceEur": 184500,
        "typeLocal": "Maison",
        "surfaceM2": 30,
        "isVefa": false
      }
    ]
  },
  "75f784ae9f03": {
    "id": "75f784ae9f03",
    "label": "30 RUE LOUIS BUFFON, Portiragnes",
    "lat": 43.301695,
    "lng": 3.338812,
    "transactions": [
      {
        "date": "2021-01-08",
        "priceEur": 372000,
        "typeLocal": "Maison",
        "surfaceM2": 119,
        "isVefa": false
      }
    ]
  },
  "d45d1af09296": {
    "id": "d45d1af09296",
    "label": "20 RUE PIERRE ET MARIE CURIE, Portiragnes",
    "lat": 43.305939,
    "lng": 3.332826,
    "transactions": [
      {
        "date": "2021-01-21",
        "priceEur": 243000,
        "typeLocal": "Maison",
        "surfaceM2": 88,
        "isVefa": false
      }
    ]
  },
  "7571bfa27e9d": {
    "id": "7571bfa27e9d",
    "label": "6B AV DU GENERAL DE GAULLE, Portiragnes",
    "lat": 43.306914,
    "lng": 3.337257,
    "transactions": [
      {
        "date": "2021-01-13",
        "priceEur": 307000,
        "typeLocal": "Maison",
        "surfaceM2": 93,
        "isVefa": false
      }
    ]
  },
  "069856f522d7": {
    "id": "069856f522d7",
    "label": "5 RUE JEAN DE LA FONTAINE, Portiragnes",
    "lat": 43.303193,
    "lng": 3.338483,
    "transactions": [
      {
        "date": "2021-01-18",
        "priceEur": 247590,
        "typeLocal": "Maison",
        "surfaceM2": 105,
        "isVefa": false
      }
    ]
  },
  "dac4a11f97d4": {
    "id": "dac4a11f97d4",
    "label": "7 RUE DE LA PINEDE, Portiragnes",
    "lat": 43.305304,
    "lng": 3.330527,
    "transactions": [
      {
        "date": "2021-01-27",
        "priceEur": 347000,
        "typeLocal": "Maison",
        "surfaceM2": 95,
        "isVefa": false
      }
    ]
  },
  "92c21fc4db73": {
    "id": "92c21fc4db73",
    "label": "1 RUE DES MIMOSAS, Portiragnes",
    "lat": 43.302908,
    "lng": 3.337132,
    "transactions": [
      {
        "date": "2021-03-04",
        "priceEur": 180000,
        "typeLocal": "Maison",
        "surfaceM2": 79,
        "isVefa": false
      }
    ]
  },
  "66534867fd36": {
    "id": "66534867fd36",
    "label": "9 LES TERRES DE PORTIRAGNES, Portiragnes",
    "lat": 43.305276,
    "lng": 3.334111,
    "transactions": [
      {
        "date": "2021-03-11",
        "priceEur": 150000,
        "typeLocal": "Maison",
        "surfaceM2": 102,
        "isVefa": false
      }
    ]
  },
  "8a92ba3bc529": {
    "id": "8a92ba3bc529",
    "label": "18 RUE DE LA TOUR, Portiragnes",
    "lat": 43.304733,
    "lng": 3.335831,
    "transactions": [
      {
        "date": "2021-03-12",
        "priceEur": 120000,
        "typeLocal": "Maison",
        "surfaceM2": 50,
        "isVefa": false
      }
    ]
  },
  "2d444c61ad9a": {
    "id": "2d444c61ad9a",
    "label": "12 RUE DU DUCHARTRE, Portiragnes",
    "lat": 43.303421,
    "lng": 3.335853,
    "transactions": [
      {
        "date": "2021-04-22",
        "priceEur": 77000,
        "typeLocal": "Maison",
        "surfaceM2": 55,
        "isVefa": false
      }
    ]
  },
  "476d56aceafd": {
    "id": "476d56aceafd",
    "label": "24 RUE PIERRE ET MARIE CURIE, Portiragnes",
    "lat": 43.305866,
    "lng": 3.333118,
    "transactions": [
      {
        "date": "2021-03-31",
        "priceEur": 177000,
        "typeLocal": "Maison",
        "surfaceM2": 88,
        "isVefa": false
      }
    ]
  },
  "a328f1a96f08": {
    "id": "a328f1a96f08",
    "label": "3 RUE DU CHARRON, Portiragnes",
    "lat": 43.303059,
    "lng": 3.33579,
    "transactions": [
      {
        "date": "2021-05-07",
        "priceEur": 67000,
        "typeLocal": "Maison",
        "surfaceM2": 60,
        "isVefa": false
      }
    ]
  },
  "519ecc295e6e": {
    "id": "519ecc295e6e",
    "label": "6 RUE RENE GLAUSSEL, Portiragnes",
    "lat": 43.30475,
    "lng": 3.337965,
    "transactions": [
      {
        "date": "2021-06-11",
        "priceEur": 347000,
        "typeLocal": "Maison",
        "surfaceM2": 120,
        "isVefa": false
      }
    ]
  },
  "b3b623cd162c": {
    "id": "b3b623cd162c",
    "label": "12 RUE ROGER ALQUIER, Portiragnes",
    "lat": 43.305828,
    "lng": 3.336263,
    "transactions": [
      {
        "date": "2021-06-22",
        "priceEur": 283000,
        "typeLocal": "Maison",
        "surfaceM2": 124,
        "isVefa": false
      }
    ]
  },
  "96b1017869ae": {
    "id": "96b1017869ae",
    "label": "13 RUE DES BASSINS, Portiragnes",
    "lat": 43.307692,
    "lng": 3.33477,
    "transactions": [
      {
        "date": "2021-07-29",
        "priceEur": 470000,
        "typeLocal": "Maison",
        "surfaceM2": 150,
        "isVefa": false
      }
    ]
  },
  "2f32cc1ebb80": {
    "id": "2f32cc1ebb80",
    "label": "5921 IMP DE LA COQUILLE, Portiragnes",
    "lat": 43.303313,
    "lng": 3.335385,
    "transactions": [
      {
        "date": "2021-07-30",
        "priceEur": 112000,
        "typeLocal": "Maison",
        "surfaceM2": 45,
        "isVefa": false
      }
    ]
  },
  "c497386fa0d5": {
    "id": "c497386fa0d5",
    "label": "15 RUE PIERRE ALENGRY, Portiragnes",
    "lat": 43.306339,
    "lng": 3.33838,
    "transactions": [
      {
        "date": "2021-07-17",
        "priceEur": 333420,
        "typeLocal": "Maison",
        "surfaceM2": 120,
        "isVefa": false
      }
    ]
  },
  "06f53722c2dd": {
    "id": "06f53722c2dd",
    "label": "20 RUE PIERRE ALENGRY, Portiragnes",
    "lat": 43.305967,
    "lng": 3.33831,
    "transactions": [
      {
        "date": "2021-08-23",
        "priceEur": 284000,
        "typeLocal": "Maison",
        "surfaceM2": 90,
        "isVefa": false
      }
    ]
  },
  "959976e6e87c": {
    "id": "959976e6e87c",
    "label": "1 IMP DES POILUS DE 1914, Portiragnes",
    "lat": 43.303581,
    "lng": 3.337044,
    "transactions": [
      {
        "date": "2021-08-27",
        "priceEur": 185000,
        "typeLocal": "Maison",
        "surfaceM2": 91,
        "isVefa": false
      }
    ]
  },
  "a9819d634361": {
    "id": "a9819d634361",
    "label": "2 RUE DE LA HALLE, Portiragnes",
    "lat": 43.303871,
    "lng": 3.335464,
    "transactions": [
      {
        "date": "2021-09-02",
        "priceEur": 70000,
        "typeLocal": "Maison",
        "surfaceM2": 50,
        "isVefa": false
      }
    ]
  },
  "c7907790dbe6": {
    "id": "c7907790dbe6",
    "label": "5 RUE PASSE VITE, Portiragnes",
    "lat": 43.30426,
    "lng": 3.335139,
    "transactions": [
      {
        "date": "2021-09-17",
        "priceEur": 153970,
        "typeLocal": "Maison",
        "surfaceM2": 97,
        "isVefa": false
      }
    ]
  },
  "6643685aa06a": {
    "id": "6643685aa06a",
    "label": "4 RUE FRANCOIS MITTERRAND, Portiragnes",
    "lat": 43.302857,
    "lng": 3.338242,
    "transactions": [
      {
        "date": "2021-10-01",
        "priceEur": 267000,
        "typeLocal": "Maison",
        "surfaceM2": 90,
        "isVefa": false
      }
    ]
  },
  "22cd3e12f89a": {
    "id": "22cd3e12f89a",
    "label": "3T AV DU GENERAL DE GAULLE, Portiragnes",
    "lat": 43.305683,
    "lng": 3.335356,
    "transactions": [
      {
        "date": "2021-10-18",
        "priceEur": 503129,
        "typeLocal": "Maison",
        "surfaceM2": 150,
        "isVefa": false
      }
    ]
  },
  "75c441f5fe2e": {
    "id": "75c441f5fe2e",
    "label": "2 RUE LA BRUYERE, Portiragnes",
    "lat": 43.302614,
    "lng": 3.339449,
    "transactions": [
      {
        "date": "2021-10-28",
        "priceEur": 254450,
        "typeLocal": "Maison",
        "surfaceM2": 90,
        "isVefa": false
      }
    ]
  },
  "9a586a4ad630": {
    "id": "9a586a4ad630",
    "label": "12B RUE DE LA CARRIERETTE, Portiragnes",
    "lat": 43.301937,
    "lng": 3.33413,
    "transactions": [
      {
        "date": "2021-11-12",
        "priceEur": 318000,
        "typeLocal": "Maison",
        "surfaceM2": 110,
        "isVefa": false
      }
    ]
  },
  "81b1dc98807d": {
    "id": "81b1dc98807d",
    "label": "12 RUE PASTEUR, Portiragnes",
    "lat": 43.305237,
    "lng": 3.3324,
    "transactions": [
      {
        "date": "2021-11-12",
        "priceEur": 240000,
        "typeLocal": "Maison",
        "surfaceM2": 85,
        "isVefa": false
      }
    ]
  },
  "7bb424a6e812": {
    "id": "7bb424a6e812",
    "label": "3 IMP LAVOISIER, Portiragnes",
    "lat": 43.304993,
    "lng": 3.333186,
    "transactions": [
      {
        "date": "2021-11-23",
        "priceEur": 185000,
        "typeLocal": "Maison",
        "surfaceM2": 85,
        "isVefa": false
      }
    ]
  },
  "814bbca2f44d": {
    "id": "814bbca2f44d",
    "label": "1 PL DE LA LIBERATION, Portiragnes",
    "lat": 43.303745,
    "lng": 3.334357,
    "transactions": [
      {
        "date": "2021-12-03",
        "priceEur": 160000,
        "typeLocal": "Appartement",
        "surfaceM2": 76,
        "isVefa": false
      }
    ]
  },
  "02d7fdc8bc7f": {
    "id": "02d7fdc8bc7f",
    "label": "2 RUE RACINE, Portiragnes",
    "lat": 43.302424,
    "lng": 3.33891,
    "transactions": [
      {
        "date": "2021-12-17",
        "priceEur": 169800,
        "typeLocal": "Maison",
        "surfaceM2": 95,
        "isVefa": false
      }
    ]
  },
  "62790c7099ba": {
    "id": "62790c7099ba",
    "label": "1 RUE JEAN DE LA FONTAINE, Portiragnes",
    "lat": 43.303128,
    "lng": 3.337904,
    "transactions": [
      {
        "date": "2021-12-09",
        "priceEur": 166551,
        "typeLocal": "Maison",
        "surfaceM2": 129,
        "isVefa": false
      }
    ]
  },
  "0eee92f90921": {
    "id": "0eee92f90921",
    "label": "2 RUE DES MIMOSAS, Portiragnes",
    "lat": 43.30275,
    "lng": 3.336934,
    "transactions": [
      {
        "date": "2022-01-26",
        "priceEur": 160000,
        "typeLocal": "Maison",
        "surfaceM2": 75,
        "isVefa": false
      }
    ]
  },
  "a87a5e654b2b": {
    "id": "a87a5e654b2b",
    "label": "1 IMP DE L'ALICANTE, Portiragnes",
    "lat": 43.306959,
    "lng": 3.332624,
    "transactions": [
      {
        "date": "2022-02-18",
        "priceEur": 479500,
        "typeLocal": "Maison",
        "surfaceM2": 169,
        "isVefa": false
      }
    ]
  },
  "30fd00e28040": {
    "id": "30fd00e28040",
    "label": "9T CHE DE COMBE GRASSE, Portiragnes",
    "lat": 43.308485,
    "lng": 3.330797,
    "transactions": [
      {
        "date": "2022-02-16",
        "priceEur": 476350,
        "typeLocal": "Maison",
        "surfaceM2": 149,
        "isVefa": false
      }
    ]
  },
  "b44f233563d2": {
    "id": "b44f233563d2",
    "label": "7 CHE DE LA PROCESSION, Portiragnes",
    "lat": 43.308167,
    "lng": 3.338877,
    "transactions": [
      {
        "date": "2022-02-18",
        "priceEur": 290000,
        "typeLocal": "Maison",
        "surfaceM2": 95,
        "isVefa": false
      }
    ]
  },
  "57f544949af2": {
    "id": "57f544949af2",
    "label": "5 RUE LA BRUYERE, Portiragnes",
    "lat": 43.302347,
    "lng": 3.339565,
    "transactions": [
      {
        "date": "2023-07-26",
        "priceEur": 370000,
        "typeLocal": "Maison",
        "surfaceM2": 103,
        "isVefa": false
      },
      {
        "date": "2022-03-03",
        "priceEur": 340000,
        "typeLocal": "Maison",
        "surfaceM2": 103,
        "isVefa": false
      }
    ]
  },
  "67a8f481cc81": {
    "id": "67a8f481cc81",
    "label": "2B AV RAOUL CALAS, Portiragnes",
    "lat": 43.304456,
    "lng": 3.334345,
    "transactions": [
      {
        "date": "2022-03-21",
        "priceEur": 426850,
        "typeLocal": "Maison",
        "surfaceM2": 131,
        "isVefa": false
      }
    ]
  },
  "053593d019a3": {
    "id": "053593d019a3",
    "label": "10 RUE DES ANCIENS COMBATTANTS, Portiragnes",
    "lat": 43.303334,
    "lng": 3.336797,
    "transactions": [
      {
        "date": "2022-03-31",
        "priceEur": 48000,
        "typeLocal": "Maison",
        "surfaceM2": 35,
        "isVefa": false
      }
    ]
  },
  "6520122fd2f9": {
    "id": "6520122fd2f9",
    "label": "5 IMP LAVOISIER, Portiragnes",
    "lat": 43.304976,
    "lng": 3.333321,
    "transactions": [
      {
        "date": "2022-04-06",
        "priceEur": 240000,
        "typeLocal": "Maison",
        "surfaceM2": 100,
        "isVefa": false
      }
    ]
  },
  "f254a118077e": {
    "id": "f254a118077e",
    "label": "6 RUE DE L EGLISE, Portiragnes",
    "lat": 43.303272,
    "lng": 3.335004,
    "transactions": [
      {
        "date": "2022-12-23",
        "priceEur": 255436,
        "typeLocal": "Appartement",
        "surfaceM2": 103,
        "isVefa": false
      },
      {
        "date": "2022-04-15",
        "priceEur": 225801,
        "typeLocal": "Appartement",
        "surfaceM2": 103,
        "isVefa": false
      }
    ]
  },
  "8e418fbcfab2": {
    "id": "8e418fbcfab2",
    "label": "13 RUE DU VIEUX PUITS, Portiragnes",
    "lat": 43.304387,
    "lng": 3.335608,
    "transactions": [
      {
        "date": "2022-04-20",
        "priceEur": 160000,
        "typeLocal": "Appartement",
        "surfaceM2": 45,
        "isVefa": false
      },
      {
        "date": "2022-04-20",
        "priceEur": 160000,
        "typeLocal": "Appartement",
        "surfaceM2": 41,
        "isVefa": false
      },
      {
        "date": "2022-04-20",
        "priceEur": 160000,
        "typeLocal": "Appartement",
        "surfaceM2": 49,
        "isVefa": false
      }
    ]
  },
  "1d9e8cf9d361": {
    "id": "1d9e8cf9d361",
    "label": "14 AV DE LA REDOUTE PLAGE, Portiragnes",
    "lat": 43.301773,
    "lng": 3.33589,
    "transactions": [
      {
        "date": "2022-04-29",
        "priceEur": 184000,
        "typeLocal": "Maison",
        "surfaceM2": 86,
        "isVefa": false
      }
    ]
  },
  "eb5134f26618": {
    "id": "eb5134f26618",
    "label": "23 RUE PIERRE ALENGRY, Portiragnes",
    "lat": 43.30659,
    "lng": 3.337326,
    "transactions": [
      {
        "date": "2022-05-25",
        "priceEur": 310000,
        "typeLocal": "Maison",
        "surfaceM2": 88,
        "isVefa": false
      }
    ]
  },
  "19507349fe4e": {
    "id": "19507349fe4e",
    "label": "3 IMP DE LA RAMPE, Portiragnes",
    "lat": 43.303948,
    "lng": 3.335253,
    "transactions": [
      {
        "date": "2022-06-28",
        "priceEur": 109000,
        "typeLocal": "Maison",
        "surfaceM2": 64,
        "isVefa": false
      }
    ]
  },
  "c79aa24b631c": {
    "id": "c79aa24b631c",
    "label": "3 RUE PASSE VITE, Portiragnes",
    "lat": 43.304204,
    "lng": 3.335231,
    "transactions": [
      {
        "date": "2022-08-02",
        "priceEur": 148000,
        "typeLocal": "Maison",
        "surfaceM2": 85,
        "isVefa": false
      }
    ]
  },
  "9f32e7d3a4a5": {
    "id": "9f32e7d3a4a5",
    "label": "1 IMP DE LA RAMPE, Portiragnes",
    "lat": 43.304052,
    "lng": 3.334992,
    "transactions": [
      {
        "date": "2022-09-26",
        "priceEur": 83000,
        "typeLocal": "Maison",
        "surfaceM2": 30,
        "isVefa": false
      }
    ]
  },
  "a4713bddf7d7": {
    "id": "a4713bddf7d7",
    "label": "6 RUE DE LA PINEDE, Portiragnes",
    "lat": 43.305526,
    "lng": 3.330248,
    "transactions": [
      {
        "date": "2022-09-09",
        "priceEur": 281000,
        "typeLocal": "Maison",
        "surfaceM2": 75,
        "isVefa": false
      }
    ]
  },
  "b5cd372529fd": {
    "id": "b5cd372529fd",
    "label": "6208 RUE PASTEUR, Portiragnes",
    "lat": 43.305241,
    "lng": 3.331874,
    "transactions": [
      {
        "date": "2022-09-27",
        "priceEur": 319550,
        "typeLocal": "Maison",
        "surfaceM2": 103,
        "isVefa": false
      }
    ]
  },
  "e47007243e8d": {
    "id": "e47007243e8d",
    "label": "6 RUE DE LA LIBERATION, Portiragnes",
    "lat": 43.30411,
    "lng": 3.334944,
    "transactions": [
      {
        "date": "2025-05-02",
        "priceEur": 88000,
        "typeLocal": "Appartement",
        "surfaceM2": 60,
        "isVefa": false
      },
      {
        "date": "2022-10-28",
        "priceEur": 155000,
        "typeLocal": "Appartement",
        "surfaceM2": 95,
        "isVefa": false
      }
    ]
  },
  "58e19d912f59": {
    "id": "58e19d912f59",
    "label": "8 AV DU VINGT DEUX AOUT 44, Portiragnes",
    "lat": 43.305503,
    "lng": 3.336848,
    "transactions": [
      {
        "date": "2025-01-10",
        "priceEur": 216300,
        "typeLocal": "Maison",
        "surfaceM2": 78,
        "isVefa": false
      },
      {
        "date": "2024-05-28",
        "priceEur": 209400,
        "typeLocal": "Maison",
        "surfaceM2": 78,
        "isVefa": false
      },
      {
        "date": "2023-10-03",
        "priceEur": 218500,
        "typeLocal": "Maison",
        "surfaceM2": 78,
        "isVefa": false
      },
      {
        "date": "2022-11-18",
        "priceEur": 228000,
        "typeLocal": "Maison",
        "surfaceM2": 78,
        "isVefa": false
      },
      {
        "date": "2022-10-28",
        "priceEur": 225000,
        "typeLocal": "Maison",
        "surfaceM2": 78,
        "isVefa": false
      },
      {
        "date": "2022-10-26",
        "priceEur": 225000,
        "typeLocal": "Maison",
        "surfaceM2": 78,
        "isVefa": false
      },
      {
        "date": "2022-10-26",
        "priceEur": 225000,
        "typeLocal": "Maison",
        "surfaceM2": 78,
        "isVefa": false
      },
      {
        "date": "2022-10-26",
        "priceEur": 225000,
        "typeLocal": "Maison",
        "surfaceM2": 78,
        "isVefa": false
      }
    ]
  },
  "2eaff1181cc7": {
    "id": "2eaff1181cc7",
    "label": "8 RUE DE LA PINEDE, Portiragnes",
    "lat": 43.305571,
    "lng": 3.330074,
    "transactions": [
      {
        "date": "2022-10-28",
        "priceEur": 301500,
        "typeLocal": "Maison",
        "surfaceM2": 102,
        "isVefa": false
      }
    ]
  },
  "aebf1080517e": {
    "id": "aebf1080517e",
    "label": "16 RUE VICTOR HUGO, Portiragnes",
    "lat": 43.305159,
    "lng": 3.333402,
    "transactions": [
      {
        "date": "2022-11-25",
        "priceEur": 150000,
        "typeLocal": "Maison",
        "surfaceM2": 85,
        "isVefa": false
      }
    ]
  },
  "71faadfc9f7b": {
    "id": "71faadfc9f7b",
    "label": "7T CHE DE COMBE GRASSE, Portiragnes",
    "lat": 43.308026,
    "lng": 3.331055,
    "transactions": [
      {
        "date": "2022-12-02",
        "priceEur": 415000,
        "typeLocal": "Maison",
        "surfaceM2": 97,
        "isVefa": false
      }
    ]
  },
  "e7de8c7a7517": {
    "id": "e7de8c7a7517",
    "label": "6 IMP RENE GLAUSSEL, Portiragnes",
    "lat": 43.305184,
    "lng": 3.337436,
    "transactions": [
      {
        "date": "2022-12-09",
        "priceEur": 455000,
        "typeLocal": "Maison",
        "surfaceM2": 100,
        "isVefa": false
      }
    ]
  },
  "aeda96925a41": {
    "id": "aeda96925a41",
    "label": "9 IMP LE VIALLA, Portiragnes",
    "lat": 43.305356,
    "lng": 3.33925,
    "transactions": [
      {
        "date": "2022-12-14",
        "priceEur": 380500,
        "typeLocal": "Maison",
        "surfaceM2": 95,
        "isVefa": false
      }
    ]
  },
  "dbd2dd5573dd": {
    "id": "dbd2dd5573dd",
    "label": "6119 AV JEAN MOULIN, Portiragnes",
    "lat": 43.30406,
    "lng": 3.336367,
    "transactions": [
      {
        "date": "2022-12-28",
        "priceEur": 260000,
        "typeLocal": "Maison",
        "surfaceM2": 150,
        "isVefa": false
      }
    ]
  },
  "f99d2baff686": {
    "id": "f99d2baff686",
    "label": "26 AV JEAN MOULIN, Portiragnes",
    "lat": 43.303669,
    "lng": 3.336093,
    "transactions": [
      {
        "date": "2023-01-13",
        "priceEur": 228000,
        "typeLocal": "Appartement",
        "surfaceM2": 95,
        "isVefa": false
      }
    ]
  },
  "44e132a1fc82": {
    "id": "44e132a1fc82",
    "label": "14 RUE DU DUCHARTRE, Portiragnes",
    "lat": 43.303407,
    "lng": 3.335901,
    "transactions": [
      {
        "date": "2023-01-03",
        "priceEur": 162000,
        "typeLocal": "Maison",
        "surfaceM2": 65,
        "isVefa": false
      }
    ]
  },
  "291bf8575000": {
    "id": "291bf8575000",
    "label": "29 RUE DE LA PINEDE, Portiragnes",
    "lat": 43.304999,
    "lng": 3.329887,
    "transactions": [
      {
        "date": "2023-01-05",
        "priceEur": 285000,
        "typeLocal": "Maison",
        "surfaceM2": 87,
        "isVefa": false
      }
    ]
  },
  "71f7d275d5af": {
    "id": "71f7d275d5af",
    "label": "3 RUE DU QUAI, Portiragnes",
    "lat": 43.30483,
    "lng": 3.330533,
    "transactions": [
      {
        "date": "2023-01-24",
        "priceEur": 245000,
        "typeLocal": "Maison",
        "surfaceM2": 91,
        "isVefa": false
      }
    ]
  },
  "b98df0f33fcb": {
    "id": "b98df0f33fcb",
    "label": "7 AV DU VINGT DEUX AOUT 44, Portiragnes",
    "lat": 43.304798,
    "lng": 3.335707,
    "transactions": [
      {
        "date": "2023-02-01",
        "priceEur": 173000,
        "typeLocal": "Appartement",
        "surfaceM2": 54,
        "isVefa": false
      }
    ]
  },
  "bd140ed0b972": {
    "id": "bd140ed0b972",
    "label": "25 RUE LOUIS BUFFON, Portiragnes",
    "lat": 43.301775,
    "lng": 3.339146,
    "transactions": [
      {
        "date": "2023-02-14",
        "priceEur": 190000,
        "typeLocal": "Maison",
        "surfaceM2": 75,
        "isVefa": false
      }
    ]
  },
  "ef8469beb2fb": {
    "id": "ef8469beb2fb",
    "label": "1 CHEM DES ECLUSES, Portiragnes",
    "lat": 43.306792,
    "lng": 3.329597,
    "transactions": [
      {
        "date": "2023-03-06",
        "priceEur": 505000,
        "typeLocal": "Maison",
        "surfaceM2": 145,
        "isVefa": false
      },
      {
        "date": "2023-03-06",
        "priceEur": 505000,
        "typeLocal": "Maison",
        "surfaceM2": 145,
        "isVefa": false
      }
    ]
  },
  "f7839d4e11c8": {
    "id": "f7839d4e11c8",
    "label": "8 RUE DE LA REPUBLIQUE, Portiragnes",
    "lat": 43.30394,
    "lng": 3.334965,
    "transactions": [
      {
        "date": "2023-03-16",
        "priceEur": 170000,
        "typeLocal": "Maison",
        "surfaceM2": 45,
        "isVefa": false
      }
    ]
  },
  "e7c7f943568b": {
    "id": "e7c7f943568b",
    "label": "27 RUE PIERRE ET MARIE CURIE, Portiragnes",
    "lat": 43.306135,
    "lng": 3.333217,
    "transactions": [
      {
        "date": "2023-05-10",
        "priceEur": 196300,
        "typeLocal": "Maison",
        "surfaceM2": 121,
        "isVefa": false
      }
    ]
  },
  "2f5dbb9ab29f": {
    "id": "2f5dbb9ab29f",
    "label": "4 IMP LAVOISIER, Portiragnes",
    "lat": 43.305125,
    "lng": 3.332729,
    "transactions": [
      {
        "date": "2023-05-26",
        "priceEur": 110000,
        "typeLocal": "Maison",
        "surfaceM2": 85,
        "isVefa": false
      }
    ]
  },
  "2cb96df77dec": {
    "id": "2cb96df77dec",
    "label": "1 RUE DU CHARRON, Portiragnes",
    "lat": 43.303099,
    "lng": 3.335774,
    "transactions": [
      {
        "date": "2023-05-16",
        "priceEur": 135000,
        "typeLocal": "Maison",
        "surfaceM2": 60,
        "isVefa": false
      }
    ]
  },
  "ea46e6b6d285": {
    "id": "ea46e6b6d285",
    "label": "11 RUE DE LA REPUBLIQUE, Portiragnes",
    "lat": 43.303994,
    "lng": 3.334707,
    "transactions": [
      {
        "date": "2023-05-15",
        "priceEur": 98000,
        "typeLocal": "Maison",
        "surfaceM2": 70,
        "isVefa": false
      }
    ]
  },
  "76a1797f52fc": {
    "id": "76a1797f52fc",
    "label": "5B CHE DE COMBE GRASSE, Portiragnes",
    "lat": 43.307464,
    "lng": 3.331222,
    "transactions": [
      {
        "date": "2023-07-04",
        "priceEur": 374150,
        "typeLocal": "Maison",
        "surfaceM2": 95,
        "isVefa": false
      }
    ]
  },
  "e6dfeb9073bf": {
    "id": "e6dfeb9073bf",
    "label": "12 IMP LAVOISIER, Portiragnes",
    "lat": 43.304657,
    "lng": 3.332972,
    "transactions": [
      {
        "date": "2023-07-12",
        "priceEur": 245000,
        "typeLocal": "Maison",
        "surfaceM2": 85,
        "isVefa": false
      }
    ]
  },
  "7bdbf744b1d5": {
    "id": "7bdbf744b1d5",
    "label": "10 RUE DU CHARRON, Portiragnes",
    "lat": 43.302947,
    "lng": 3.335431,
    "transactions": [
      {
        "date": "2023-07-20",
        "priceEur": 125000,
        "typeLocal": "Maison",
        "surfaceM2": 79,
        "isVefa": false
      }
    ]
  },
  "94ad6c84bef3": {
    "id": "94ad6c84bef3",
    "label": "31 RUE JEAN MARIE EJARQUE, Portiragnes",
    "lat": 43.306713,
    "lng": 3.338009,
    "transactions": [
      {
        "date": "2023-07-06",
        "priceEur": 244300,
        "typeLocal": "Maison",
        "surfaceM2": 127,
        "isVefa": false
      }
    ]
  },
  "f4518cbda2f1": {
    "id": "f4518cbda2f1",
    "label": "6 RUE PIERRE ET MARIE CURIE, Portiragnes",
    "lat": 43.305834,
    "lng": 3.333716,
    "transactions": [
      {
        "date": "2023-07-31",
        "priceEur": 239000,
        "typeLocal": "Maison",
        "surfaceM2": 88,
        "isVefa": false
      }
    ]
  },
  "b779bfeba5b5": {
    "id": "b779bfeba5b5",
    "label": "9 AV DU GENERAL DE GAULLE, Portiragnes",
    "lat": 43.306106,
    "lng": 3.335835,
    "transactions": [
      {
        "date": "2023-08-11",
        "priceEur": 214400,
        "typeLocal": "Maison",
        "surfaceM2": 75,
        "isVefa": false
      }
    ]
  },
  "38e53f58ea1d": {
    "id": "38e53f58ea1d",
    "label": "11B CHE DE COMBE GRASSE, Portiragnes",
    "lat": 43.308176,
    "lng": 3.330386,
    "transactions": [
      {
        "date": "2023-08-28",
        "priceEur": 380000,
        "typeLocal": "Maison",
        "surfaceM2": 118,
        "isVefa": false
      }
    ]
  },
  "a7adc660d94e": {
    "id": "a7adc660d94e",
    "label": "4B RUE MUETTE, Portiragnes",
    "lat": 43.304098,
    "lng": 3.335774,
    "transactions": [
      {
        "date": "2024-04-10",
        "priceEur": 56529,
        "typeLocal": "Appartement",
        "surfaceM2": 45,
        "isVefa": false
      },
      {
        "date": "2023-09-05",
        "priceEur": 98000,
        "typeLocal": "Appartement",
        "surfaceM2": 45,
        "isVefa": false
      }
    ]
  },
  "510d3a3fcb92": {
    "id": "510d3a3fcb92",
    "label": "12 RUE DE LA CARRIERETTE, Portiragnes",
    "lat": 43.302205,
    "lng": 3.334192,
    "transactions": [
      {
        "date": "2023-09-07",
        "priceEur": 279580,
        "typeLocal": "Maison",
        "surfaceM2": 130,
        "isVefa": false
      }
    ]
  },
  "6552d5b79391": {
    "id": "6552d5b79391",
    "label": "3 RUE DE LA LIBERATION, Portiragnes",
    "lat": 43.304268,
    "lng": 3.33472,
    "transactions": [
      {
        "date": "2023-09-05",
        "priceEur": 110000,
        "typeLocal": "Appartement",
        "surfaceM2": 91,
        "isVefa": false
      }
    ]
  },
  "a134f1591236": {
    "id": "a134f1591236",
    "label": "2 SQ SAINT FELIX, Portiragnes",
    "lat": 43.303219,
    "lng": 3.334457,
    "transactions": [
      {
        "date": "2023-10-04",
        "priceEur": 102000,
        "typeLocal": "Appartement",
        "surfaceM2": 74,
        "isVefa": false
      }
    ]
  },
  "e64ca25e03c1": {
    "id": "e64ca25e03c1",
    "label": "2 RUE ROGER ALQUIER, Portiragnes",
    "lat": 43.305666,
    "lng": 3.33759,
    "transactions": [
      {
        "date": "2023-10-04",
        "priceEur": 475000,
        "typeLocal": "Maison",
        "surfaceM2": 137,
        "isVefa": false
      }
    ]
  },
  "e7184dda813b": {
    "id": "e7184dda813b",
    "label": "4 RUE MUETTE, Portiragnes",
    "lat": 43.304098,
    "lng": 3.335774,
    "transactions": [
      {
        "date": "2023-10-24",
        "priceEur": 70000,
        "typeLocal": "Appartement",
        "surfaceM2": 42,
        "isVefa": false
      }
    ]
  },
  "0361590ae00c": {
    "id": "0361590ae00c",
    "label": "3 PL ST JACQUES, Portiragnes",
    "lat": 43.304017,
    "lng": 3.33524,
    "transactions": [
      {
        "date": "2023-10-18",
        "priceEur": 141000,
        "typeLocal": "Maison",
        "surfaceM2": 70,
        "isVefa": false
      }
    ]
  },
  "cc9d4e501b05": {
    "id": "cc9d4e501b05",
    "label": "32 RUE JEAN MARIE EJARQUE, Portiragnes",
    "lat": 43.30633,
    "lng": 3.338084,
    "transactions": [
      {
        "date": "2023-12-04",
        "priceEur": 300000,
        "typeLocal": "Maison",
        "surfaceM2": 101,
        "isVefa": false
      }
    ]
  },
  "551f804f38f3": {
    "id": "551f804f38f3",
    "label": "14 RUE VICTOR HUGO, Portiragnes",
    "lat": 43.305181,
    "lng": 3.33329,
    "transactions": [
      {
        "date": "2023-12-28",
        "priceEur": 256930,
        "typeLocal": "Maison",
        "surfaceM2": 85,
        "isVefa": false
      }
    ]
  },
  "45adb2565477": {
    "id": "45adb2565477",
    "label": "26 RUE LOUIS BUFFON, Portiragnes",
    "lat": 43.301305,
    "lng": 3.338809,
    "transactions": [
      {
        "date": "2024-01-03",
        "priceEur": 205000,
        "typeLocal": "Maison",
        "surfaceM2": 72,
        "isVefa": false
      }
    ]
  },
  "15557c27bc97": {
    "id": "15557c27bc97",
    "label": "9 RUE PASTEUR, Portiragnes",
    "lat": 43.304334,
    "lng": 3.331506,
    "transactions": [
      {
        "date": "2024-01-04",
        "priceEur": 205000,
        "typeLocal": "Maison",
        "surfaceM2": 90,
        "isVefa": false
      }
    ]
  },
  "30dfdf93b55f": {
    "id": "30dfdf93b55f",
    "label": "7B CHE DE COMBE GRASSE, Portiragnes",
    "lat": 43.308133,
    "lng": 3.330925,
    "transactions": [
      {
        "date": "2024-01-25",
        "priceEur": 361060,
        "typeLocal": "Maison",
        "surfaceM2": 97,
        "isVefa": false
      }
    ]
  },
  "485313dd4aee": {
    "id": "485313dd4aee",
    "label": "3 RUE DU VIEUX PUITS, Portiragnes",
    "lat": 43.304206,
    "lng": 3.335399,
    "transactions": [
      {
        "date": "2024-02-27",
        "priceEur": 155000,
        "typeLocal": "Maison",
        "surfaceM2": 75,
        "isVefa": false
      }
    ]
  },
  "0196b0475dcb": {
    "id": "0196b0475dcb",
    "label": "3 RUE DE LA CARRIERETTE, Portiragnes",
    "lat": 43.301964,
    "lng": 3.334558,
    "transactions": [
      {
        "date": "2024-03-13",
        "priceEur": 260000,
        "typeLocal": "Maison",
        "surfaceM2": 115,
        "isVefa": false
      }
    ]
  },
  "50bb2eb487a9": {
    "id": "50bb2eb487a9",
    "label": "25 RUE JEAN MARIE EJARQUE, Portiragnes",
    "lat": 43.307167,
    "lng": 3.338366,
    "transactions": [
      {
        "date": "2024-03-25",
        "priceEur": 310000,
        "typeLocal": "Maison",
        "surfaceM2": 127,
        "isVefa": false
      }
    ]
  },
  "63cba7506ffe": {
    "id": "63cba7506ffe",
    "label": "36 AV JEAN MOULIN, Portiragnes",
    "lat": 43.303899,
    "lng": 3.336589,
    "transactions": [
      {
        "date": "2024-04-29",
        "priceEur": 168000,
        "typeLocal": "Maison",
        "surfaceM2": 85,
        "isVefa": false
      }
    ]
  },
  "d3d4e0f04625": {
    "id": "d3d4e0f04625",
    "label": "3 RUE DE L EGLISE, Portiragnes",
    "lat": 43.303315,
    "lng": 3.335195,
    "transactions": [
      {
        "date": "2024-04-30",
        "priceEur": 247300,
        "typeLocal": "Appartement",
        "surfaceM2": 16,
        "isVefa": false
      },
      {
        "date": "2024-04-30",
        "priceEur": 247300,
        "typeLocal": "Appartement",
        "surfaceM2": 65,
        "isVefa": false
      },
      {
        "date": "2024-04-30",
        "priceEur": 247300,
        "typeLocal": "Appartement",
        "surfaceM2": 65,
        "isVefa": false
      },
      {
        "date": "2024-04-30",
        "priceEur": 247300,
        "typeLocal": "Appartement",
        "surfaceM2": 16,
        "isVefa": false
      },
      {
        "date": "2024-04-30",
        "priceEur": 247300,
        "typeLocal": "Appartement",
        "surfaceM2": 80,
        "isVefa": false
      }
    ]
  },
  "c9454f8a7051": {
    "id": "c9454f8a7051",
    "label": "9 RUE RACINE, Portiragnes",
    "lat": 43.302887,
    "lng": 3.33941,
    "transactions": [
      {
        "date": "2024-06-18",
        "priceEur": 172300,
        "typeLocal": "Maison",
        "surfaceM2": 68,
        "isVefa": false
      }
    ]
  },
  "7490f00b2dcf": {
    "id": "7490f00b2dcf",
    "label": "23 RUE LOUIS BUFFON, Portiragnes",
    "lat": 43.301553,
    "lng": 3.339304,
    "transactions": [
      {
        "date": "2024-07-15",
        "priceEur": 55000,
        "typeLocal": "Maison",
        "surfaceM2": 80,
        "isVefa": false
      }
    ]
  },
  "6c1c0eb74904": {
    "id": "6c1c0eb74904",
    "label": "24 CHEM DES ECLUSES, Portiragnes",
    "lat": 43.307009,
    "lng": 3.329119,
    "transactions": [
      {
        "date": "2024-07-16",
        "priceEur": 192500,
        "typeLocal": "Maison",
        "surfaceM2": 112,
        "isVefa": false
      },
      {
        "date": "2024-07-16",
        "priceEur": 192500,
        "typeLocal": "Maison",
        "surfaceM2": 112,
        "isVefa": false
      }
    ]
  },
  "6abe010e8f3c": {
    "id": "6abe010e8f3c",
    "label": "14 IMP LAVOISIER, Portiragnes",
    "lat": 43.304579,
    "lng": 3.333119,
    "transactions": [
      {
        "date": "2024-07-26",
        "priceEur": 300000,
        "typeLocal": "Maison",
        "surfaceM2": 100,
        "isVefa": false
      }
    ]
  },
  "588269efc3af": {
    "id": "588269efc3af",
    "label": "4 RUE DE L ARC, Portiragnes",
    "lat": 43.30386,
    "lng": 3.336558,
    "transactions": [
      {
        "date": "2024-09-30",
        "priceEur": 45000,
        "typeLocal": "Maison",
        "surfaceM2": 55,
        "isVefa": false
      }
    ]
  },
  "0aa4951c4530": {
    "id": "0aa4951c4530",
    "label": "8 RUE PASTEUR, Portiragnes",
    "lat": 43.305077,
    "lng": 3.332318,
    "transactions": [
      {
        "date": "2024-10-09",
        "priceEur": 241900,
        "typeLocal": "Maison",
        "surfaceM2": 85,
        "isVefa": false
      }
    ]
  },
  "79cb0e734dad": {
    "id": "79cb0e734dad",
    "label": "6 IMP DES BARRIS, Portiragnes",
    "lat": 43.301974,
    "lng": 3.335348,
    "transactions": [
      {
        "date": "2024-10-18",
        "priceEur": 128000,
        "typeLocal": "Maison",
        "surfaceM2": 52,
        "isVefa": false
      }
    ]
  },
  "2f8f7038e244": {
    "id": "2f8f7038e244",
    "label": "16 RUE ROGER ALQUIER, Portiragnes",
    "lat": 43.306156,
    "lng": 3.336413,
    "transactions": [
      {
        "date": "2024-12-13",
        "priceEur": 514600,
        "typeLocal": "Maison",
        "surfaceM2": 148,
        "isVefa": false
      }
    ]
  },
  "73283b85c37c": {
    "id": "73283b85c37c",
    "label": "8 AV JEAN MOULIN, Portiragnes",
    "lat": 43.303302,
    "lng": 3.333151,
    "transactions": [
      {
        "date": "2025-01-13",
        "priceEur": 180000,
        "typeLocal": "Appartement",
        "surfaceM2": 113,
        "isVefa": false
      },
      {
        "date": "2024-12-30",
        "priceEur": 219200,
        "typeLocal": "Appartement",
        "surfaceM2": 90,
        "isVefa": false
      }
    ]
  },
  "dda783024c31": {
    "id": "dda783024c31",
    "label": "15 RUE DE LA PINEDE, Portiragnes",
    "lat": 43.305797,
    "lng": 3.329877,
    "transactions": [
      {
        "date": "2025-01-29",
        "priceEur": 261525,
        "typeLocal": "Maison",
        "surfaceM2": 87,
        "isVefa": false
      }
    ]
  },
  "cc833101d1c1": {
    "id": "cc833101d1c1",
    "label": "1 AV DE LA REDOUTE PLAGE, Portiragnes",
    "lat": 43.303193,
    "lng": 3.334967,
    "transactions": [
      {
        "date": "2025-01-24",
        "priceEur": 100000,
        "typeLocal": "Maison",
        "surfaceM2": 62,
        "isVefa": false
      }
    ]
  },
  "f8b416b73a42": {
    "id": "f8b416b73a42",
    "label": "9 RUE RENE GLAUSSEL, Portiragnes",
    "lat": 43.305406,
    "lng": 3.338296,
    "transactions": [
      {
        "date": "2025-01-30",
        "priceEur": 345000,
        "typeLocal": "Maison",
        "surfaceM2": 85,
        "isVefa": false
      }
    ]
  },
  "f79e476c871a": {
    "id": "f79e476c871a",
    "label": "2 RUE DES RESISTANTS, Portiragnes",
    "lat": 43.302892,
    "lng": 3.334461,
    "transactions": [
      {
        "date": "2025-02-21",
        "priceEur": 195000,
        "typeLocal": "Maison",
        "surfaceM2": 79,
        "isVefa": false
      }
    ]
  },
  "cccd39dd9a02": {
    "id": "cccd39dd9a02",
    "label": "20 AV JEAN MOULIN, Portiragnes",
    "lat": 43.303661,
    "lng": 3.335743,
    "transactions": [
      {
        "date": "2025-03-05",
        "priceEur": 85000,
        "typeLocal": "Maison",
        "surfaceM2": 48,
        "isVefa": false
      }
    ]
  },
  "09b179a317d8": {
    "id": "09b179a317d8",
    "label": "3 RUE DU PROFESSEUR POURSINES, Portiragnes",
    "lat": 43.303511,
    "lng": 3.335513,
    "transactions": [
      {
        "date": "2025-03-19",
        "priceEur": 112000,
        "typeLocal": "Maison",
        "surfaceM2": 60,
        "isVefa": false
      }
    ]
  },
  "93dcae0840af": {
    "id": "93dcae0840af",
    "label": "3 RUE PASTEUR, Portiragnes",
    "lat": 43.304079,
    "lng": 3.331406,
    "transactions": [
      {
        "date": "2025-03-27",
        "priceEur": 200200,
        "typeLocal": "Maison",
        "surfaceM2": 90,
        "isVefa": false
      }
    ]
  },
  "803a6825a6c9": {
    "id": "803a6825a6c9",
    "label": "5 RUE DU VIEUX PUITS, Portiragnes",
    "lat": 43.30424,
    "lng": 3.335427,
    "transactions": [
      {
        "date": "2025-03-20",
        "priceEur": 159000,
        "typeLocal": "Maison",
        "surfaceM2": 45,
        "isVefa": false
      }
    ]
  },
  "e34083efdeba": {
    "id": "e34083efdeba",
    "label": "18 AV JEAN MOULIN, Portiragnes",
    "lat": 43.30364,
    "lng": 3.335628,
    "transactions": [
      {
        "date": "2025-04-18",
        "priceEur": 186350,
        "typeLocal": "Maison",
        "surfaceM2": 95,
        "isVefa": false
      }
    ]
  }
}