{
  "8658aaf1b919": {
    "id": "8658aaf1b919",
    "label": "4 AV DE GIGNAC, Pouzols",
    "lat": 43.618634,
    "lng": 3.513141,
    "transactions": [
      {
        "date": "2020-07-02",
        "priceEur": 355700,
        "typeLocal": "Maison",
        "surfaceM2": 180,
        "isVefa": false
      }
    ]
  },
  "97ecfb84758c": {
    "id": "97ecfb84758c",
    "label": "3 RUE GUILHAUME D HUGUES, Pouzols",
    "lat": 43.617674,
    "lng": 3.513284,
    "transactions": [
      {
        "date": "2020-07-21",
        "priceEur": 75000,
        "typeLocal": "Maison",
        "surfaceM2": 120,
        "isVefa": false
      }
    ]
  },
  "bd0d4af7af6c": {
    "id": "bd0d4af7af6c",
    "label": "6 RUE GUILHAUME D HUGUES, Pouzols",
    "lat": 43.617767,
    "lng": 3.513869,
    "transactions": [
      {
        "date": "2020-08-06",
        "priceEur": 62000,
        "typeLocal": "Appartement",
        "surfaceM2": 89,
        "isVefa": false
      }
    ]
  },
  "8054c5ce044c": {
    "id": "8054c5ce044c",
    "label": "4 IMP DU CANAL, Pouzols",
    "lat": 43.616658,
    "lng": 3.513923,
    "transactions": [
      {
        "date": "2020-10-22",
        "priceEur": 224610,
        "typeLocal": "Maison",
        "surfaceM2": 76,
        "isVefa": false
      }
    ]
  },
  "f436486a16a8": {
    "id": "f436486a16a8",
    "label": "21 AV DE GIGNAC, Pouzols",
    "lat": 43.618934,
    "lng": 3.513549,
    "transactions": [
      {
        "date": "2020-11-12",
        "priceEur": 174500,
        "typeLocal": "Maison",
        "surfaceM2": 80,
        "isVefa": false
      }
    ]
  },
  "3b706d0b5d42": {
    "id": "3b706d0b5d42",
    "label": "6 AV DE CANET, Pouzols",
    "lat": 43.617868,
    "lng": 3.512657,
    "transactions": [
      {
        "date": "2020-11-25",
        "priceEur": 135950,
        "typeLocal": "Maison",
        "surfaceM2": 100,
        "isVefa": false
      }
    ]
  },
  "6e8b5188c736": {
    "id": "6e8b5188c736",
    "label": "2 PL DU MARCHE, Pouzols",
    "lat": 43.61802,
    "lng": 3.51292,
    "transactions": [
      {
        "date": "2020-12-03",
        "priceEur": 1,
        "typeLocal": "Maison",
        "surfaceM2": 215,
        "isVefa": false
      }
    ]
  },
  "1b44013137c2": {
    "id": "1b44013137c2",
    "label": "4 LOT LE DOMAINE DES LAUZES, Pouzols",
    "lat": 43.616647,
    "lng": 3.50979,
    "transactions": [
      {
        "date": "2020-12-03",
        "priceEur": 289500,
        "typeLocal": "Maison",
        "surfaceM2": 100,
        "isVefa": false
      }
    ]
  },
  "000b9f08f67d": {
    "id": "000b9f08f67d",
    "label": "7 LOT LE DOMAINE DES LAUZES, Pouzols",
    "lat": 43.61637,
    "lng": 3.510385,
    "transactions": [
      {
        "date": "2021-08-02",
        "priceEur": 370500,
        "typeLocal": "Maison",
        "surfaceM2": 117,
        "isVefa": false
      }
    ]
  },
  "e44a91eec13c": {
    "id": "e44a91eec13c",
    "label": "192 CHE DES AIGUILLERES, Pouzols",
    "lat": 43.616051,
    "lng": 3.51012,
    "transactions": [
      {
        "date": "2021-08-04",
        "priceEur": 225470,
        "typeLocal": "Maison",
        "surfaceM2": 102,
        "isVefa": false
      }
    ]
  },
  "8223b30b0220": {
    "id": "8223b30b0220",
    "label": "5693F LOT LE DOMAINE DES LAUZES, Pouzols",
    "lat": 43.616859,
    "lng": 3.510835,
    "transactions": [
      {
        "date": "2021-09-06",
        "priceEur": 265065,
        "typeLocal": "Maison",
        "surfaceM2": 78,
        "isVefa": false
      }
    ]
  },
  "669e659b7579": {
    "id": "669e659b7579",
    "label": "11 RUE DES CREMADES, Pouzols",
    "lat": 43.618926,
    "lng": 3.514217,
    "transactions": [
      {
        "date": "2021-09-28",
        "priceEur": 243250,
        "typeLocal": "Maison",
        "surfaceM2": 74,
        "isVefa": false
      }
    ]
  },
  "d1372c5a3bf9": {
    "id": "d1372c5a3bf9",
    "label": "35 AV DU POUGET, Pouzols",
    "lat": 43.617679,
    "lng": 3.512763,
    "transactions": [
      {
        "date": "2021-11-24",
        "priceEur": 201000,
        "typeLocal": "Maison",
        "surfaceM2": 91,
        "isVefa": false
      }
    ]
  },
  "3d4d24dfe1d8": {
    "id": "3d4d24dfe1d8",
    "label": "11 RUE GUILHAUME D HUGUES, Pouzols",
    "lat": 43.61762,
    "lng": 3.513512,
    "transactions": [
      {
        "date": "2021-12-21",
        "priceEur": 80000,
        "typeLocal": "Maison",
        "surfaceM2": 60,
        "isVefa": false
      }
    ]
  },
  "79cacd306596": {
    "id": "79cacd306596",
    "label": "135B RUE DES ROUVIERES, Pouzols",
    "lat": 43.615022,
    "lng": 3.514771,
    "transactions": [
      {
        "date": "2021-12-15",
        "priceEur": 120000,
        "typeLocal": "Maison",
        "surfaceM2": 120,
        "isVefa": false
      }
    ]
  },
  "355bc82daeef": {
    "id": "355bc82daeef",
    "label": "1A RUE DES JARDINS, Pouzols",
    "lat": 43.618531,
    "lng": 3.513138,
    "transactions": [
      {
        "date": "2021-12-30",
        "priceEur": 129800,
        "typeLocal": "Appartement",
        "surfaceM2": 76,
        "isVefa": false
      }
    ]
  },
  "aaa4f3bc5735": {
    "id": "aaa4f3bc5735",
    "label": "6 RUE DES JARDINS, Pouzols",
    "lat": 43.618424,
    "lng": 3.512915,
    "transactions": [
      {
        "date": "2022-04-29",
        "priceEur": 173250,
        "typeLocal": "Maison",
        "surfaceM2": 120,
        "isVefa": false
      }
    ]
  },
  "da59006462f4": {
    "id": "da59006462f4",
    "label": "9 RUE DES CHASSELAS, Pouzols",
    "lat": 43.617472,
    "lng": 3.513307,
    "transactions": [
      {
        "date": "2022-05-17",
        "priceEur": 130450,
        "typeLocal": "Maison",
        "surfaceM2": 70,
        "isVefa": false
      }
    ]
  },
  "3692968c0ce7": {
    "id": "3692968c0ce7",
    "label": "3 RUE DES PARCS, Pouzols",
    "lat": 43.618633,
    "lng": 3.513604,
    "transactions": [
      {
        "date": "2022-05-19",
        "priceEur": 160000,
        "typeLocal": "Maison",
        "surfaceM2": 146,
        "isVefa": false
      }
    ]
  },
  "9c9a45a31b11": {
    "id": "9c9a45a31b11",
    "label": "42 RUE DES PONTS, Pouzols",
    "lat": 43.616581,
    "lng": 3.512889,
    "transactions": [
      {
        "date": "2022-05-03",
        "priceEur": 545000,
        "typeLocal": "Appartement",
        "surfaceM2": 117,
        "isVefa": false
      },
      {
        "date": "2022-05-03",
        "priceEur": 545000,
        "typeLocal": "Appartement",
        "surfaceM2": 117,
        "isVefa": false
      },
      {
        "date": "2022-05-03",
        "priceEur": 545000,
        "typeLocal": "Appartement",
        "surfaceM2": 117,
        "isVefa": false
      },
      {
        "date": "2022-05-03",
        "priceEur": 545000,
        "typeLocal": "Appartement",
        "surfaceM2": 117,
        "isVefa": false
      }
    ]
  },
  "c21a9532f707": {
    "id": "c21a9532f707",
    "label": "4 AV DE CANET, Pouzols",
    "lat": 43.617851,
    "lng": 3.51277,
    "transactions": [
      {
        "date": "2022-06-23",
        "priceEur": 215000,
        "typeLocal": "Maison",
        "surfaceM2": 120,
        "isVefa": false
      }
    ]
  },
  "761b0c7ed8fe": {
    "id": "761b0c7ed8fe",
    "label": "205 RUE DES PONTS, Pouzols",
    "lat": 43.615889,
    "lng": 3.514924,
    "transactions": [
      {
        "date": "2022-06-21",
        "priceEur": 277335,
        "typeLocal": "Maison",
        "surfaceM2": 98,
        "isVefa": false
      }
    ]
  },
  "75dfac19199a": {
    "id": "75dfac19199a",
    "label": "235 RUE DES PONTS, Pouzols",
    "lat": 43.615772,
    "lng": 3.515413,
    "transactions": [
      {
        "date": "2022-09-22",
        "priceEur": 275000,
        "typeLocal": "Maison",
        "surfaceM2": 102,
        "isVefa": false
      }
    ]
  },
  "37b93a9e707c": {
    "id": "37b93a9e707c",
    "label": "6 RUE DES PARCS, Pouzols",
    "lat": 43.618342,
    "lng": 3.513772,
    "transactions": [
      {
        "date": "2022-10-07",
        "priceEur": 275000,
        "typeLocal": "Appartement",
        "surfaceM2": 100,
        "isVefa": false
      }
    ]
  },
  "72fa17f372e8": {
    "id": "72fa17f372e8",
    "label": "208 RUE DES PONTS, Pouzols",
    "lat": 43.615862,
    "lng": 3.515005,
    "transactions": [
      {
        "date": "2023-01-30",
        "priceEur": 243100,
        "typeLocal": "Maison",
        "surfaceM2": 85,
        "isVefa": false
      }
    ]
  },
  "0e40e7edc310": {
    "id": "0e40e7edc310",
    "label": "5 RUE DES PARCS, Pouzols",
    "lat": 43.618641,
    "lng": 3.514089,
    "transactions": [
      {
        "date": "2023-03-15",
        "priceEur": 340000,
        "typeLocal": "Maison",
        "surfaceM2": 129,
        "isVefa": false
      }
    ]
  },
  "b072c0131ff2": {
    "id": "b072c0131ff2",
    "label": "7 PL DU MARCHE, Pouzols",
    "lat": 43.618072,
    "lng": 3.513226,
    "transactions": [
      {
        "date": "2023-02-24",
        "priceEur": 101300,
        "typeLocal": "Maison",
        "surfaceM2": 99,
        "isVefa": false
      }
    ]
  },
  "6ac0e0e0c9cf": {
    "id": "6ac0e0e0c9cf",
    "label": "15 RUE DES CHASSELAS, Pouzols",
    "lat": 43.617341,
    "lng": 3.513514,
    "transactions": [
      {
        "date": "2023-05-15",
        "priceEur": 203350,
        "typeLocal": "Maison",
        "surfaceM2": 136,
        "isVefa": false
      }
    ]
  },
  "50eda74f19e0": {
    "id": "50eda74f19e0",
    "label": "3 AV DE CANET, Pouzols",
    "lat": 43.618086,
    "lng": 3.512518,
    "transactions": [
      {
        "date": "2023-07-05",
        "priceEur": 189500,
        "typeLocal": "Maison",
        "surfaceM2": 62,
        "isVefa": false
      }
    ]
  },
  "e9d77aac4aa6": {
    "id": "e9d77aac4aa6",
    "label": "5 RUE TRAVERSIERE, Pouzols",
    "lat": 43.618205,
    "lng": 3.513578,
    "transactions": [
      {
        "date": "2023-10-24",
        "priceEur": 120000,
        "typeLocal": "Maison",
        "surfaceM2": 56,
        "isVefa": false
      }
    ]
  },
  "4b314c62d302": {
    "id": "4b314c62d302",
    "label": "17 AV DE GIGNAC, Pouzols",
    "lat": 43.618684,
    "lng": 3.513378,
    "transactions": [
      {
        "date": "2023-12-14",
        "priceEur": 47000,
        "typeLocal": "Maison",
        "surfaceM2": 46,
        "isVefa": false
      }
    ]
  },
  "e7809d4e6dd2": {
    "id": "e7809d4e6dd2",
    "label": "30 AV DE GIGNAC, Pouzols",
    "lat": 43.620029,
    "lng": 3.513559,
    "transactions": [
      {
        "date": "2023-12-28",
        "priceEur": 157000,
        "typeLocal": "Appartement",
        "surfaceM2": 50,
        "isVefa": false
      }
    ]
  },
  "0dbb839342a5": {
    "id": "0dbb839342a5",
    "label": "351 AV DU POUGET, Pouzols",
    "lat": 43.614795,
    "lng": 3.512398,
    "transactions": [
      {
        "date": "2023-12-22",
        "priceEur": 180000,
        "typeLocal": "Maison",
        "surfaceM2": 184,
        "isVefa": false
      }
    ]
  },
  "238b4562a7a6": {
    "id": "238b4562a7a6",
    "label": "150 RUE DES ROUVIERES, Pouzols",
    "lat": 43.614466,
    "lng": 3.514962,
    "transactions": [
      {
        "date": "2024-01-29",
        "priceEur": 462420,
        "typeLocal": "Maison",
        "surfaceM2": 177,
        "isVefa": false
      }
    ]
  },
  "952c1fd078c4": {
    "id": "952c1fd078c4",
    "label": "12 RUE CHANTECLERC, Pouzols",
    "lat": 43.618962,
    "lng": 3.511341,
    "transactions": [
      {
        "date": "2024-03-07",
        "priceEur": 384920,
        "typeLocal": "Maison",
        "surfaceM2": 93,
        "isVefa": false
      },
      {
        "date": "2024-03-07",
        "priceEur": 384920,
        "typeLocal": "Maison",
        "surfaceM2": 93,
        "isVefa": false
      }
    ]
  },
  "f46b559aa51f": {
    "id": "f46b559aa51f",
    "label": "1B PL DU MARCHE, Pouzols",
    "lat": 43.617854,
    "lng": 3.513092,
    "transactions": [
      {
        "date": "2024-04-29",
        "priceEur": 75000,
        "typeLocal": "Maison",
        "surfaceM2": 90,
        "isVefa": false
      }
    ]
  },
  "577534014d4b": {
    "id": "577534014d4b",
    "label": "4 RUE TRAVERSIERE, Pouzols",
    "lat": 43.618375,
    "lng": 3.513415,
    "transactions": [
      {
        "date": "2024-07-03",
        "priceEur": 287075,
        "typeLocal": "Maison",
        "surfaceM2": 99,
        "isVefa": false
      }
    ]
  },
  "9ef8e16fb449": {
    "id": "9ef8e16fb449",
    "label": "28 AV DE CANET, Pouzols",
    "lat": 43.618036,
    "lng": 3.511088,
    "transactions": [
      {
        "date": "2024-07-25",
        "priceEur": 250000,
        "typeLocal": "Maison",
        "surfaceM2": 130,
        "isVefa": false
      }
    ]
  },
  "5526db8fa2ec": {
    "id": "5526db8fa2ec",
    "label": "2B RUE GUILHAUME D HUGUES, Pouzols",
    "lat": 43.617852,
    "lng": 3.513337,
    "transactions": [
      {
        "date": "2024-07-25",
        "priceEur": 283500,
        "typeLocal": "Maison",
        "surfaceM2": 105,
        "isVefa": false
      }
    ]
  },
  "ef6b7a8c749b": {
    "id": "ef6b7a8c749b",
    "label": "9 RUE GUILHAUME D HUGUES, Pouzols",
    "lat": 43.617643,
    "lng": 3.513469,
    "transactions": [
      {
        "date": "2024-08-06",
        "priceEur": 147500,
        "typeLocal": "Maison",
        "surfaceM2": 60,
        "isVefa": false
      }
    ]
  },
  "17b789441fcf": {
    "id": "17b789441fcf",
    "label": "39 AV DU POUGET, Pouzols",
    "lat": 43.617555,
    "lng": 3.512989,
    "transactions": [
      {
        "date": "2025-03-31",
        "priceEur": 56000,
        "typeLocal": "Maison",
        "surfaceM2": 36,
        "isVefa": false
      }
    ]
  }
}