{
  "8a3dc7943c14": {
    "id": "8a3dc7943c14",
    "label": "28 CHE DU MOULIN, Octeville-sur-Mer",
    "lat": 49.548581,
    "lng": 0.103374,
    "transactions": [
      {
        "date": "2020-08-07",
        "priceEur": 100000,
        "typeLocal": "Maison",
        "surfaceM2": 90,
        "isVefa": false
      }
    ]
  },
  "b5dbb84bf043": {
    "id": "b5dbb84bf043",
    "label": "3 CHE DU MOULIN, Octeville-sur-Mer",
    "lat": 49.548304,
    "lng": 0.103544,
    "transactions": [
      {
        "date": "2020-08-20",
        "priceEur": 295000,
        "typeLocal": "Maison",
        "surfaceM2": 100,
        "isVefa": false
      }
    ]
  },
  "355732958a2c": {
    "id": "355732958a2c",
    "label": "5387 CHE DE L'ARSENAL, Octeville-sur-Mer",
    "lat": 49.549761,
    "lng": 0.105357,
    "transactions": [
      {
        "date": "2020-10-09",
        "priceEur": 300000,
        "typeLocal": "Maison",
        "surfaceM2": 93,
        "isVefa": false
      }
    ]
  },
  "148f0a1b8f8b": {
    "id": "148f0a1b8f8b",
    "label": "5688 CHE DU MOULIN, Octeville-sur-Mer",
    "lat": 49.548667,
    "lng": 0.103633,
    "transactions": [
      {
        "date": "2021-01-28",
        "priceEur": 222000,
        "typeLocal": "Maison",
        "surfaceM2": 62,
        "isVefa": false
      }
    ]
  },
  "fc62e9638aa0": {
    "id": "fc62e9638aa0",
    "label": "8C CHE DU MOULIN, Octeville-sur-Mer",
    "lat": 49.551217,
    "lng": 0.106736,
    "transactions": [
      {
        "date": "2021-01-29",
        "priceEur": 448000,
        "typeLocal": "Maison",
        "surfaceM2": 164,
        "isVefa": false
      }
    ]
  },
  "94055ec2927b": {
    "id": "94055ec2927b",
    "label": "4B CHE DE L'ARSENAL, Octeville-sur-Mer",
    "lat": 49.550306,
    "lng": 0.105671,
    "transactions": [
      {
        "date": "2021-06-18",
        "priceEur": 492000,
        "typeLocal": "Maison",
        "surfaceM2": 177,
        "isVefa": false
      }
    ]
  },
  "1fe62833fa7f": {
    "id": "1fe62833fa7f",
    "label": "1F CHE DU MOULIN, Octeville-sur-Mer",
    "lat": 49.548521,
    "lng": 0.10441,
    "transactions": [
      {
        "date": "2021-12-09",
        "priceEur": 476000,
        "typeLocal": "Maison",
        "surfaceM2": 168,
        "isVefa": false
      }
    ]
  },
  "3b388e0e07ef": {
    "id": "3b388e0e07ef",
    "label": "22 CHE DU TOT, Octeville-sur-Mer",
    "lat": 49.551794,
    "lng": 0.102623,
    "transactions": [
      {
        "date": "2022-01-26",
        "priceEur": 355900,
        "typeLocal": "Maison",
        "surfaceM2": 128,
        "isVefa": false
      }
    ]
  },
  "19ef32c509ca": {
    "id": "19ef32c509ca",
    "label": "6838 CHE DU TOT, Octeville-sur-Mer",
    "lat": 49.551294,
    "lng": 0.102704,
    "transactions": [
      {
        "date": "2023-03-15",
        "priceEur": 533500,
        "typeLocal": "Maison",
        "surfaceM2": 192,
        "isVefa": false
      }
    ]
  },
  "161f2706fd09": {
    "id": "161f2706fd09",
    "label": "25B CHE DE L'ARSENAL, Octeville-sur-Mer",
    "lat": 49.55213,
    "lng": 0.104178,
    "transactions": [
      {
        "date": "2023-12-14",
        "priceEur": 460000,
        "typeLocal": "Maison",
        "surfaceM2": 198,
        "isVefa": false
      }
    ]
  },
  "22355e4cb256": {
    "id": "22355e4cb256",
    "label": "5 CHE DE L'ARSENAL, Octeville-sur-Mer",
    "lat": 49.54989,
    "lng": 0.105268,
    "transactions": [
      {
        "date": "2024-09-13",
        "priceEur": 328500,
        "typeLocal": "Maison",
        "surfaceM2": 140,
        "isVefa": false
      }
    ]
  }
}