{
  "80a2582b975f": {
    "id": "80a2582b975f",
    "label": "70 CHE DE LA BRIERE, Octeville-sur-Mer",
    "lat": 49.563841,
    "lng": 0.103906,
    "transactions": [
      {
        "date": "2020-11-23",
        "priceEur": 238000,
        "typeLocal": "Maison",
        "surfaceM2": 113,
        "isVefa": false
      }
    ]
  },
  "cdb447d50a5d": {
    "id": "cdb447d50a5d",
    "label": "27 CHE DE LA BRIERE, Octeville-sur-Mer",
    "lat": 49.561642,
    "lng": 0.104477,
    "transactions": [
      {
        "date": "2021-05-03",
        "priceEur": 289000,
        "typeLocal": "Maison",
        "surfaceM2": 110,
        "isVefa": false
      }
    ]
  },
  "96dd2e5c9667": {
    "id": "96dd2e5c9667",
    "label": "58B CHE DE LA BRIERE, Octeville-sur-Mer",
    "lat": 49.562897,
    "lng": 0.105166,
    "transactions": [
      {
        "date": "2021-05-21",
        "priceEur": 465000,
        "typeLocal": "Maison",
        "surfaceM2": 117,
        "isVefa": false
      }
    ]
  },
  "111d97ca4819": {
    "id": "111d97ca4819",
    "label": "6176 LE CRAMOLET, Octeville-sur-Mer",
    "lat": 49.565579,
    "lng": 0.108866,
    "transactions": [
      {
        "date": "2021-07-06",
        "priceEur": 245000,
        "typeLocal": "Maison",
        "surfaceM2": 119,
        "isVefa": false
      }
    ]
  },
  "e0ca8a3017ec": {
    "id": "e0ca8a3017ec",
    "label": "47 CHE DE LA BRIERE, Octeville-sur-Mer",
    "lat": 49.563483,
    "lng": 0.102986,
    "transactions": [
      {
        "date": "2022-01-14",
        "priceEur": 407500,
        "typeLocal": "Maison",
        "surfaceM2": 136,
        "isVefa": false
      }
    ]
  },
  "85514ad0932f": {
    "id": "85514ad0932f",
    "label": "17A CHE DU CRAMOLET, Octeville-sur-Mer",
    "lat": 49.56089,
    "lng": 0.10836,
    "transactions": [
      {
        "date": "2022-03-07",
        "priceEur": 250000,
        "typeLocal": "Maison",
        "surfaceM2": 120,
        "isVefa": false
      }
    ]
  },
  "91c93b6d68d6": {
    "id": "91c93b6d68d6",
    "label": "48 CHE DE LA BRIERE, Octeville-sur-Mer",
    "lat": 49.561964,
    "lng": 0.105633,
    "transactions": [
      {
        "date": "2022-11-02",
        "priceEur": 424000,
        "typeLocal": "Maison",
        "surfaceM2": 109,
        "isVefa": false
      }
    ]
  },
  "4a65e10e8502": {
    "id": "4a65e10e8502",
    "label": "5990 LE CRAMOLET, Octeville-sur-Mer",
    "lat": 49.561589,
    "lng": 0.107252,
    "transactions": [
      {
        "date": "2023-03-23",
        "priceEur": 280000,
        "typeLocal": "Maison",
        "surfaceM2": 85,
        "isVefa": false
      }
    ]
  },
  "74ef1c2a8f48": {
    "id": "74ef1c2a8f48",
    "label": "24B CHE DU CRAMOLET, Octeville-sur-Mer",
    "lat": 49.562031,
    "lng": 0.108416,
    "transactions": [
      {
        "date": "2023-09-05",
        "priceEur": 342000,
        "typeLocal": "Maison",
        "surfaceM2": 114,
        "isVefa": false
      }
    ]
  },
  "814bc190922e": {
    "id": "814bc190922e",
    "label": "3 RES DU LITTORAL, Octeville-sur-Mer",
    "lat": 49.562899,
    "lng": 0.105972,
    "transactions": [
      {
        "date": "2025-05-26",
        "priceEur": 495000,
        "typeLocal": "Maison",
        "surfaceM2": 185,
        "isVefa": false
      },
      {
        "date": "2024-06-07",
        "priceEur": 482000,
        "typeLocal": "Maison",
        "surfaceM2": 185,
        "isVefa": false
      }
    ]
  },
  "e0c238af7f6f": {
    "id": "e0c238af7f6f",
    "label": "34 CHE DU FOND DU VAL, Octeville-sur-Mer",
    "lat": 49.567115,
    "lng": 0.109155,
    "transactions": [
      {
        "date": "2024-06-07",
        "priceEur": 443000,
        "typeLocal": "Maison",
        "surfaceM2": 132,
        "isVefa": false
      }
    ]
  },
  "5e7cc196b5ee": {
    "id": "5e7cc196b5ee",
    "label": "33 CHE DU FOND DU VAL, Octeville-sur-Mer",
    "lat": 49.566417,
    "lng": 0.108675,
    "transactions": [
      {
        "date": "2024-07-01",
        "priceEur": 259000,
        "typeLocal": "Maison",
        "surfaceM2": 105,
        "isVefa": false
      }
    ]
  },
  "00cab8f7720c": {
    "id": "00cab8f7720c",
    "label": "3 LES PETITES VALLEES, Octeville-sur-Mer",
    "lat": 49.560959,
    "lng": 0.106051,
    "transactions": [
      {
        "date": "2024-12-23",
        "priceEur": 470000,
        "typeLocal": "Maison",
        "surfaceM2": 138,
        "isVefa": false
      }
    ]
  },
  "1af7921287f0": {
    "id": "1af7921287f0",
    "label": "40 CHE DES CHARRETTES, Octeville-sur-Mer",
    "lat": 49.564374,
    "lng": 0.109485,
    "transactions": [
      {
        "date": "2025-03-03",
        "priceEur": 520000,
        "typeLocal": "Maison",
        "surfaceM2": 149,
        "isVefa": false
      }
    ]
  }
}