{
  "04b7ca8bf384": {
    "id": "04b7ca8bf384",
    "label": "5366 RUE PIERRE CHARLET, Vieux-Rouen-sur-Bresle",
    "lat": 49.833665,
    "lng": 1.720978,
    "transactions": [
      {
        "date": "2020-07-18",
        "priceEur": 74000,
        "typeLocal": "Maison",
        "surfaceM2": 92,
        "isVefa": false
      }
    ]
  },
  "2b51a674fbb0": {
    "id": "2b51a674fbb0",
    "label": "5071 RUE PIERRE CHARLET, Vieux-Rouen-sur-Bresle",
    "lat": 49.833751,
    "lng": 1.721881,
    "transactions": [
      {
        "date": "2020-10-31",
        "priceEur": 82000,
        "typeLocal": "Maison",
        "surfaceM2": 122,
        "isVefa": false
      }
    ]
  },
  "b02e48e76303": {
    "id": "b02e48e76303",
    "label": "5036 RUE LOUIS DESCHAMPS, Vieux-Rouen-sur-Bresle",
    "lat": 49.832696,
    "lng": 1.717799,
    "transactions": [
      {
        "date": "2020-12-09",
        "priceEur": 95000,
        "typeLocal": "Maison",
        "surfaceM2": 168,
        "isVefa": false
      },
      {
        "date": "2020-12-09",
        "priceEur": 95000,
        "typeLocal": "Maison",
        "surfaceM2": 9,
        "isVefa": false
      }
    ]
  },
  "ead8e8b0f583": {
    "id": "ead8e8b0f583",
    "label": "1 RUE BACOUEL, Vieux-Rouen-sur-Bresle",
    "lat": 49.833805,
    "lng": 1.721553,
    "transactions": [
      {
        "date": "2021-12-15",
        "priceEur": 90000,
        "typeLocal": "Maison",
        "surfaceM2": 55,
        "isVefa": false
      }
    ]
  },
  "106a101b70a7": {
    "id": "106a101b70a7",
    "label": "3B RUE BACOUEL, Vieux-Rouen-sur-Bresle",
    "lat": 49.833938,
    "lng": 1.721079,
    "transactions": [
      {
        "date": "2021-12-15",
        "priceEur": 90000,
        "typeLocal": "Maison",
        "surfaceM2": 45,
        "isVefa": false
      }
    ]
  },
  "a1c8ba874844": {
    "id": "a1c8ba874844",
    "label": "5129 RUE FRANCIS SUARD, Vieux-Rouen-sur-Bresle",
    "lat": 49.837532,
    "lng": 1.719261,
    "transactions": [
      {
        "date": "2021-02-12",
        "priceEur": 54500,
        "typeLocal": "Maison",
        "surfaceM2": 82,
        "isVefa": false
      }
    ]
  },
  "2dd333710d82": {
    "id": "2dd333710d82",
    "label": "5094 RUE THEODULE GERIN, Vieux-Rouen-sur-Bresle",
    "lat": 49.834924,
    "lng": 1.719451,
    "transactions": [
      {
        "date": "2021-02-27",
        "priceEur": 100000,
        "typeLocal": "Maison",
        "surfaceM2": 85,
        "isVefa": false
      }
    ]
  },
  "94f2bee5f64c": {
    "id": "94f2bee5f64c",
    "label": "5003A LE BOURG, Vieux-Rouen-sur-Bresle",
    "lat": 49.835938,
    "lng": 1.71748,
    "transactions": [
      {
        "date": "2021-05-27",
        "priceEur": 152000,
        "typeLocal": "Maison",
        "surfaceM2": 117,
        "isVefa": false
      }
    ]
  },
  "db7d12cd8a34": {
    "id": "db7d12cd8a34",
    "label": "5065 RTE DE LIOMER, Vieux-Rouen-sur-Bresle",
    "lat": 49.834045,
    "lng": 1.724689,
    "transactions": [
      {
        "date": "2021-07-16",
        "priceEur": 63000,
        "typeLocal": "Maison",
        "surfaceM2": 96,
        "isVefa": false
      }
    ]
  },
  "64ad9759c604": {
    "id": "64ad9759c604",
    "label": "22 RUE AMEDEE SCOBART, Vieux-Rouen-sur-Bresle",
    "lat": 49.836845,
    "lng": 1.72168,
    "transactions": [
      {
        "date": "2021-09-17",
        "priceEur": 34000,
        "typeLocal": "Maison",
        "surfaceM2": 43,
        "isVefa": false
      }
    ]
  },
  "1624dcea0f2b": {
    "id": "1624dcea0f2b",
    "label": "5023 RUE THEODULE GERIN, Vieux-Rouen-sur-Bresle",
    "lat": 49.834034,
    "lng": 1.718723,
    "transactions": [
      {
        "date": "2022-10-15",
        "priceEur": 130000,
        "typeLocal": "Maison",
        "surfaceM2": 150,
        "isVefa": false
      }
    ]
  },
  "bc4081b211cc": {
    "id": "bc4081b211cc",
    "label": "5099 RUE THEODULE GERIN, Vieux-Rouen-sur-Bresle",
    "lat": 49.835176,
    "lng": 1.719492,
    "transactions": [
      {
        "date": "2022-12-02",
        "priceEur": 52000,
        "typeLocal": "Maison",
        "surfaceM2": 83,
        "isVefa": false
      }
    ]
  },
  "247e8cc843ec": {
    "id": "247e8cc843ec",
    "label": "5014 LE BOURG, Vieux-Rouen-sur-Bresle",
    "lat": 49.835369,
    "lng": 1.718208,
    "transactions": [
      {
        "date": "2023-04-12",
        "priceEur": 89000,
        "typeLocal": "Maison",
        "surfaceM2": 84,
        "isVefa": false
      }
    ]
  },
  "bbe055243771": {
    "id": "bbe055243771",
    "label": "5337 LA HOUBLONNIERE, Vieux-Rouen-sur-Bresle",
    "lat": 49.837776,
    "lng": 1.720256,
    "transactions": [
      {
        "date": "2023-06-09",
        "priceEur": 108000,
        "typeLocal": "Maison",
        "surfaceM2": 74,
        "isVefa": false
      }
    ]
  },
  "f5aff6463c90": {
    "id": "f5aff6463c90",
    "label": "5 RUE AMEDEE SCOBART, Vieux-Rouen-sur-Bresle",
    "lat": 49.837026,
    "lng": 1.721103,
    "transactions": [
      {
        "date": "2023-10-07",
        "priceEur": 135000,
        "typeLocal": "Maison",
        "surfaceM2": 88,
        "isVefa": false
      }
    ]
  },
  "d4513556ba6c": {
    "id": "d4513556ba6c",
    "label": "24 RUE AMEDEE SCOBART, Vieux-Rouen-sur-Bresle",
    "lat": 49.836862,
    "lng": 1.721736,
    "transactions": [
      {
        "date": "2024-02-14",
        "priceEur": 32500,
        "typeLocal": "Maison",
        "surfaceM2": 43,
        "isVefa": false
      }
    ]
  },
  "8b67dd8c44e0": {
    "id": "8b67dd8c44e0",
    "label": "2 RUE BACOUEL, Vieux-Rouen-sur-Bresle",
    "lat": 49.833907,
    "lng": 1.721873,
    "transactions": [
      {
        "date": "2024-05-31",
        "priceEur": 69880,
        "typeLocal": "Maison",
        "surfaceM2": 102,
        "isVefa": false
      }
    ]
  },
  "560cc65fa781": {
    "id": "560cc65fa781",
    "label": "35 RUE PIERRE CHARLET, Vieux-Rouen-sur-Bresle",
    "lat": 49.833848,
    "lng": 1.724211,
    "transactions": [
      {
        "date": "2024-06-05",
        "priceEur": 113000,
        "typeLocal": "Maison",
        "surfaceM2": 170,
        "isVefa": false
      }
    ]
  },
  "27f184ca8747": {
    "id": "27f184ca8747",
    "label": "3 RUE BACOUEL, Vieux-Rouen-sur-Bresle",
    "lat": 49.834076,
    "lng": 1.7212,
    "transactions": [
      {
        "date": "2025-06-06",
        "priceEur": 68000,
        "typeLocal": "Maison",
        "surfaceM2": 48,
        "isVefa": false
      }
    ]
  }
}