{
  "a28229b599a0": {
    "id": "a28229b599a0",
    "label": "3 RTE DE ROUEN, Saint-Laurent-en-Caux",
    "lat": 49.750455,
    "lng": 0.88173,
    "transactions": [
      {
        "date": "2020-09-15",
        "priceEur": 203400,
        "typeLocal": "Maison",
        "surfaceM2": 104,
        "isVefa": false
      }
    ]
  },
  "27c557c05dad": {
    "id": "27c557c05dad",
    "label": "7 RUE ELPHEGE BEAUDOIN, Saint-Laurent-en-Caux",
    "lat": 49.751161,
    "lng": 0.880591,
    "transactions": [
      {
        "date": "2022-06-10",
        "priceEur": 89225,
        "typeLocal": "Maison",
        "surfaceM2": 70,
        "isVefa": false
      },
      {
        "date": "2021-04-23",
        "priceEur": 70000,
        "typeLocal": "Maison",
        "surfaceM2": 70,
        "isVefa": false
      }
    ]
  },
  "5d65ab313ff2": {
    "id": "5d65ab313ff2",
    "label": "12 RUE DE LA HALLE AU BLE, Saint-Laurent-en-Caux",
    "lat": 49.750613,
    "lng": 0.878943,
    "transactions": [
      {
        "date": "2021-06-12",
        "priceEur": 127000,
        "typeLocal": "Maison",
        "surfaceM2": 128,
        "isVefa": false
      }
    ]
  },
  "80e5aa7815c0": {
    "id": "80e5aa7815c0",
    "label": "8B RUE DU CALVAIRE, Saint-Laurent-en-Caux",
    "lat": 49.751244,
    "lng": 0.882803,
    "transactions": [
      {
        "date": "2021-08-30",
        "priceEur": 78000,
        "typeLocal": "Appartement",
        "surfaceM2": 63,
        "isVefa": false
      }
    ]
  },
  "7220a012b24f": {
    "id": "7220a012b24f",
    "label": "6 RUE DU CALVAIRE, Saint-Laurent-en-Caux",
    "lat": 49.75116,
    "lng": 0.882642,
    "transactions": [
      {
        "date": "2021-11-17",
        "priceEur": 141400,
        "typeLocal": "Maison",
        "surfaceM2": 100,
        "isVefa": false
      }
    ]
  },
  "22027ab6f49d": {
    "id": "22027ab6f49d",
    "label": "5 RUE ELPHEGE BEAUDOIN, Saint-Laurent-en-Caux",
    "lat": 49.751189,
    "lng": 0.880745,
    "transactions": [
      {
        "date": "2021-02-22",
        "priceEur": 85000,
        "typeLocal": "Maison",
        "surfaceM2": 89,
        "isVefa": false
      }
    ]
  },
  "c6731c8a7697": {
    "id": "c6731c8a7697",
    "label": "40 RUE DE L ANCIEN CHATEAU, Saint-Laurent-en-Caux",
    "lat": 49.752084,
    "lng": 0.880495,
    "transactions": [
      {
        "date": "2022-02-23",
        "priceEur": 128000,
        "typeLocal": "Maison",
        "surfaceM2": 82,
        "isVefa": false
      }
    ]
  },
  "41f3fd17b828": {
    "id": "41f3fd17b828",
    "label": "8 RTE DE ROUEN, Saint-Laurent-en-Caux",
    "lat": 49.749803,
    "lng": 0.880355,
    "transactions": [
      {
        "date": "2022-09-20",
        "priceEur": 184800,
        "typeLocal": "Maison",
        "surfaceM2": 93,
        "isVefa": false
      }
    ]
  },
  "446dca7e79de": {
    "id": "446dca7e79de",
    "label": "10B RTE DE ROUEN, Saint-Laurent-en-Caux",
    "lat": 49.748427,
    "lng": 0.880639,
    "transactions": [
      {
        "date": "2022-10-07",
        "priceEur": 185000,
        "typeLocal": "Maison",
        "surfaceM2": 59,
        "isVefa": false
      },
      {
        "date": "2022-10-07",
        "priceEur": 185000,
        "typeLocal": "Maison",
        "surfaceM2": 104,
        "isVefa": false
      }
    ]
  },
  "1b74ac87cb00": {
    "id": "1b74ac87cb00",
    "label": "9 RUE DU CALVAIRE, Saint-Laurent-en-Caux",
    "lat": 49.751581,
    "lng": 0.882952,
    "transactions": [
      {
        "date": "2022-11-18",
        "priceEur": 107000,
        "typeLocal": "Appartement",
        "surfaceM2": 86,
        "isVefa": false
      }
    ]
  },
  "a8fef485b493": {
    "id": "a8fef485b493",
    "label": "2 CHE DE L ECOLE, Saint-Laurent-en-Caux",
    "lat": 49.750626,
    "lng": 0.880065,
    "transactions": [
      {
        "date": "2024-05-21",
        "priceEur": 27500,
        "typeLocal": "Maison",
        "surfaceM2": 86,
        "isVefa": false
      },
      {
        "date": "2023-07-27",
        "priceEur": 20000,
        "typeLocal": "Maison",
        "surfaceM2": 86,
        "isVefa": false
      }
    ]
  },
  "a4f08891db4a": {
    "id": "a4f08891db4a",
    "label": "41 RUE DE L ANCIEN CHATEAU, Saint-Laurent-en-Caux",
    "lat": 49.752135,
    "lng": 0.880356,
    "transactions": [
      {
        "date": "2023-10-25",
        "priceEur": 70500,
        "typeLocal": "Maison",
        "surfaceM2": 50,
        "isVefa": false
      }
    ]
  },
  "19e088f6b0ca": {
    "id": "19e088f6b0ca",
    "label": "4 RTE DE VEULES LES ROSES, Saint-Laurent-en-Caux",
    "lat": 49.75162,
    "lng": 0.881263,
    "transactions": [
      {
        "date": "2023-12-04",
        "priceEur": 102000,
        "typeLocal": "Appartement",
        "surfaceM2": 65,
        "isVefa": false
      }
    ]
  },
  "4aa6a481922b": {
    "id": "4aa6a481922b",
    "label": "33 RUE LAURENT BERTHELOT, Saint-Laurent-en-Caux",
    "lat": 49.747433,
    "lng": 0.879458,
    "transactions": [
      {
        "date": "2025-03-15",
        "priceEur": 280000,
        "typeLocal": "Maison",
        "surfaceM2": 129,
        "isVefa": false
      }
    ]
  }
}