{
  "26e839c4df9b": {
    "id": "26e839c4df9b",
    "label": "55 ALL DES FEES, Saint-Gély-du-Fesc",
    "lat": 43.69574,
    "lng": 3.796438,
    "transactions": [
      {
        "date": "2020-08-14",
        "priceEur": 680000,
        "typeLocal": "Maison",
        "surfaceM2": 179,
        "isVefa": false
      },
      {
        "date": "2020-08-14",
        "priceEur": 680000,
        "typeLocal": "Maison",
        "surfaceM2": 179,
        "isVefa": false
      }
    ]
  },
  "72d8c02761e9": {
    "id": "72d8c02761e9",
    "label": "144 RUE DU POUS, Saint-Gély-du-Fesc",
    "lat": 43.692136,
    "lng": 3.798189,
    "transactions": [
      {
        "date": "2020-09-16",
        "priceEur": 337250,
        "typeLocal": "Maison",
        "surfaceM2": 73,
        "isVefa": false
      }
    ]
  },
  "736109f08720": {
    "id": "736109f08720",
    "label": "20 CLOS DU POUS, Saint-Gély-du-Fesc",
    "lat": 43.69181,
    "lng": 3.800281,
    "transactions": [
      {
        "date": "2021-06-21",
        "priceEur": 400000,
        "typeLocal": "Maison",
        "surfaceM2": 91,
        "isVefa": false
      }
    ]
  },
  "feb21780e1b0": {
    "id": "feb21780e1b0",
    "label": "200 RUE DES COMBELLES, Saint-Gély-du-Fesc",
    "lat": 43.69706,
    "lng": 3.799753,
    "transactions": [
      {
        "date": "2021-07-09",
        "priceEur": 471142,
        "typeLocal": "Maison",
        "surfaceM2": 82,
        "isVefa": false
      }
    ]
  },
  "9bd521bf3d19": {
    "id": "9bd521bf3d19",
    "label": "19 RUE PUITS DU PERE, Saint-Gély-du-Fesc",
    "lat": 43.691976,
    "lng": 3.8011,
    "transactions": [
      {
        "date": "2021-07-15",
        "priceEur": 366300,
        "typeLocal": "Maison",
        "surfaceM2": 109,
        "isVefa": false
      }
    ]
  },
  "f01974afca89": {
    "id": "f01974afca89",
    "label": "24 RUE DU PLATEAU, Saint-Gély-du-Fesc",
    "lat": 43.69952,
    "lng": 3.798883,
    "transactions": [
      {
        "date": "2021-10-08",
        "priceEur": 648670,
        "typeLocal": "Maison",
        "surfaceM2": 121,
        "isVefa": false
      }
    ]
  },
  "6ddd72d22072": {
    "id": "6ddd72d22072",
    "label": "75 RUE DES COMBELLES, Saint-Gély-du-Fesc",
    "lat": 43.696207,
    "lng": 3.800281,
    "transactions": [
      {
        "date": "2021-12-13",
        "priceEur": 402750,
        "typeLocal": "Maison",
        "surfaceM2": 65,
        "isVefa": false
      }
    ]
  },
  "b5e255f6733a": {
    "id": "b5e255f6733a",
    "label": "41 CLOS DU POUS, Saint-Gély-du-Fesc",
    "lat": 43.691786,
    "lng": 3.800656,
    "transactions": [
      {
        "date": "2021-12-14",
        "priceEur": 439920,
        "typeLocal": "Maison",
        "surfaceM2": 99,
        "isVefa": false
      }
    ]
  },
  "f0aec999a034": {
    "id": "f0aec999a034",
    "label": "526 RUE DES OLIVIERS, Saint-Gély-du-Fesc",
    "lat": 43.692722,
    "lng": 3.797582,
    "transactions": [
      {
        "date": "2022-03-31",
        "priceEur": 495000,
        "typeLocal": "Maison",
        "surfaceM2": 107,
        "isVefa": false
      }
    ]
  },
  "d726861cdd73": {
    "id": "d726861cdd73",
    "label": "103 RUE PUITS DU PERE, Saint-Gély-du-Fesc",
    "lat": 43.691976,
    "lng": 3.8011,
    "transactions": [
      {
        "date": "2022-07-22",
        "priceEur": 366150,
        "typeLocal": "Maison",
        "surfaceM2": 100,
        "isVefa": false
      }
    ]
  },
  "cfaccace0108": {
    "id": "cfaccace0108",
    "label": "107 RUE DES COMBELLES, Saint-Gély-du-Fesc",
    "lat": 43.696338,
    "lng": 3.800052,
    "transactions": [
      {
        "date": "2022-09-14",
        "priceEur": 606135,
        "typeLocal": "Appartement",
        "surfaceM2": 39,
        "isVefa": false
      },
      {
        "date": "2022-09-14",
        "priceEur": 606135,
        "typeLocal": "Maison",
        "surfaceM2": 105,
        "isVefa": false
      }
    ]
  },
  "c2c4a7ae0254": {
    "id": "c2c4a7ae0254",
    "label": "97 ALL DES TERRASSES DE BRISSAC, Saint-Gély-du-Fesc",
    "lat": 43.698151,
    "lng": 3.800512,
    "transactions": [
      {
        "date": "2023-02-09",
        "priceEur": 95400,
        "typeLocal": "Maison",
        "surfaceM2": 105,
        "isVefa": false
      }
    ]
  },
  "3837bbd1ba5b": {
    "id": "3837bbd1ba5b",
    "label": "36 RUE DES COMBELLES, Saint-Gély-du-Fesc",
    "lat": 43.696442,
    "lng": 3.801007,
    "transactions": [
      {
        "date": "2023-04-13",
        "priceEur": 483535,
        "typeLocal": "Maison",
        "surfaceM2": 119,
        "isVefa": false
      }
    ]
  },
  "ae4bd49b1131": {
    "id": "ae4bd49b1131",
    "label": "23 ALL DE BEAUREGARD, Saint-Gély-du-Fesc",
    "lat": 43.699124,
    "lng": 3.795794,
    "transactions": [
      {
        "date": "2023-05-05",
        "priceEur": 1022300,
        "typeLocal": "Maison",
        "surfaceM2": 185,
        "isVefa": false
      },
      {
        "date": "2023-05-05",
        "priceEur": 1022300,
        "typeLocal": "Maison",
        "surfaceM2": 185,
        "isVefa": false
      }
    ]
  },
  "4cee10be85e9": {
    "id": "4cee10be85e9",
    "label": "496 RUE DE VALENE, Saint-Gély-du-Fesc",
    "lat": 43.696074,
    "lng": 3.799739,
    "transactions": [
      {
        "date": "2023-06-15",
        "priceEur": 640617,
        "typeLocal": "Maison",
        "surfaceM2": 131,
        "isVefa": false
      }
    ]
  },
  "4ecfca6cf5e5": {
    "id": "4ecfca6cf5e5",
    "label": "13 RUE PUITS DU PERE, Saint-Gély-du-Fesc",
    "lat": 43.691976,
    "lng": 3.8011,
    "transactions": [
      {
        "date": "2023-06-20",
        "priceEur": 270000,
        "typeLocal": "Maison",
        "surfaceM2": 91,
        "isVefa": false
      }
    ]
  },
  "65efbfa5c378": {
    "id": "65efbfa5c378",
    "label": "68 RUE PUITS DU PERE, Saint-Gély-du-Fesc",
    "lat": 43.691976,
    "lng": 3.8011,
    "transactions": [
      {
        "date": "2023-08-10",
        "priceEur": 170000,
        "typeLocal": "Appartement",
        "surfaceM2": 55,
        "isVefa": false
      }
    ]
  },
  "e001adcf153b": {
    "id": "e001adcf153b",
    "label": "301 RUE DE LA ROMPUDE, Saint-Gély-du-Fesc",
    "lat": 43.692878,
    "lng": 3.801226,
    "transactions": [
      {
        "date": "2023-08-24",
        "priceEur": 489000,
        "typeLocal": "Maison",
        "surfaceM2": 120,
        "isVefa": false
      }
    ]
  },
  "90cff243ed7f": {
    "id": "90cff243ed7f",
    "label": "47 RUE DE LA JASSETTE, Saint-Gély-du-Fesc",
    "lat": 43.699109,
    "lng": 3.798839,
    "transactions": [
      {
        "date": "2023-09-25",
        "priceEur": 807400,
        "typeLocal": "Maison",
        "surfaceM2": 141,
        "isVefa": false
      }
    ]
  },
  "9fa307781832": {
    "id": "9fa307781832",
    "label": "286 RUE DE BEAUREGARD, Saint-Gély-du-Fesc",
    "lat": 43.699594,
    "lng": 3.796422,
    "transactions": [
      {
        "date": "2023-10-10",
        "priceEur": 300000,
        "typeLocal": "Maison",
        "surfaceM2": 84,
        "isVefa": false
      }
    ]
  },
  "a03a456bc923": {
    "id": "a03a456bc923",
    "label": "137 RUE DES CARAVETTES, Saint-Gély-du-Fesc",
    "lat": 43.698878,
    "lng": 3.801165,
    "transactions": [
      {
        "date": "2024-03-25",
        "priceEur": 339400,
        "typeLocal": "Maison",
        "surfaceM2": 85,
        "isVefa": false
      }
    ]
  },
  "ea6852c948fc": {
    "id": "ea6852c948fc",
    "label": "31 ALL DES PEUPLIERS, Saint-Gély-du-Fesc",
    "lat": 43.697274,
    "lng": 3.799,
    "transactions": [
      {
        "date": "2024-04-02",
        "priceEur": 621050,
        "typeLocal": "Maison",
        "surfaceM2": 191,
        "isVefa": false
      },
      {
        "date": "2024-04-02",
        "priceEur": 621050,
        "typeLocal": "Maison",
        "surfaceM2": 191,
        "isVefa": false
      }
    ]
  },
  "ef5bdb215e6d": {
    "id": "ef5bdb215e6d",
    "label": "388 RUE DE BEAUREGARD, Saint-Gély-du-Fesc",
    "lat": 43.699594,
    "lng": 3.796422,
    "transactions": [
      {
        "date": "2024-06-19",
        "priceEur": 335000,
        "typeLocal": "Maison",
        "surfaceM2": 83,
        "isVefa": false
      }
    ]
  },
  "8b33ebeb7ab4": {
    "id": "8b33ebeb7ab4",
    "label": "248 RUE DE LA DRAILLE, Saint-Gély-du-Fesc",
    "lat": 43.699483,
    "lng": 3.800766,
    "transactions": [
      {
        "date": "2024-06-18",
        "priceEur": 734780,
        "typeLocal": "Maison",
        "surfaceM2": 127,
        "isVefa": false
      }
    ]
  },
  "a086de4f7ef4": {
    "id": "a086de4f7ef4",
    "label": "640 RUE DE VALENE, Saint-Gély-du-Fesc",
    "lat": 43.696889,
    "lng": 3.798563,
    "transactions": [
      {
        "date": "2024-06-24",
        "priceEur": 396200,
        "typeLocal": "Maison",
        "surfaceM2": 96,
        "isVefa": false
      }
    ]
  },
  "007e88791ad3": {
    "id": "007e88791ad3",
    "label": "108 RUE DU POUS, Saint-Gély-du-Fesc",
    "lat": 43.691967,
    "lng": 3.798707,
    "transactions": [
      {
        "date": "2025-01-24",
        "priceEur": 329400,
        "typeLocal": "Maison",
        "surfaceM2": 75,
        "isVefa": false
      }
    ]
  },
  "a93bf25c8b9d": {
    "id": "a93bf25c8b9d",
    "label": "531 RUE DES OLIVIERS, Saint-Gély-du-Fesc",
    "lat": 43.692748,
    "lng": 3.797995,
    "transactions": [
      {
        "date": "2025-03-27",
        "priceEur": 498200,
        "typeLocal": "Maison",
        "surfaceM2": 125,
        "isVefa": false
      }
    ]
  }
}