{
  "f1902013b5b6": {
    "id": "f1902013b5b6",
    "label": "83 RUE DES ROSEAUX, Saint-Gély-du-Fesc",
    "lat": 43.689161,
    "lng": 3.800189,
    "transactions": [
      {
        "date": "2020-07-23",
        "priceEur": 318140,
        "typeLocal": "Maison",
        "surfaceM2": 101,
        "isVefa": false
      }
    ]
  },
  "f93091b2befa": {
    "id": "f93091b2befa",
    "label": "412 RUE HECTOR BERLIOZ, Saint-Gély-du-Fesc",
    "lat": 43.689748,
    "lng": 3.796161,
    "transactions": [
      {
        "date": "2021-03-26",
        "priceEur": 865020,
        "typeLocal": "Maison",
        "surfaceM2": 210,
        "isVefa": false
      },
      {
        "date": "2021-03-26",
        "priceEur": 865020,
        "typeLocal": "Maison",
        "surfaceM2": 210,
        "isVefa": false
      }
    ]
  },
  "ba138bb24622": {
    "id": "ba138bb24622",
    "label": "30 ALL DU THYM, Saint-Gély-du-Fesc",
    "lat": 43.68734,
    "lng": 3.801128,
    "transactions": [
      {
        "date": "2021-04-19",
        "priceEur": 445150,
        "typeLocal": "Maison",
        "surfaceM2": 117,
        "isVefa": false
      }
    ]
  },
  "3f2e77d6547c": {
    "id": "3f2e77d6547c",
    "label": "238 RUE DU POUS, Saint-Gély-du-Fesc",
    "lat": 43.691325,
    "lng": 3.79819,
    "transactions": [
      {
        "date": "2021-10-08",
        "priceEur": 484000,
        "typeLocal": "Maison",
        "surfaceM2": 98,
        "isVefa": false
      }
    ]
  },
  "4ca78a33587c": {
    "id": "4ca78a33587c",
    "label": "222 RUE DU POUS, Saint-Gély-du-Fesc",
    "lat": 43.691524,
    "lng": 3.798102,
    "transactions": [
      {
        "date": "2022-02-11",
        "priceEur": 419500,
        "typeLocal": "Maison",
        "surfaceM2": 99,
        "isVefa": false
      }
    ]
  },
  "06f88c08b70f": {
    "id": "06f88c08b70f",
    "label": "825 RUE DE LA CANNELLE, Saint-Gély-du-Fesc",
    "lat": 43.687496,
    "lng": 3.799136,
    "transactions": [
      {
        "date": "2022-02-23",
        "priceEur": 675000,
        "typeLocal": "Maison",
        "surfaceM2": 167,
        "isVefa": false
      }
    ]
  },
  "5396bb90c603": {
    "id": "5396bb90c603",
    "label": "42 RUE GEORGES BIZET, Saint-Gély-du-Fesc",
    "lat": 43.68861,
    "lng": 3.797943,
    "transactions": [
      {
        "date": "2022-02-28",
        "priceEur": 689500,
        "typeLocal": "Maison",
        "surfaceM2": 153,
        "isVefa": false
      }
    ]
  },
  "9dfdbb727f51": {
    "id": "9dfdbb727f51",
    "label": "118 RUE DES ROSEAUX, Saint-Gély-du-Fesc",
    "lat": 43.688726,
    "lng": 3.800425,
    "transactions": [
      {
        "date": "2022-05-23",
        "priceEur": 240000,
        "typeLocal": "Maison",
        "surfaceM2": 89,
        "isVefa": false
      }
    ]
  },
  "6f3a613e921b": {
    "id": "6f3a613e921b",
    "label": "784 RUE DE LA CANNELLE, Saint-Gély-du-Fesc",
    "lat": 43.688076,
    "lng": 3.798826,
    "transactions": [
      {
        "date": "2022-05-12",
        "priceEur": 765090,
        "typeLocal": "Maison",
        "surfaceM2": 145,
        "isVefa": false
      }
    ]
  },
  "20929c08b2d7": {
    "id": "20929c08b2d7",
    "label": "119 RUE DU BOIS VIGIER, Saint-Gély-du-Fesc",
    "lat": 43.691122,
    "lng": 3.798608,
    "transactions": [
      {
        "date": "2022-08-29",
        "priceEur": 561650,
        "typeLocal": "Maison",
        "surfaceM2": 92,
        "isVefa": false
      }
    ]
  },
  "266aba02c382": {
    "id": "266aba02c382",
    "label": "139 RUE HECTOR BERLIOZ, Saint-Gély-du-Fesc",
    "lat": 43.689724,
    "lng": 3.798226,
    "transactions": [
      {
        "date": "2023-01-12",
        "priceEur": 620930,
        "typeLocal": "Maison",
        "surfaceM2": 122,
        "isVefa": false
      },
      {
        "date": "2023-01-12",
        "priceEur": 620930,
        "typeLocal": "Maison",
        "surfaceM2": 122,
        "isVefa": false
      }
    ]
  },
  "126afe3ae4c2": {
    "id": "126afe3ae4c2",
    "label": "307 RUE DU THYM, Saint-Gély-du-Fesc",
    "lat": 43.687654,
    "lng": 3.800694,
    "transactions": [
      {
        "date": "2023-08-16",
        "priceEur": 752890,
        "typeLocal": "Maison",
        "surfaceM2": 153,
        "isVefa": false
      }
    ]
  },
  "eb8a6a3ba14c": {
    "id": "eb8a6a3ba14c",
    "label": "52 IMP DU COUCHANT, Saint-Gély-du-Fesc",
    "lat": 43.685828,
    "lng": 3.801223,
    "transactions": [
      {
        "date": "2024-04-02",
        "priceEur": 945000,
        "typeLocal": "Maison",
        "surfaceM2": 128,
        "isVefa": false
      },
      {
        "date": "2024-04-02",
        "priceEur": 945000,
        "typeLocal": "Maison",
        "surfaceM2": 128,
        "isVefa": false
      },
      {
        "date": "2023-09-14",
        "priceEur": 680000,
        "typeLocal": "Maison",
        "surfaceM2": 128,
        "isVefa": false
      }
    ]
  },
  "0021b4b7716f": {
    "id": "0021b4b7716f",
    "label": "27 ALL DU MERLOT, Saint-Gély-du-Fesc",
    "lat": 43.683969,
    "lng": 3.80047,
    "transactions": [
      {
        "date": "2024-03-25",
        "priceEur": 574880,
        "typeLocal": "Maison",
        "surfaceM2": 131,
        "isVefa": false
      }
    ]
  },
  "d835eaa9ccb5": {
    "id": "d835eaa9ccb5",
    "label": "89 ALL DU MERLOT, Saint-Gély-du-Fesc",
    "lat": 43.684466,
    "lng": 3.80061,
    "transactions": [
      {
        "date": "2024-04-24",
        "priceEur": 576250,
        "typeLocal": "Maison",
        "surfaceM2": 107,
        "isVefa": false
      }
    ]
  },
  "5875d92fa383": {
    "id": "5875d92fa383",
    "label": "122 RUE MAURICE RAVEL, Saint-Gély-du-Fesc",
    "lat": 43.688073,
    "lng": 3.797828,
    "transactions": [
      {
        "date": "2024-06-28",
        "priceEur": 734860,
        "typeLocal": "Maison",
        "surfaceM2": 162,
        "isVefa": false
      },
      {
        "date": "2024-06-28",
        "priceEur": 734860,
        "typeLocal": "Maison",
        "surfaceM2": 162,
        "isVefa": false
      }
    ]
  },
  "c9826dca4440": {
    "id": "c9826dca4440",
    "label": "327 RUE HECTOR BERLIOZ, Saint-Gély-du-Fesc",
    "lat": 43.689492,
    "lng": 3.796637,
    "transactions": [
      {
        "date": "2024-08-21",
        "priceEur": 687000,
        "typeLocal": "Maison",
        "surfaceM2": 126,
        "isVefa": false
      },
      {
        "date": "2024-08-21",
        "priceEur": 687000,
        "typeLocal": "Maison",
        "surfaceM2": 126,
        "isVefa": false
      }
    ]
  },
  "f0a3b2b454db": {
    "id": "f0a3b2b454db",
    "label": "55 ALL DU MERLOT, Saint-Gély-du-Fesc",
    "lat": 43.684225,
    "lng": 3.80053,
    "transactions": [
      {
        "date": "2024-10-02",
        "priceEur": 620000,
        "typeLocal": "Maison",
        "surfaceM2": 130,
        "isVefa": false
      }
    ]
  },
  "24d81d5ca759": {
    "id": "24d81d5ca759",
    "label": "13 ALL DU MERLOT, Saint-Gély-du-Fesc",
    "lat": 43.683794,
    "lng": 3.800558,
    "transactions": [
      {
        "date": "2024-10-23",
        "priceEur": 683610,
        "typeLocal": "Maison",
        "surfaceM2": 139,
        "isVefa": false
      }
    ]
  }
}