{
  "3c28400dadc5": {
    "id": "3c28400dadc5",
    "label": "6157 RUE DU LIEUTENANT MALANDAIN, Octeville-sur-Mer",
    "lat": 49.555741,
    "lng": 0.121517,
    "transactions": [
      {
        "date": "2020-07-06",
        "priceEur": 225000,
        "typeLocal": "Maison",
        "surfaceM2": 81,
        "isVefa": false
      }
    ]
  },
  "a66387027eb4": {
    "id": "a66387027eb4",
    "label": "1 RUE VICTOR HUGO, Octeville-sur-Mer",
    "lat": 49.557414,
    "lng": 0.127022,
    "transactions": [
      {
        "date": "2020-08-11",
        "priceEur": 425000,
        "typeLocal": "Maison",
        "surfaceM2": 164,
        "isVefa": false
      }
    ]
  },
  "dd033f3530a7": {
    "id": "dd033f3530a7",
    "label": "23 ALL DES CHATAIGNIERS, Octeville-sur-Mer",
    "lat": 49.557484,
    "lng": 0.131602,
    "transactions": [
      {
        "date": "2020-09-07",
        "priceEur": 130000,
        "typeLocal": "Maison",
        "surfaceM2": 100,
        "isVefa": false
      }
    ]
  },
  "3732e8c66d2e": {
    "id": "3732e8c66d2e",
    "label": "44 RTE DE MONTIVILLIERS, Octeville-sur-Mer",
    "lat": 49.555143,
    "lng": 0.131283,
    "transactions": [
      {
        "date": "2020-09-23",
        "priceEur": 225000,
        "typeLocal": "Maison",
        "surfaceM2": 89,
        "isVefa": false
      }
    ]
  },
  "4bc97c578f69": {
    "id": "4bc97c578f69",
    "label": "6182 RUE DU LIEUTENANT MALANDAIN, Octeville-sur-Mer",
    "lat": 49.555594,
    "lng": 0.121404,
    "transactions": [
      {
        "date": "2020-10-06",
        "priceEur": 280000,
        "typeLocal": "Maison",
        "surfaceM2": 129,
        "isVefa": false
      }
    ]
  },
  "e1217ff08595": {
    "id": "e1217ff08595",
    "label": "9 IMP DE LA DECOUVERTE, Octeville-sur-Mer",
    "lat": 49.5547,
    "lng": 0.128111,
    "transactions": [
      {
        "date": "2020-12-28",
        "priceEur": 379000,
        "typeLocal": "Maison",
        "surfaceM2": 115,
        "isVefa": false
      }
    ]
  },
  "17410a598b74": {
    "id": "17410a598b74",
    "label": "5973 RUE ANDRE LEBAS, Octeville-sur-Mer",
    "lat": 49.555562,
    "lng": 0.126183,
    "transactions": [
      {
        "date": "2021-04-23",
        "priceEur": 295000,
        "typeLocal": "Maison",
        "surfaceM2": 80,
        "isVefa": false
      }
    ]
  },
  "641859435d3d": {
    "id": "641859435d3d",
    "label": "5619 RUE ANDRE LEBAS, Octeville-sur-Mer",
    "lat": 49.555077,
    "lng": 0.1271,
    "transactions": [
      {
        "date": "2021-06-09",
        "priceEur": 335000,
        "typeLocal": "Maison",
        "surfaceM2": 93,
        "isVefa": false
      }
    ]
  },
  "0fb095975a20": {
    "id": "0fb095975a20",
    "label": "5 IMP DE LA DECOUVERTE, Octeville-sur-Mer",
    "lat": 49.555029,
    "lng": 0.128228,
    "transactions": [
      {
        "date": "2021-07-29",
        "priceEur": 421000,
        "typeLocal": "Maison",
        "surfaceM2": 140,
        "isVefa": false
      }
    ]
  },
  "9db5f031863e": {
    "id": "9db5f031863e",
    "label": "17 CHE DE LA PRAIRIE, Octeville-sur-Mer",
    "lat": 49.558348,
    "lng": 0.126507,
    "transactions": [
      {
        "date": "2022-07-27",
        "priceEur": 430000,
        "typeLocal": "Maison",
        "surfaceM2": 159,
        "isVefa": false
      },
      {
        "date": "2021-08-19",
        "priceEur": 350000,
        "typeLocal": "Maison",
        "surfaceM2": 159,
        "isVefa": false
      }
    ]
  },
  "a104a4dd1bb7": {
    "id": "a104a4dd1bb7",
    "label": "16 IMP DE LA DECOUVERTE, Octeville-sur-Mer",
    "lat": 49.55403,
    "lng": 0.125719,
    "transactions": [
      {
        "date": "2021-09-15",
        "priceEur": 458000,
        "typeLocal": "Maison",
        "surfaceM2": 117,
        "isVefa": false
      }
    ]
  },
  "c60fb3d25aeb": {
    "id": "c60fb3d25aeb",
    "label": "6046 RUE DU LIEUTENANT MALANDAIN, Octeville-sur-Mer",
    "lat": 49.556227,
    "lng": 0.120989,
    "transactions": [
      {
        "date": "2021-10-15",
        "priceEur": 485000,
        "typeLocal": "Maison",
        "surfaceM2": 190,
        "isVefa": false
      }
    ]
  },
  "2b3b3a9567a6": {
    "id": "2b3b3a9567a6",
    "label": "2 IMP BONVOISIN, Octeville-sur-Mer",
    "lat": 49.558844,
    "lng": 0.121955,
    "transactions": [
      {
        "date": "2022-01-28",
        "priceEur": 406700,
        "typeLocal": "Maison",
        "surfaceM2": 136,
        "isVefa": false
      }
    ]
  },
  "658f9d4227a6": {
    "id": "658f9d4227a6",
    "label": "2 IMP MAURICE LEBLANC, Octeville-sur-Mer",
    "lat": 49.557175,
    "lng": 0.127094,
    "transactions": [
      {
        "date": "2022-02-15",
        "priceEur": 418000,
        "typeLocal": "Maison",
        "surfaceM2": 107,
        "isVefa": false
      }
    ]
  },
  "59fb8d4e8816": {
    "id": "59fb8d4e8816",
    "label": "6 RUE ANDRE LEBAS, Octeville-sur-Mer",
    "lat": 49.555304,
    "lng": 0.125307,
    "transactions": [
      {
        "date": "2022-03-01",
        "priceEur": 409830,
        "typeLocal": "Maison",
        "surfaceM2": 110,
        "isVefa": false
      }
    ]
  },
  "f86d34880d8b": {
    "id": "f86d34880d8b",
    "label": "20 CLOS DE LA BIENVEILLANCE, Octeville-sur-Mer",
    "lat": 49.55462,
    "lng": 0.131752,
    "transactions": [
      {
        "date": "2022-03-14",
        "priceEur": 1256000,
        "typeLocal": "Maison",
        "surfaceM2": 77,
        "isVefa": false
      }
    ]
  },
  "e4e173936f7b": {
    "id": "e4e173936f7b",
    "label": "5577 IMP BONVOISIN, Octeville-sur-Mer",
    "lat": 49.559245,
    "lng": 0.123408,
    "transactions": [
      {
        "date": "2022-04-28",
        "priceEur": 239000,
        "typeLocal": "Maison",
        "surfaceM2": 48,
        "isVefa": false
      }
    ]
  },
  "47345944160e": {
    "id": "47345944160e",
    "label": "14 RUE VICTOR HUGO, Octeville-sur-Mer",
    "lat": 49.556949,
    "lng": 0.125607,
    "transactions": [
      {
        "date": "2022-05-30",
        "priceEur": 511000,
        "typeLocal": "Maison",
        "surfaceM2": 207,
        "isVefa": false
      }
    ]
  },
  "c3f1b3879bc8": {
    "id": "c3f1b3879bc8",
    "label": "8 RUE ARMAND SALACROU, Octeville-sur-Mer",
    "lat": 49.557695,
    "lng": 0.12733,
    "transactions": [
      {
        "date": "2023-01-13",
        "priceEur": 310000,
        "typeLocal": "Maison",
        "surfaceM2": 83,
        "isVefa": false
      }
    ]
  },
  "37f3b00dcbc6": {
    "id": "37f3b00dcbc6",
    "label": "5947 RUE DU 12 SEPTEMBRE 1944, Octeville-sur-Mer",
    "lat": 49.55482,
    "lng": 0.126059,
    "transactions": [
      {
        "date": "2023-07-20",
        "priceEur": 287000,
        "typeLocal": "Maison",
        "surfaceM2": 75,
        "isVefa": false
      }
    ]
  },
  "3bf7812e2708": {
    "id": "3bf7812e2708",
    "label": "5983 IMP DE LA FERME, Octeville-sur-Mer",
    "lat": 49.554882,
    "lng": 0.127106,
    "transactions": [
      {
        "date": "2023-07-13",
        "priceEur": 310000,
        "typeLocal": "Maison",
        "surfaceM2": 77,
        "isVefa": false
      }
    ]
  },
  "7308a9d413ca": {
    "id": "7308a9d413ca",
    "label": "41 RTE DE MONTIVILLIERS, Octeville-sur-Mer",
    "lat": 49.556154,
    "lng": 0.127802,
    "transactions": [
      {
        "date": "2023-08-25",
        "priceEur": 488000,
        "typeLocal": "Maison",
        "surfaceM2": 126,
        "isVefa": false
      }
    ]
  },
  "bcc317fdb6a0": {
    "id": "bcc317fdb6a0",
    "label": "6830 CHE DE LA PRAIRIE, Octeville-sur-Mer",
    "lat": 49.558595,
    "lng": 0.125443,
    "transactions": [
      {
        "date": "2023-11-20",
        "priceEur": 240000,
        "typeLocal": "Maison",
        "surfaceM2": 75,
        "isVefa": false
      }
    ]
  },
  "e726dc5ff8e4": {
    "id": "e726dc5ff8e4",
    "label": "6653 RTE DE MONTIVILLIERS, Octeville-sur-Mer",
    "lat": 49.556509,
    "lng": 0.12252,
    "transactions": [
      {
        "date": "2024-01-10",
        "priceEur": 318250,
        "typeLocal": "Maison",
        "surfaceM2": 86,
        "isVefa": false
      }
    ]
  },
  "5dcff064ecfc": {
    "id": "5dcff064ecfc",
    "label": "2 RUE ANDRE LEBAS, Octeville-sur-Mer",
    "lat": 49.555701,
    "lng": 0.125079,
    "transactions": [
      {
        "date": "2024-05-21",
        "priceEur": 443000,
        "typeLocal": "Maison",
        "surfaceM2": 138,
        "isVefa": false
      }
    ]
  },
  "5aa7eebe09b1": {
    "id": "5aa7eebe09b1",
    "label": "6 IMP CHARLES DELLA BELLA, Octeville-sur-Mer",
    "lat": 49.555115,
    "lng": 0.124669,
    "transactions": [
      {
        "date": "2024-11-28",
        "priceEur": 313650,
        "typeLocal": "Maison",
        "surfaceM2": 129,
        "isVefa": false
      }
    ]
  },
  "54bd06db9efc": {
    "id": "54bd06db9efc",
    "label": "16 CHE DE LA PRAIRIE, Octeville-sur-Mer",
    "lat": 49.557846,
    "lng": 0.123578,
    "transactions": [
      {
        "date": "2024-11-19",
        "priceEur": 284000,
        "typeLocal": "Maison",
        "surfaceM2": 83,
        "isVefa": false
      },
      {
        "date": "2024-11-19",
        "priceEur": 284000,
        "typeLocal": "Maison",
        "surfaceM2": 50,
        "isVefa": false
      },
      {
        "date": "2024-11-19",
        "priceEur": 284000,
        "typeLocal": "Maison",
        "surfaceM2": 66,
        "isVefa": false
      }
    ]
  }
}