{
  "b31ef09d03eb": {
    "id": "b31ef09d03eb",
    "label": "187 RUE DE LA PLAINE, Saint-Nicolas-d'Aliermont",
    "lat": 49.882911,
    "lng": 1.214465,
    "transactions": [
      {
        "date": "2020-07-10",
        "priceEur": 165000,
        "typeLocal": "Maison",
        "surfaceM2": 70,
        "isVefa": false
      }
    ]
  },
  "8a67b7762376": {
    "id": "8a67b7762376",
    "label": "108 PAS DE LA SCIERIE, Saint-Nicolas-d'Aliermont",
    "lat": 49.88156,
    "lng": 1.210044,
    "transactions": [
      {
        "date": "2021-03-25",
        "priceEur": 61000,
        "typeLocal": "Maison",
        "surfaceM2": 60,
        "isVefa": false
      }
    ]
  },
  "30983523440f": {
    "id": "30983523440f",
    "label": "855 RUE D ARQUES, Saint-Nicolas-d'Aliermont",
    "lat": 49.88126,
    "lng": 1.210385,
    "transactions": [
      {
        "date": "2021-07-15",
        "priceEur": 120000,
        "typeLocal": "Maison",
        "surfaceM2": 99,
        "isVefa": false
      }
    ]
  },
  "2a4686e164db": {
    "id": "2a4686e164db",
    "label": "105 RUE DE LA PLAINE, Saint-Nicolas-d'Aliermont",
    "lat": 49.882224,
    "lng": 1.214232,
    "transactions": [
      {
        "date": "2021-07-26",
        "priceEur": 203400,
        "typeLocal": "Maison",
        "surfaceM2": 87,
        "isVefa": false
      }
    ]
  },
  "fac8a4b22e2b": {
    "id": "fac8a4b22e2b",
    "label": "706 RUE EDOUARD CANNEVEL, Saint-Nicolas-d'Aliermont",
    "lat": 49.88048,
    "lng": 1.210875,
    "transactions": [
      {
        "date": "2021-08-24",
        "priceEur": 93000,
        "typeLocal": "Maison",
        "surfaceM2": 70,
        "isVefa": false
      }
    ]
  },
  "036dfd4299fb": {
    "id": "036dfd4299fb",
    "label": "44 AV DE VAUCANSON, Saint-Nicolas-d'Aliermont",
    "lat": 49.88091,
    "lng": 1.21578,
    "transactions": [
      {
        "date": "2021-09-15",
        "priceEur": 180000,
        "typeLocal": "Maison",
        "surfaceM2": 89,
        "isVefa": false
      }
    ]
  },
  "481b28f8fd57": {
    "id": "481b28f8fd57",
    "label": "27 RUE DE L INDUSTRIE, Saint-Nicolas-d'Aliermont",
    "lat": 49.88051,
    "lng": 1.213646,
    "transactions": [
      {
        "date": "2024-08-13",
        "priceEur": 127500,
        "typeLocal": "Maison",
        "surfaceM2": 64,
        "isVefa": false
      },
      {
        "date": "2022-01-25",
        "priceEur": 123500,
        "typeLocal": "Maison",
        "surfaceM2": 64,
        "isVefa": false
      }
    ]
  },
  "1a009913be3b": {
    "id": "1a009913be3b",
    "label": "674 RUE EDOUARD CANNEVEL, Saint-Nicolas-d'Aliermont",
    "lat": 49.880545,
    "lng": 1.211323,
    "transactions": [
      {
        "date": "2022-01-24",
        "priceEur": 180000,
        "typeLocal": "Maison",
        "surfaceM2": 116,
        "isVefa": false
      }
    ]
  },
  "8ee832985936": {
    "id": "8ee832985936",
    "label": "43 RUE DE L INDUSTRIE, Saint-Nicolas-d'Aliermont",
    "lat": 49.880618,
    "lng": 1.213677,
    "transactions": [
      {
        "date": "2024-02-28",
        "priceEur": 130000,
        "typeLocal": "Maison",
        "surfaceM2": 60,
        "isVefa": false
      },
      {
        "date": "2022-01-29",
        "priceEur": 100500,
        "typeLocal": "Maison",
        "surfaceM2": 60,
        "isVefa": false
      }
    ]
  },
  "d2008761a19b": {
    "id": "d2008761a19b",
    "label": "134 PAS DE LA SCIERIE, Saint-Nicolas-d'Aliermont",
    "lat": 49.881766,
    "lng": 1.210073,
    "transactions": [
      {
        "date": "2024-06-07",
        "priceEur": 118800,
        "typeLocal": "Maison",
        "surfaceM2": 45,
        "isVefa": false
      },
      {
        "date": "2022-05-18",
        "priceEur": 80000,
        "typeLocal": "Maison",
        "surfaceM2": 45,
        "isVefa": false
      }
    ]
  },
  "6e649d15eb70": {
    "id": "6e649d15eb70",
    "label": "9A RUE D ARQUES, Saint-Nicolas-d'Aliermont",
    "lat": 49.880612,
    "lng": 1.218612,
    "transactions": [
      {
        "date": "2022-10-29",
        "priceEur": 247000,
        "typeLocal": "Maison",
        "surfaceM2": 139,
        "isVefa": false
      }
    ]
  },
  "f6ab2839793f": {
    "id": "f6ab2839793f",
    "label": "49 AV DE VAUCANSON, Saint-Nicolas-d'Aliermont",
    "lat": 49.880599,
    "lng": 1.215092,
    "transactions": [
      {
        "date": "2023-02-17",
        "priceEur": 151500,
        "typeLocal": "Maison",
        "surfaceM2": 67,
        "isVefa": false
      }
    ]
  },
  "3f67a8227b0a": {
    "id": "3f67a8227b0a",
    "label": "288 RUE JEAN AIME JACOB, Saint-Nicolas-d'Aliermont",
    "lat": 49.882173,
    "lng": 1.208917,
    "transactions": [
      {
        "date": "2023-12-27",
        "priceEur": 110000,
        "typeLocal": "Maison",
        "surfaceM2": 91,
        "isVefa": false
      }
    ]
  },
  "2c7ee827cc09": {
    "id": "2c7ee827cc09",
    "label": "42 RUE DE LA PLAINE, Saint-Nicolas-d'Aliermont",
    "lat": 49.881794,
    "lng": 1.214458,
    "transactions": [
      {
        "date": "2024-05-17",
        "priceEur": 210000,
        "typeLocal": "Maison",
        "surfaceM2": 85,
        "isVefa": false
      }
    ]
  },
  "23acb821a10d": {
    "id": "23acb821a10d",
    "label": "287 RUE D ARQUES, Saint-Nicolas-d'Aliermont",
    "lat": 49.88079,
    "lng": 1.218361,
    "transactions": [
      {
        "date": "2024-06-18",
        "priceEur": 168500,
        "typeLocal": "Maison",
        "surfaceM2": 81,
        "isVefa": false
      }
    ]
  },
  "3dcef05e1625": {
    "id": "3dcef05e1625",
    "label": "732 RUE EDOUARD CANNEVEL, Saint-Nicolas-d'Aliermont",
    "lat": 49.880539,
    "lng": 1.210541,
    "transactions": [
      {
        "date": "2024-06-14",
        "priceEur": 80000,
        "typeLocal": "Maison",
        "surfaceM2": 76,
        "isVefa": false
      }
    ]
  },
  "3ce8d51320b4": {
    "id": "3ce8d51320b4",
    "label": "350 RUE EDOUARD CANNEVEL, Saint-Nicolas-d'Aliermont",
    "lat": 49.88091,
    "lng": 1.21578,
    "transactions": [
      {
        "date": "2024-07-11",
        "priceEur": 97000,
        "typeLocal": "Maison",
        "surfaceM2": 44,
        "isVefa": false
      }
    ]
  },
  "52f3f70098c8": {
    "id": "52f3f70098c8",
    "label": "74 RUE DES LILAS, Saint-Nicolas-d'Aliermont",
    "lat": 49.880724,
    "lng": 1.216233,
    "transactions": [
      {
        "date": "2024-08-20",
        "priceEur": 82000,
        "typeLocal": "Maison",
        "surfaceM2": 46,
        "isVefa": false
      }
    ]
  },
  "ab07752c41ba": {
    "id": "ab07752c41ba",
    "label": "36 RUE DU THIL, Saint-Nicolas-d'Aliermont",
    "lat": 49.880496,
    "lng": 1.208949,
    "transactions": [
      {
        "date": "2024-11-20",
        "priceEur": 100000,
        "typeLocal": "Maison",
        "surfaceM2": 63,
        "isVefa": false
      }
    ]
  },
  "5667fdb3663d": {
    "id": "5667fdb3663d",
    "label": "2 AV DE VAUCANSON, Saint-Nicolas-d'Aliermont",
    "lat": 49.88091,
    "lng": 1.21578,
    "transactions": [
      {
        "date": "2025-01-08",
        "priceEur": 115000,
        "typeLocal": "Maison",
        "surfaceM2": 92,
        "isVefa": false
      }
    ]
  },
  "a3eb56a44d23": {
    "id": "a3eb56a44d23",
    "label": "11B AV DE VAUCANSON, Saint-Nicolas-d'Aliermont",
    "lat": 49.880822,
    "lng": 1.215022,
    "transactions": [
      {
        "date": "2025-03-07",
        "priceEur": 140000,
        "typeLocal": "Maison",
        "surfaceM2": 92,
        "isVefa": false
      }
    ]
  },
  "ca87a48fcaaa": {
    "id": "ca87a48fcaaa",
    "label": "505 RUE D ARQUES, Saint-Nicolas-d'Aliermont",
    "lat": 49.881105,
    "lng": 1.215265,
    "transactions": [
      {
        "date": "2025-06-17",
        "priceEur": 119650,
        "typeLocal": "Maison",
        "surfaceM2": 44,
        "isVefa": false
      }
    ]
  }
}