{
  "7a57513ff6c0": {
    "id": "7a57513ff6c0",
    "label": "2789 RUE DES CANADIENS, Saint-Jacques-sur-Darnétal",
    "lat": 49.45787,
    "lng": 1.20859,
    "transactions": [
      {
        "date": "2021-04-22",
        "priceEur": 130000,
        "typeLocal": "Maison",
        "surfaceM2": 171,
        "isVefa": false
      }
    ]
  },
  "158c0b1091fb": {
    "id": "158c0b1091fb",
    "label": "146 RUE DE LA CHAPELLE, Saint-Jacques-sur-Darnétal",
    "lat": 49.456526,
    "lng": 1.214871,
    "transactions": [
      {
        "date": "2021-06-07",
        "priceEur": 90000,
        "typeLocal": "Maison",
        "surfaceM2": 69,
        "isVefa": false
      }
    ]
  },
  "397033103897": {
    "id": "397033103897",
    "label": "151 RUE DE LA CHAPELLE, Saint-Jacques-sur-Darnétal",
    "lat": 49.45558,
    "lng": 1.214625,
    "transactions": [
      {
        "date": "2022-11-07",
        "priceEur": 181000,
        "typeLocal": "Maison",
        "surfaceM2": 102,
        "isVefa": false
      }
    ]
  },
  "22afc075958e": {
    "id": "22afc075958e",
    "label": "135 SEN DES FORGETTES, Saint-Jacques-sur-Darnétal",
    "lat": 49.456998,
    "lng": 1.215759,
    "transactions": [
      {
        "date": "2023-05-16",
        "priceEur": 470000,
        "typeLocal": "Maison",
        "surfaceM2": 177,
        "isVefa": false
      }
    ]
  },
  "a6350ced81ff": {
    "id": "a6350ced81ff",
    "label": "91 RTE DE PREAUX, Saint-Jacques-sur-Darnétal",
    "lat": 49.45835,
    "lng": 1.209738,
    "transactions": [
      {
        "date": "2023-09-21",
        "priceEur": 395000,
        "typeLocal": "Maison",
        "surfaceM2": 151,
        "isVefa": false
      }
    ]
  },
  "26174db676fc": {
    "id": "26174db676fc",
    "label": "4095 RTE DE GOURNAY, Saint-Jacques-sur-Darnétal",
    "lat": 49.45543,
    "lng": 1.215318,
    "transactions": [
      {
        "date": "2024-09-10",
        "priceEur": 215000,
        "typeLocal": "Maison",
        "surfaceM2": 83,
        "isVefa": false
      }
    ]
  },
  "59dfeb4f7236": {
    "id": "59dfeb4f7236",
    "label": "4059 RTE DE GOURNAY, Saint-Jacques-sur-Darnétal",
    "lat": 49.455017,
    "lng": 1.215011,
    "transactions": [
      {
        "date": "2025-05-23",
        "priceEur": 165000,
        "typeLocal": "Maison",
        "surfaceM2": 90,
        "isVefa": false
      }
    ]
  }
}