{
  "3cd6ee951fea": {
    "id": "3cd6ee951fea",
    "label": "2 LE HAUT MAUVARD, Saint-Pierre-en-Port",
    "lat": 49.807037,
    "lng": 0.48607,
    "transactions": [
      {
        "date": "2020-10-21",
        "priceEur": 380000,
        "typeLocal": "Maison",
        "surfaceM2": 180,
        "isVefa": false
      }
    ]
  },
  "9039a562ea09": {
    "id": "9039a562ea09",
    "label": "18 LE HAUT MAUVARD, Saint-Pierre-en-Port",
    "lat": 49.807015,
    "lng": 0.485719,
    "transactions": [
      {
        "date": "2020-11-17",
        "priceEur": 399000,
        "typeLocal": "Maison",
        "surfaceM2": 180,
        "isVefa": false
      }
    ]
  },
  "f606f29a5672": {
    "id": "f606f29a5672",
    "label": "880 RUE DU CHATEAU, Saint-Pierre-en-Port",
    "lat": 49.808755,
    "lng": 0.48859,
    "transactions": [
      {
        "date": "2024-11-04",
        "priceEur": 78000,
        "typeLocal": "Appartement",
        "surfaceM2": 20,
        "isVefa": false
      },
      {
        "date": "2024-08-31",
        "priceEur": 76000,
        "typeLocal": "Appartement",
        "surfaceM2": 30,
        "isVefa": false
      },
      {
        "date": "2022-11-24",
        "priceEur": 70000,
        "typeLocal": "Appartement",
        "surfaceM2": 25,
        "isVefa": false
      },
      {
        "date": "2022-08-26",
        "priceEur": 85000,
        "typeLocal": "Appartement",
        "surfaceM2": 30,
        "isVefa": false
      },
      {
        "date": "2021-08-27",
        "priceEur": 54170,
        "typeLocal": "Appartement",
        "surfaceM2": 25,
        "isVefa": false
      }
    ]
  },
  "3c7500635f68": {
    "id": "3c7500635f68",
    "label": "1 RES LE DORIS, Saint-Pierre-en-Port",
    "lat": 49.803546,
    "lng": 0.490717,
    "transactions": [
      {
        "date": "2021-12-22",
        "priceEur": 77091,
        "typeLocal": "Maison",
        "surfaceM2": 76,
        "isVefa": false
      },
      {
        "date": "2021-12-22",
        "priceEur": 77091,
        "typeLocal": "Maison",
        "surfaceM2": 63,
        "isVefa": false
      }
    ]
  },
  "6b72370bf402": {
    "id": "6b72370bf402",
    "label": "225 RUE DU CHATEAU, Saint-Pierre-en-Port",
    "lat": 49.803868,
    "lng": 0.492991,
    "transactions": [
      {
        "date": "2022-06-30",
        "priceEur": 175000,
        "typeLocal": "Maison",
        "surfaceM2": 70,
        "isVefa": false
      }
    ]
  },
  "2fcf13d60856": {
    "id": "2fcf13d60856",
    "label": "20 RES LES CORMORANS, Saint-Pierre-en-Port",
    "lat": 49.805659,
    "lng": 0.494225,
    "transactions": [
      {
        "date": "2022-07-22",
        "priceEur": 246000,
        "typeLocal": "Maison",
        "surfaceM2": 125,
        "isVefa": false
      }
    ]
  },
  "33e363b4885f": {
    "id": "33e363b4885f",
    "label": "9 RES LES CORMORANS, Saint-Pierre-en-Port",
    "lat": 49.805612,
    "lng": 0.49198,
    "transactions": [
      {
        "date": "2023-12-01",
        "priceEur": 202000,
        "typeLocal": "Maison",
        "surfaceM2": 110,
        "isVefa": false
      },
      {
        "date": "2022-07-18",
        "priceEur": 155000,
        "typeLocal": "Maison",
        "surfaceM2": 110,
        "isVefa": false
      }
    ]
  },
  "64c3e4430022": {
    "id": "64c3e4430022",
    "label": "11 CHE DES FALAISES, Saint-Pierre-en-Port",
    "lat": 49.808992,
    "lng": 0.491221,
    "transactions": [
      {
        "date": "2022-07-28",
        "priceEur": 328000,
        "typeLocal": "Maison",
        "surfaceM2": 45,
        "isVefa": false
      }
    ]
  },
  "0a39898f183c": {
    "id": "0a39898f183c",
    "label": "2 RUE DU CALVAIRE, Saint-Pierre-en-Port",
    "lat": 49.806357,
    "lng": 0.494048,
    "transactions": [
      {
        "date": "2023-06-29",
        "priceEur": 224700,
        "typeLocal": "Appartement",
        "surfaceM2": 41,
        "isVefa": false
      },
      {
        "date": "2023-06-29",
        "priceEur": 224700,
        "typeLocal": "Appartement",
        "surfaceM2": 37,
        "isVefa": false
      },
      {
        "date": "2023-06-29",
        "priceEur": 224700,
        "typeLocal": "Appartement",
        "surfaceM2": 48,
        "isVefa": false
      }
    ]
  },
  "5a7287a4bcbc": {
    "id": "5a7287a4bcbc",
    "label": "6 RUE DE L ARGILIERE, Saint-Pierre-en-Port",
    "lat": 49.807623,
    "lng": 0.490735,
    "transactions": [
      {
        "date": "2023-08-25",
        "priceEur": 112000,
        "typeLocal": "Maison",
        "surfaceM2": 87,
        "isVefa": false
      }
    ]
  },
  "1388e754003c": {
    "id": "1388e754003c",
    "label": "72 RUE D ELETOT, Saint-Pierre-en-Port",
    "lat": 49.80378,
    "lng": 0.492465,
    "transactions": [
      {
        "date": "2023-09-04",
        "priceEur": 170350,
        "typeLocal": "Maison",
        "surfaceM2": 79,
        "isVefa": false
      }
    ]
  },
  "e4956d79ed61": {
    "id": "e4956d79ed61",
    "label": "7B RUE DES MOUETTES, Saint-Pierre-en-Port",
    "lat": 49.804781,
    "lng": 0.49297,
    "transactions": [
      {
        "date": "2023-11-03",
        "priceEur": 300000,
        "typeLocal": "Maison",
        "surfaceM2": 116,
        "isVefa": false
      }
    ]
  },
  "5e4c629dd0b1": {
    "id": "5e4c629dd0b1",
    "label": "195 RUE DU CHATEAU, Saint-Pierre-en-Port",
    "lat": 49.80361,
    "lng": 0.493979,
    "transactions": [
      {
        "date": "2023-11-15",
        "priceEur": 215000,
        "typeLocal": "Maison",
        "surfaceM2": 90,
        "isVefa": false
      }
    ]
  },
  "50cc06ee19aa": {
    "id": "50cc06ee19aa",
    "label": "16 LE HAUT MAUVARD, Saint-Pierre-en-Port",
    "lat": 49.807422,
    "lng": 0.485455,
    "transactions": [
      {
        "date": "2024-06-05",
        "priceEur": 153000,
        "typeLocal": "Maison",
        "surfaceM2": 120,
        "isVefa": false
      }
    ]
  },
  "c2840dc7e2c4": {
    "id": "c2840dc7e2c4",
    "label": "8 RES LES CORMORANS, Saint-Pierre-en-Port",
    "lat": 49.805814,
    "lng": 0.492054,
    "transactions": [
      {
        "date": "2024-07-11",
        "priceEur": 218500,
        "typeLocal": "Maison",
        "surfaceM2": 140,
        "isVefa": false
      }
    ]
  },
  "0da54882d8fc": {
    "id": "0da54882d8fc",
    "label": "2B RUE DU CALVAIRE, Saint-Pierre-en-Port",
    "lat": 49.805471,
    "lng": 0.493774,
    "transactions": [
      {
        "date": "2025-03-31",
        "priceEur": 250000,
        "typeLocal": "Maison",
        "surfaceM2": 124,
        "isVefa": false
      }
    ]
  },
  "b414818a31e7": {
    "id": "b414818a31e7",
    "label": "6 CHE DU RAIDILLON, Saint-Pierre-en-Port",
    "lat": 49.808437,
    "lng": 0.489158,
    "transactions": [
      {
        "date": "2025-06-02",
        "priceEur": 139000,
        "typeLocal": "Maison",
        "surfaceM2": 60,
        "isVefa": false
      }
    ]
  }
}