{
  "80c835586785": {
    "id": "80c835586785",
    "label": "37 RUE DE GREENOCK, Cany-Barville",
    "lat": 49.790879,
    "lng": 0.635627,
    "transactions": [
      {
        "date": "2020-07-28",
        "priceEur": 192000,
        "typeLocal": "Maison",
        "surfaceM2": 90,
        "isVefa": false
      }
    ]
  },
  "7996fa6437e2": {
    "id": "7996fa6437e2",
    "label": "18 RUE DU LAC, Clasville",
    "lat": 49.794512,
    "lng": 0.632337,
    "transactions": [
      {
        "date": "2023-10-27",
        "priceEur": 453455,
        "typeLocal": "Maison",
        "surfaceM2": 90,
        "isVefa": false
      },
      {
        "date": "2020-11-05",
        "priceEur": 304500,
        "typeLocal": "Maison",
        "surfaceM2": 90,
        "isVefa": false
      }
    ]
  },
  "8b0c8e950a68": {
    "id": "8b0c8e950a68",
    "label": "27 RUE DU HOME, Cany-Barville",
    "lat": 49.790239,
    "lng": 0.633058,
    "transactions": [
      {
        "date": "2021-09-06",
        "priceEur": 150000,
        "typeLocal": "Maison",
        "surfaceM2": 73,
        "isVefa": false
      }
    ]
  },
  "bbae0e51fdb9": {
    "id": "bbae0e51fdb9",
    "label": "3 RUE DU MOULIN, Cany-Barville",
    "lat": 49.789009,
    "lng": 0.636566,
    "transactions": [
      {
        "date": "2021-10-15",
        "priceEur": 363753,
        "typeLocal": "Maison",
        "surfaceM2": 180,
        "isVefa": false
      }
    ]
  },
  "1fd7f1c380e4": {
    "id": "1fd7f1c380e4",
    "label": "18B RUE DE GREENOCK, Cany-Barville",
    "lat": 49.790578,
    "lng": 0.636844,
    "transactions": [
      {
        "date": "2021-01-22",
        "priceEur": 449000,
        "typeLocal": "Maison",
        "surfaceM2": 276,
        "isVefa": false
      }
    ]
  },
  "aee69ecff646": {
    "id": "aee69ecff646",
    "label": "11 RUE DU HOME, Cany-Barville",
    "lat": 49.788426,
    "lng": 0.633467,
    "transactions": [
      {
        "date": "2022-12-09",
        "priceEur": 130000,
        "typeLocal": "Maison",
        "surfaceM2": 77,
        "isVefa": false
      }
    ]
  },
  "788c6a82ae06": {
    "id": "788c6a82ae06",
    "label": "13 RUE DU HOME, Cany-Barville",
    "lat": 49.788472,
    "lng": 0.633426,
    "transactions": [
      {
        "date": "2022-12-09",
        "priceEur": 130000,
        "typeLocal": "Maison",
        "surfaceM2": 74,
        "isVefa": false
      }
    ]
  },
  "40670a675efa": {
    "id": "40670a675efa",
    "label": "17 RUE DU HOME, Cany-Barville",
    "lat": 49.788505,
    "lng": 0.633381,
    "transactions": [
      {
        "date": "2022-12-23",
        "priceEur": 148500,
        "typeLocal": "Maison",
        "surfaceM2": 74,
        "isVefa": false
      }
    ]
  },
  "c44fb68f4775": {
    "id": "c44fb68f4775",
    "label": "41 RUE DE GREENOCK, Cany-Barville",
    "lat": 49.791321,
    "lng": 0.63559,
    "transactions": [
      {
        "date": "2023-02-20",
        "priceEur": 39000,
        "typeLocal": "Maison",
        "surfaceM2": 69,
        "isVefa": false
      }
    ]
  },
  "5398b8e5d06c": {
    "id": "5398b8e5d06c",
    "label": "25 RUE DE GREENOCK, Cany-Barville",
    "lat": 49.788973,
    "lng": 0.635322,
    "transactions": [
      {
        "date": "2024-03-26",
        "priceEur": 180000,
        "typeLocal": "Maison",
        "surfaceM2": 120,
        "isVefa": false
      }
    ]
  },
  "9c6e5efca86a": {
    "id": "9c6e5efca86a",
    "label": "27 IMP DE LA SCIERIE, Cany-Barville",
    "lat": 49.792007,
    "lng": 0.637049,
    "transactions": [
      {
        "date": "2024-08-08",
        "priceEur": 134375,
        "typeLocal": "Maison",
        "surfaceM2": 71,
        "isVefa": false
      }
    ]
  },
  "f03488632cb1": {
    "id": "f03488632cb1",
    "label": "23B RUE DU HOME, Cany-Barville",
    "lat": 49.788984,
    "lng": 0.633309,
    "transactions": [
      {
        "date": "2024-11-29",
        "priceEur": 178000,
        "typeLocal": "Maison",
        "surfaceM2": 80,
        "isVefa": false
      }
    ]
  }
}