{
  "20a11030e5fc": {
    "id": "20a11030e5fc",
    "label": "6 RUE DU CONSISTOIRE, Faugères",
    "lat": 43.565753,
    "lng": 3.188786,
    "transactions": [
      {
        "date": "2020-07-27",
        "priceEur": 69450,
        "typeLocal": "Maison",
        "surfaceM2": 56,
        "isVefa": false
      }
    ]
  },
  "78573204a919": {
    "id": "78573204a919",
    "label": "13 RUE MATINE, Faugères",
    "lat": 43.565464,
    "lng": 3.189178,
    "transactions": [
      {
        "date": "2020-07-31",
        "priceEur": 28000,
        "typeLocal": "Maison",
        "surfaceM2": 60,
        "isVefa": false
      }
    ]
  },
  "b41ca3e96537": {
    "id": "b41ca3e96537",
    "label": "4B RUE DE DERRIERE LA VILLE, Faugères",
    "lat": 43.565361,
    "lng": 3.189913,
    "transactions": [
      {
        "date": "2020-10-21",
        "priceEur": 144000,
        "typeLocal": "Maison",
        "surfaceM2": 90,
        "isVefa": false
      }
    ]
  },
  "6601452586e7": {
    "id": "6601452586e7",
    "label": "2 RUE DE L'AUBERGE, Faugères",
    "lat": 43.56491,
    "lng": 3.189447,
    "transactions": [
      {
        "date": "2021-04-16",
        "priceEur": 51000,
        "typeLocal": "Maison",
        "surfaceM2": 50,
        "isVefa": false
      }
    ]
  },
  "6eb88f50fc33": {
    "id": "6eb88f50fc33",
    "label": "13 RUE DU FOUR, Faugères",
    "lat": 43.565359,
    "lng": 3.188369,
    "transactions": [
      {
        "date": "2025-03-21",
        "priceEur": 95000,
        "typeLocal": "Maison",
        "surfaceM2": 77,
        "isVefa": false
      },
      {
        "date": "2021-05-12",
        "priceEur": 63500,
        "typeLocal": "Maison",
        "surfaceM2": 77,
        "isVefa": false
      }
    ]
  },
  "38b0b6ed789b": {
    "id": "38b0b6ed789b",
    "label": "10 RUE DU VIEUX CHATEAU, Faugères",
    "lat": 43.564969,
    "lng": 3.188082,
    "transactions": [
      {
        "date": "2021-06-25",
        "priceEur": 91841,
        "typeLocal": "Maison",
        "surfaceM2": 70,
        "isVefa": false
      }
    ]
  },
  "fb662684fa36": {
    "id": "fb662684fa36",
    "label": "15 RUE DU VIEUX CHATEAU, Faugères",
    "lat": 43.565379,
    "lng": 3.188185,
    "transactions": [
      {
        "date": "2025-02-13",
        "priceEur": 32000,
        "typeLocal": "Maison",
        "surfaceM2": 53,
        "isVefa": false
      },
      {
        "date": "2021-07-20",
        "priceEur": 20500,
        "typeLocal": "Maison",
        "surfaceM2": 53,
        "isVefa": false
      }
    ]
  },
  "f6ed44e4bb87": {
    "id": "f6ed44e4bb87",
    "label": "5 RUE JUIVE, Faugères",
    "lat": 43.56593,
    "lng": 3.189202,
    "transactions": [
      {
        "date": "2021-08-02",
        "priceEur": 130000,
        "typeLocal": "Maison",
        "surfaceM2": 51,
        "isVefa": false
      }
    ]
  },
  "4a69aa2ee69c": {
    "id": "4a69aa2ee69c",
    "label": "140 IMP DES TROIS TOURS, Faugères",
    "lat": 43.568038,
    "lng": 3.187754,
    "transactions": [
      {
        "date": "2021-09-03",
        "priceEur": 295000,
        "typeLocal": "Maison",
        "surfaceM2": 160,
        "isVefa": false
      },
      {
        "date": "2021-09-03",
        "priceEur": 295000,
        "typeLocal": "Maison",
        "surfaceM2": 160,
        "isVefa": false
      }
    ]
  },
  "eda489755333": {
    "id": "eda489755333",
    "label": "138 CHE DE POUXSEQ, Faugères",
    "lat": 43.567094,
    "lng": 3.190802,
    "transactions": [
      {
        "date": "2021-08-13",
        "priceEur": 590000,
        "typeLocal": "Maison",
        "surfaceM2": 211,
        "isVefa": false
      },
      {
        "date": "2021-08-13",
        "priceEur": 590000,
        "typeLocal": "Maison",
        "surfaceM2": 211,
        "isVefa": false
      }
    ]
  },
  "70c64a0c940d": {
    "id": "70c64a0c940d",
    "label": "2 RUE DE DERRIERE LA VILLE, Faugères",
    "lat": 43.565184,
    "lng": 3.190021,
    "transactions": [
      {
        "date": "2021-09-30",
        "priceEur": 215000,
        "typeLocal": "Maison",
        "surfaceM2": 99,
        "isVefa": false
      }
    ]
  },
  "e8271b1b1ae2": {
    "id": "e8271b1b1ae2",
    "label": "19 RUE DU VIEUX CHATEAU, Faugères",
    "lat": 43.565585,
    "lng": 3.18809,
    "transactions": [
      {
        "date": "2021-10-15",
        "priceEur": 597500,
        "typeLocal": "Maison",
        "surfaceM2": 340,
        "isVefa": false
      }
    ]
  },
  "4b6bca045f5b": {
    "id": "4b6bca045f5b",
    "label": "4 RUE DE DERRIERE LA VILLE, Faugères",
    "lat": 43.565278,
    "lng": 3.189962,
    "transactions": [
      {
        "date": "2021-11-02",
        "priceEur": 345000,
        "typeLocal": "Maison",
        "surfaceM2": 155,
        "isVefa": false
      }
    ]
  },
  "37714234b9de": {
    "id": "37714234b9de",
    "label": "5 RUE DES CONSULS, Faugères",
    "lat": 43.565849,
    "lng": 3.188088,
    "transactions": [
      {
        "date": "2021-11-09",
        "priceEur": 351645,
        "typeLocal": "Maison",
        "surfaceM2": 84,
        "isVefa": false
      }
    ]
  },
  "31f79a06b864": {
    "id": "31f79a06b864",
    "label": "38 RUE DROITE, Faugères",
    "lat": 43.565896,
    "lng": 3.188308,
    "transactions": [
      {
        "date": "2021-11-09",
        "priceEur": 351645,
        "typeLocal": "Maison",
        "surfaceM2": 103,
        "isVefa": false
      }
    ]
  },
  "88624e07c65e": {
    "id": "88624e07c65e",
    "label": "3 RUE SAINT FLORENTIN, Faugères",
    "lat": 43.564972,
    "lng": 3.188663,
    "transactions": [
      {
        "date": "2021-12-13",
        "priceEur": 90000,
        "typeLocal": "Maison",
        "surfaceM2": 80,
        "isVefa": false
      }
    ]
  },
  "ef0333e7c6b1": {
    "id": "ef0333e7c6b1",
    "label": "1B RUE DU PONGET, Faugères",
    "lat": 43.564669,
    "lng": 3.189189,
    "transactions": [
      {
        "date": "2022-03-09",
        "priceEur": 260905,
        "typeLocal": "Appartement",
        "surfaceM2": 69,
        "isVefa": false
      }
    ]
  },
  "a35811cae4cc": {
    "id": "a35811cae4cc",
    "label": "1 RUE DU PONGET, Faugères",
    "lat": 43.564576,
    "lng": 3.189108,
    "transactions": [
      {
        "date": "2022-03-09",
        "priceEur": 260905,
        "typeLocal": "Maison",
        "surfaceM2": 110,
        "isVefa": false
      }
    ]
  },
  "8f8b04a79916": {
    "id": "8f8b04a79916",
    "label": "24 RUE DU VIEUX CHATEAU, Faugères",
    "lat": 43.56572,
    "lng": 3.187874,
    "transactions": [
      {
        "date": "2022-04-08",
        "priceEur": 340230,
        "typeLocal": "Maison",
        "surfaceM2": 163,
        "isVefa": false
      }
    ]
  },
  "1867337e56d8": {
    "id": "1867337e56d8",
    "label": "1 RUE DE LA VOUTE, Faugères",
    "lat": 43.565282,
    "lng": 3.188546,
    "transactions": [
      {
        "date": "2022-06-01",
        "priceEur": 65000,
        "typeLocal": "Maison",
        "surfaceM2": 115,
        "isVefa": false
      }
    ]
  },
  "36c604c83b66": {
    "id": "36c604c83b66",
    "label": "37 RTE DE PEZENES LES MINES, Faugères",
    "lat": 43.564613,
    "lng": 3.191619,
    "transactions": [
      {
        "date": "2022-08-04",
        "priceEur": 665000,
        "typeLocal": "Appartement",
        "surfaceM2": 45,
        "isVefa": false
      },
      {
        "date": "2022-08-04",
        "priceEur": 665000,
        "typeLocal": "Appartement",
        "surfaceM2": 105,
        "isVefa": false
      },
      {
        "date": "2022-08-04",
        "priceEur": 665000,
        "typeLocal": "Appartement",
        "surfaceM2": 125,
        "isVefa": false
      }
    ]
  },
  "b7d6d253b149": {
    "id": "b7d6d253b149",
    "label": "14 RUE DROITE, Faugères",
    "lat": 43.565052,
    "lng": 3.18881,
    "transactions": [
      {
        "date": "2022-09-30",
        "priceEur": 190500,
        "typeLocal": "Maison",
        "surfaceM2": 90,
        "isVefa": false
      }
    ]
  },
  "517e53622a16": {
    "id": "517e53622a16",
    "label": "6 RUE DE L'ANCIEN TEMPLE, Faugères",
    "lat": 43.565123,
    "lng": 3.189515,
    "transactions": [
      {
        "date": "2022-09-27",
        "priceEur": 110450,
        "typeLocal": "Maison",
        "surfaceM2": 82,
        "isVefa": false
      }
    ]
  },
  "bce9bbbb4d8d": {
    "id": "bce9bbbb4d8d",
    "label": "7 RUE DU FOUR, Faugères",
    "lat": 43.565011,
    "lng": 3.188554,
    "transactions": [
      {
        "date": "2022-10-12",
        "priceEur": 97000,
        "typeLocal": "Maison",
        "surfaceM2": 48,
        "isVefa": false
      }
    ]
  },
  "bd058eac10b2": {
    "id": "bd058eac10b2",
    "label": "1 RUE DE DERRIERE LA VILLE, Faugères",
    "lat": 43.56564,
    "lng": 3.19001,
    "transactions": [
      {
        "date": "2022-10-14",
        "priceEur": 409075,
        "typeLocal": "Maison",
        "surfaceM2": 204,
        "isVefa": false
      }
    ]
  },
  "e0ceecdd9356": {
    "id": "e0ceecdd9356",
    "label": "11 RUE DU VIEUX CHATEAU, Faugères",
    "lat": 43.56515,
    "lng": 3.188219,
    "transactions": [
      {
        "date": "2022-12-22",
        "priceEur": 87350,
        "typeLocal": "Maison",
        "surfaceM2": 64,
        "isVefa": false
      }
    ]
  },
  "ba0309e3ab86": {
    "id": "ba0309e3ab86",
    "label": "2 PL DE L'EGLISE, Faugères",
    "lat": 43.565045,
    "lng": 3.189954,
    "transactions": [
      {
        "date": "2022-12-13",
        "priceEur": 250000,
        "typeLocal": "Appartement",
        "surfaceM2": 100,
        "isVefa": false
      },
      {
        "date": "2022-12-13",
        "priceEur": 250000,
        "typeLocal": "Appartement",
        "surfaceM2": 100,
        "isVefa": false
      }
    ]
  },
  "2b9b23367302": {
    "id": "2b9b23367302",
    "label": "34 RUE DU VIEUX CHATEAU, Faugères",
    "lat": 43.566196,
    "lng": 3.188174,
    "transactions": [
      {
        "date": "2023-03-24",
        "priceEur": 180000,
        "typeLocal": "Maison",
        "surfaceM2": 86,
        "isVefa": false
      }
    ]
  },
  "644184ea683f": {
    "id": "644184ea683f",
    "label": "136 CHE DE LAURIOLLE, Faugères",
    "lat": 43.567271,
    "lng": 3.189847,
    "transactions": [
      {
        "date": "2023-06-22",
        "priceEur": 446530,
        "typeLocal": "Maison",
        "surfaceM2": 134,
        "isVefa": false
      }
    ]
  },
  "b988faeb8be1": {
    "id": "b988faeb8be1",
    "label": "1 IMP L ANDROUNO, Faugères",
    "lat": 43.565906,
    "lng": 3.187897,
    "transactions": [
      {
        "date": "2023-07-27",
        "priceEur": 34420,
        "typeLocal": "Maison",
        "surfaceM2": 40,
        "isVefa": false
      }
    ]
  },
  "ae5589c0d438": {
    "id": "ae5589c0d438",
    "label": "5198 RUE DU VIGUIER, Faugères",
    "lat": 43.565086,
    "lng": 3.188338,
    "transactions": [
      {
        "date": "2023-09-22",
        "priceEur": 109000,
        "typeLocal": "Maison",
        "surfaceM2": 59,
        "isVefa": false
      }
    ]
  },
  "9b25f7cfdc3b": {
    "id": "9b25f7cfdc3b",
    "label": "196 CHE DE LA MARBRIERE, Faugères",
    "lat": 43.567326,
    "lng": 3.186306,
    "transactions": [
      {
        "date": "2023-10-13",
        "priceEur": 550000,
        "typeLocal": "Maison",
        "surfaceM2": 205,
        "isVefa": false
      },
      {
        "date": "2023-10-13",
        "priceEur": 550000,
        "typeLocal": "Maison",
        "surfaceM2": 205,
        "isVefa": false
      }
    ]
  },
  "94e9cf39d31c": {
    "id": "94e9cf39d31c",
    "label": "166 CHE DE LA MARBRIERE, Faugères",
    "lat": 43.567197,
    "lng": 3.186636,
    "transactions": [
      {
        "date": "2023-11-09",
        "priceEur": 435000,
        "typeLocal": "Maison",
        "surfaceM2": 91,
        "isVefa": false
      },
      {
        "date": "2023-11-09",
        "priceEur": 435000,
        "typeLocal": "Maison",
        "surfaceM2": 91,
        "isVefa": false
      }
    ]
  },
  "20980c45d851": {
    "id": "20980c45d851",
    "label": "185 CHE DE POUXSEQ, Faugères",
    "lat": 43.567627,
    "lng": 3.190168,
    "transactions": [
      {
        "date": "2023-12-05",
        "priceEur": 388670,
        "typeLocal": "Maison",
        "surfaceM2": 118,
        "isVefa": false
      },
      {
        "date": "2023-12-05",
        "priceEur": 388670,
        "typeLocal": "Maison",
        "surfaceM2": 118,
        "isVefa": false
      }
    ]
  },
  "2207e9e873f5": {
    "id": "2207e9e873f5",
    "label": "210 IMP DES TROIS TOURS, Faugères",
    "lat": 43.568751,
    "lng": 3.187622,
    "transactions": [
      {
        "date": "2023-12-01",
        "priceEur": 760000,
        "typeLocal": "Maison",
        "surfaceM2": 147,
        "isVefa": false
      },
      {
        "date": "2023-12-01",
        "priceEur": 760000,
        "typeLocal": "Maison",
        "surfaceM2": 147,
        "isVefa": false
      }
    ]
  },
  "c83b4f81ea55": {
    "id": "c83b4f81ea55",
    "label": "4 RUE DU CONSISTOIRE, Faugères",
    "lat": 43.56572,
    "lng": 3.188685,
    "transactions": [
      {
        "date": "2023-12-20",
        "priceEur": 44000,
        "typeLocal": "Maison",
        "surfaceM2": 60,
        "isVefa": false
      }
    ]
  },
  "d3af3b658c93": {
    "id": "d3af3b658c93",
    "label": "30 RUE DU VIEUX CHATEAU, Faugères",
    "lat": 43.566118,
    "lng": 3.188078,
    "transactions": [
      {
        "date": "2024-01-15",
        "priceEur": 105000,
        "typeLocal": "Maison",
        "surfaceM2": 88,
        "isVefa": false
      }
    ]
  },
  "0d5682f7c6bc": {
    "id": "0d5682f7c6bc",
    "label": "2 RUE JUIVE, Faugères",
    "lat": 43.565269,
    "lng": 3.189269,
    "transactions": [
      {
        "date": "2024-04-05",
        "priceEur": 75000,
        "typeLocal": "Maison",
        "surfaceM2": 72,
        "isVefa": false
      }
    ]
  },
  "abbfecbf7850": {
    "id": "abbfecbf7850",
    "label": "1 RUE DU VIGUIER, Faugères",
    "lat": 43.565078,
    "lng": 3.188261,
    "transactions": [
      {
        "date": "2024-04-11",
        "priceEur": 35310,
        "typeLocal": "Maison",
        "surfaceM2": 35,
        "isVefa": false
      }
    ]
  },
  "97ebfcfb5822": {
    "id": "97ebfcfb5822",
    "label": "6 IMP L ANDROUNO, Faugères",
    "lat": 43.565979,
    "lng": 3.18772,
    "transactions": [
      {
        "date": "2024-04-15",
        "priceEur": 126900,
        "typeLocal": "Maison",
        "surfaceM2": 120,
        "isVefa": false
      }
    ]
  },
  "03b364b2b48c": {
    "id": "03b364b2b48c",
    "label": "2 RUE DE LA VOUTE, Faugères",
    "lat": 43.565162,
    "lng": 3.188495,
    "transactions": [
      {
        "date": "2024-10-23",
        "priceEur": 48000,
        "typeLocal": "Maison",
        "surfaceM2": 63,
        "isVefa": false
      }
    ]
  },
  "b9d95f9ec64c": {
    "id": "b9d95f9ec64c",
    "label": "36 RUE DROITE, Faugères",
    "lat": 43.565585,
    "lng": 3.18809,
    "transactions": [
      {
        "date": "2025-02-03",
        "priceEur": 641905,
        "typeLocal": "Maison",
        "surfaceM2": 340,
        "isVefa": false
      }
    ]
  },
  "66b6d38a82ee": {
    "id": "66b6d38a82ee",
    "label": "53 CHE DE LA MARBRIERE, Faugères",
    "lat": 43.566712,
    "lng": 3.187417,
    "transactions": [
      {
        "date": "2025-03-28",
        "priceEur": 350855,
        "typeLocal": "Maison",
        "surfaceM2": 130,
        "isVefa": false
      },
      {
        "date": "2025-03-28",
        "priceEur": 350855,
        "typeLocal": "Maison",
        "surfaceM2": 130,
        "isVefa": false
      }
    ]
  }
}