{
  "b10e4b2a64aa": {
    "id": "b10e4b2a64aa",
    "label": "13 BD GABRIEL PERI, Tourville-la-Rivière",
    "lat": 49.319957,
    "lng": 1.081085,
    "transactions": [
      {
        "date": "2021-02-19",
        "priceEur": 226000,
        "typeLocal": "Maison",
        "surfaceM2": 104,
        "isVefa": false
      }
    ]
  },
  "18e621956fe9": {
    "id": "18e621956fe9",
    "label": "25T BD GABRIEL PERI, Tourville-la-Rivière",
    "lat": 49.318894,
    "lng": 1.077846,
    "transactions": [
      {
        "date": "2021-05-25",
        "priceEur": 190000,
        "typeLocal": "Maison",
        "surfaceM2": 93,
        "isVefa": false
      }
    ]
  },
  "11e6f98e616b": {
    "id": "11e6f98e616b",
    "label": "68T RUE PIERRE CURIE, Tourville-la-Rivière",
    "lat": 49.318428,
    "lng": 1.084514,
    "transactions": [
      {
        "date": "2021-09-13",
        "priceEur": 272350,
        "typeLocal": "Maison",
        "surfaceM2": 176,
        "isVefa": false
      }
    ]
  },
  "5e35fbb98548": {
    "id": "5e35fbb98548",
    "label": "58 RUE PIERRE CURIE, Tourville-la-Rivière",
    "lat": 49.319171,
    "lng": 1.086406,
    "transactions": [
      {
        "date": "2022-02-21",
        "priceEur": 145000,
        "typeLocal": "Maison",
        "surfaceM2": 67,
        "isVefa": false
      }
    ]
  },
  "570d1d597928": {
    "id": "570d1d597928",
    "label": "13A BD GABRIEL PERI, Tourville-la-Rivière",
    "lat": 49.319638,
    "lng": 1.081133,
    "transactions": [
      {
        "date": "2022-03-16",
        "priceEur": 304000,
        "typeLocal": "Maison",
        "surfaceM2": 152,
        "isVefa": false
      }
    ]
  },
  "840c2dbc1ee2": {
    "id": "840c2dbc1ee2",
    "label": "52 RUE PIERRE CURIE, Tourville-la-Rivière",
    "lat": 49.319432,
    "lng": 1.087069,
    "transactions": [
      {
        "date": "2022-09-13",
        "priceEur": 173550,
        "typeLocal": "Maison",
        "surfaceM2": 63,
        "isVefa": false
      }
    ]
  },
  "43345e0a7f00": {
    "id": "43345e0a7f00",
    "label": "48 RUE PIERRE CURIE, Tourville-la-Rivière",
    "lat": 49.319552,
    "lng": 1.08754,
    "transactions": [
      {
        "date": "2022-10-08",
        "priceEur": 180000,
        "typeLocal": "Maison",
        "surfaceM2": 63,
        "isVefa": false
      }
    ]
  },
  "33cb8de66c20": {
    "id": "33cb8de66c20",
    "label": "65 RUE PIERRE CURIE, Tourville-la-Rivière",
    "lat": 49.319008,
    "lng": 1.087616,
    "transactions": [
      {
        "date": "2022-10-10",
        "priceEur": 158000,
        "typeLocal": "Maison",
        "surfaceM2": 90,
        "isVefa": false
      }
    ]
  },
  "35133bf389eb": {
    "id": "35133bf389eb",
    "label": "3 BD GABRIEL PERI, Tourville-la-Rivière",
    "lat": 49.320265,
    "lng": 1.083219,
    "transactions": [
      {
        "date": "2023-03-28",
        "priceEur": 177050,
        "typeLocal": "Maison",
        "surfaceM2": 97,
        "isVefa": false
      }
    ]
  },
  "0514d47ca807": {
    "id": "0514d47ca807",
    "label": "18 RUE SAINT CHRISTOPHE, Freneuse",
    "lat": 49.318119,
    "lng": 1.085839,
    "transactions": [
      {
        "date": "2023-04-28",
        "priceEur": 173000,
        "typeLocal": "Maison",
        "surfaceM2": 103,
        "isVefa": false
      }
    ]
  },
  "ddc430c64804": {
    "id": "ddc430c64804",
    "label": "6 ALL ROBERT ET PIERRE STREF, Tourville-la-Rivière",
    "lat": 49.31955,
    "lng": 1.077883,
    "transactions": [
      {
        "date": "2023-06-26",
        "priceEur": 239500,
        "typeLocal": "Maison",
        "surfaceM2": 87,
        "isVefa": false
      }
    ]
  },
  "7093bc35e932": {
    "id": "7093bc35e932",
    "label": "4 ALL ROBERT ET PIERRE STREF, Tourville-la-Rivière",
    "lat": 49.31967,
    "lng": 1.07783,
    "transactions": [
      {
        "date": "2024-02-01",
        "priceEur": 204800,
        "typeLocal": "Maison",
        "surfaceM2": 83,
        "isVefa": false
      }
    ]
  },
  "d401864b11fb": {
    "id": "d401864b11fb",
    "label": "3B BD GABRIEL PERI, Tourville-la-Rivière",
    "lat": 49.319942,
    "lng": 1.082543,
    "transactions": [
      {
        "date": "2025-04-01",
        "priceEur": 212700,
        "typeLocal": "Maison",
        "surfaceM2": 107,
        "isVefa": false
      }
    ]
  }
}