{
  "c604d2572330": {
    "id": "c604d2572330",
    "label": "5608 LA CAUNE, Prémian",
    "lat": 43.52888,
    "lng": 2.826584,
    "transactions": [
      {
        "date": "2021-06-15",
        "priceEur": 39000,
        "typeLocal": "Maison",
        "surfaceM2": 33,
        "isVefa": false
      }
    ]
  },
  "fcf62931680e": {
    "id": "fcf62931680e",
    "label": "5046 LA TERRAUSSIE, Prémian",
    "lat": 43.525017,
    "lng": 2.825631,
    "transactions": [
      {
        "date": "2021-06-12",
        "priceEur": 35000,
        "typeLocal": "Maison",
        "surfaceM2": 90,
        "isVefa": false
      }
    ]
  },
  "2a297b9001d5": {
    "id": "2a297b9001d5",
    "label": "5092 LE VILLAGE, Prémian",
    "lat": 43.524863,
    "lng": 2.831186,
    "transactions": [
      {
        "date": "2021-10-27",
        "priceEur": 35000,
        "typeLocal": "Maison",
        "surfaceM2": 129,
        "isVefa": false
      }
    ]
  },
  "ed586b676479": {
    "id": "ed586b676479",
    "label": "5695F LA CAUNE, Prémian",
    "lat": 43.52855,
    "lng": 2.826556,
    "transactions": [
      {
        "date": "2021-12-06",
        "priceEur": 93701,
        "typeLocal": "Maison",
        "surfaceM2": 76,
        "isVefa": false
      }
    ]
  },
  "b75fcb19901b": {
    "id": "b75fcb19901b",
    "label": "5708F LA TERRAUSSIE, Prémian",
    "lat": 43.52629,
    "lng": 2.826095,
    "transactions": [
      {
        "date": "2021-09-30",
        "priceEur": 95800,
        "typeLocal": "Maison",
        "surfaceM2": 115,
        "isVefa": false
      },
      {
        "date": "2021-09-30",
        "priceEur": 95800,
        "typeLocal": "Maison",
        "surfaceM2": 115,
        "isVefa": false
      }
    ]
  },
  "5a41ada941a9": {
    "id": "5a41ada941a9",
    "label": "5330 LES MEDES BASSES, Prémian",
    "lat": 43.525999,
    "lng": 2.83185,
    "transactions": [
      {
        "date": "2022-04-07",
        "priceEur": 188000,
        "typeLocal": "Appartement",
        "surfaceM2": 61,
        "isVefa": false
      },
      {
        "date": "2022-04-07",
        "priceEur": 188000,
        "typeLocal": "Appartement",
        "surfaceM2": 73,
        "isVefa": false
      }
    ]
  },
  "1baf59812d7e": {
    "id": "1baf59812d7e",
    "label": "5255 LE VILLAGE, Prémian",
    "lat": 43.52496,
    "lng": 2.831536,
    "transactions": [
      {
        "date": "2025-02-17",
        "priceEur": 139000,
        "typeLocal": "Maison",
        "surfaceM2": 118,
        "isVefa": false
      },
      {
        "date": "2022-08-18",
        "priceEur": 125000,
        "typeLocal": "Maison",
        "surfaceM2": 118,
        "isVefa": false
      }
    ]
  },
  "0dce07f63562": {
    "id": "0dce07f63562",
    "label": "5125 LES MEDES HAUTES, Prémian",
    "lat": 43.527955,
    "lng": 2.831461,
    "transactions": [
      {
        "date": "2022-10-20",
        "priceEur": 220000,
        "typeLocal": "Maison",
        "surfaceM2": 79,
        "isVefa": false
      },
      {
        "date": "2022-10-20",
        "priceEur": 220000,
        "typeLocal": "Maison",
        "surfaceM2": 79,
        "isVefa": false
      }
    ]
  },
  "bdbcedf94602": {
    "id": "bdbcedf94602",
    "label": "5669F LES MEDES HAUTES, Prémian",
    "lat": 43.526223,
    "lng": 2.831268,
    "transactions": [
      {
        "date": "2022-10-18",
        "priceEur": 24000,
        "typeLocal": "Maison",
        "surfaceM2": 100,
        "isVefa": false
      },
      {
        "date": "2022-10-18",
        "priceEur": 24000,
        "typeLocal": "Maison",
        "surfaceM2": 100,
        "isVefa": false
      }
    ]
  },
  "46b811bc17a3": {
    "id": "46b811bc17a3",
    "label": "5144 LE VILLAGE, Prémian",
    "lat": 43.525038,
    "lng": 2.831501,
    "transactions": [
      {
        "date": "2022-11-03",
        "priceEur": 33000,
        "typeLocal": "Maison",
        "surfaceM2": 41,
        "isVefa": false
      }
    ]
  },
  "077709c03785": {
    "id": "077709c03785",
    "label": "5702F LOT LOU PEYROUNAT, Prémian",
    "lat": 43.524698,
    "lng": 2.829495,
    "transactions": [
      {
        "date": "2022-10-20",
        "priceEur": 240000,
        "typeLocal": "Maison",
        "surfaceM2": 108,
        "isVefa": false
      }
    ]
  },
  "78a8e996c9c8": {
    "id": "78a8e996c9c8",
    "label": "5185 LE VILLAGE, Prémian",
    "lat": 43.531644,
    "lng": 2.833005,
    "transactions": [
      {
        "date": "2023-02-14",
        "priceEur": 36500,
        "typeLocal": "Maison",
        "surfaceM2": 40,
        "isVefa": false
      }
    ]
  },
  "e989a07c4df6": {
    "id": "e989a07c4df6",
    "label": "5306 LA CAMINADE, Prémian",
    "lat": 43.530624,
    "lng": 2.833687,
    "transactions": [
      {
        "date": "2023-03-18",
        "priceEur": 300,
        "typeLocal": "Maison",
        "surfaceM2": 73,
        "isVefa": false
      }
    ]
  },
  "afbb7068c8f7": {
    "id": "afbb7068c8f7",
    "label": "5029 LE VILLAGE, Prémian",
    "lat": 43.524948,
    "lng": 2.831431,
    "transactions": [
      {
        "date": "2023-03-24",
        "priceEur": 58320,
        "typeLocal": "Maison",
        "surfaceM2": 40,
        "isVefa": false
      }
    ]
  },
  "aa33147e953c": {
    "id": "aa33147e953c",
    "label": "2540F LOT LOU PEYROUNAT, Prémian",
    "lat": 43.524793,
    "lng": 2.829779,
    "transactions": [
      {
        "date": "2023-06-28",
        "priceEur": 258500,
        "typeLocal": "Maison",
        "surfaceM2": 109,
        "isVefa": false
      }
    ]
  },
  "3b696a21bf1c": {
    "id": "3b696a21bf1c",
    "label": "5103 LES MEDES HAUTES, Prémian",
    "lat": 43.528507,
    "lng": 2.832371,
    "transactions": [
      {
        "date": "2023-11-29",
        "priceEur": 82500,
        "typeLocal": "Maison",
        "surfaceM2": 100,
        "isVefa": false
      }
    ]
  },
  "62e95757cad9": {
    "id": "62e95757cad9",
    "label": "5033 LA CAMINADE, Prémian",
    "lat": 43.529429,
    "lng": 2.833821,
    "transactions": [
      {
        "date": "2024-10-21",
        "priceEur": 20000,
        "typeLocal": "Maison",
        "surfaceM2": 64,
        "isVefa": false
      }
    ]
  }
}