{
  "4d9514de2922": {
    "id": "4d9514de2922",
    "label": "36 RTE DE FLAMETS, Conteville",
    "lat": 49.691615,
    "lng": 1.637995,
    "transactions": [
      {
        "date": "2020-08-29",
        "priceEur": 127000,
        "typeLocal": "Maison",
        "surfaceM2": 90,
        "isVefa": false
      }
    ]
  },
  "d459fe1d6312": {
    "id": "d459fe1d6312",
    "label": "9 RES DUFOUR, Conteville",
    "lat": 49.694578,
    "lng": 1.637099,
    "transactions": [
      {
        "date": "2021-10-11",
        "priceEur": 90000,
        "typeLocal": "Maison",
        "surfaceM2": 82,
        "isVefa": false
      }
    ]
  },
  "3455f72f00a2": {
    "id": "3455f72f00a2",
    "label": "162 RTE D AUMALE, Conteville",
    "lat": 49.692024,
    "lng": 1.639623,
    "transactions": [
      {
        "date": "2024-01-24",
        "priceEur": 156500,
        "typeLocal": "Maison",
        "surfaceM2": 80,
        "isVefa": false
      },
      {
        "date": "2021-08-27",
        "priceEur": 109725,
        "typeLocal": "Maison",
        "surfaceM2": 80,
        "isVefa": false
      }
    ]
  },
  "97b9c19e4dba": {
    "id": "97b9c19e4dba",
    "label": "44 RTE DE FORMERIE, Conteville",
    "lat": 49.690687,
    "lng": 1.638081,
    "transactions": [
      {
        "date": "2021-09-28",
        "priceEur": 210000,
        "typeLocal": "Maison",
        "surfaceM2": 100,
        "isVefa": false
      }
    ]
  },
  "21e02e540e4a": {
    "id": "21e02e540e4a",
    "label": "5005 CONTEVILLE VILLAGE, Conteville",
    "lat": 49.691028,
    "lng": 1.63839,
    "transactions": [
      {
        "date": "2022-03-05",
        "priceEur": 72000,
        "typeLocal": "Maison",
        "surfaceM2": 58,
        "isVefa": false
      }
    ]
  },
  "87037f551227": {
    "id": "87037f551227",
    "label": "33 RTE D AUMALE, Conteville",
    "lat": 49.691407,
    "lng": 1.638049,
    "transactions": [
      {
        "date": "2023-05-25",
        "priceEur": 87500,
        "typeLocal": "Maison",
        "surfaceM2": 56,
        "isVefa": false
      }
    ]
  },
  "f78f0fde922c": {
    "id": "f78f0fde922c",
    "label": "15 RES DUFOUR, Conteville",
    "lat": 49.695079,
    "lng": 1.637101,
    "transactions": [
      {
        "date": "2024-06-14",
        "priceEur": 267870.72,
        "typeLocal": "Maison",
        "surfaceM2": 82,
        "isVefa": false
      }
    ]
  },
  "ec4a99922e28": {
    "id": "ec4a99922e28",
    "label": "12 RES DUFOUR, Conteville",
    "lat": 49.694716,
    "lng": 1.637693,
    "transactions": [
      {
        "date": "2024-06-14",
        "priceEur": 267870.72,
        "typeLocal": "Maison",
        "surfaceM2": 82,
        "isVefa": false
      }
    ]
  },
  "623aa20f0098": {
    "id": "623aa20f0098",
    "label": "10 RES DUFOUR, Conteville",
    "lat": 49.694424,
    "lng": 1.637221,
    "transactions": [
      {
        "date": "2024-06-14",
        "priceEur": 267870.72,
        "typeLocal": "Maison",
        "surfaceM2": 82,
        "isVefa": false
      }
    ]
  },
  "06bb43868caa": {
    "id": "06bb43868caa",
    "label": "349 RUE DE L ECOLE, Conteville",
    "lat": 49.695369,
    "lng": 1.63949,
    "transactions": [
      {
        "date": "2024-09-05",
        "priceEur": 155000,
        "typeLocal": "Maison",
        "surfaceM2": 105,
        "isVefa": false
      }
    ]
  },
  "0230d526343b": {
    "id": "0230d526343b",
    "label": "141 RTE D AUMALE, Conteville",
    "lat": 49.692493,
    "lng": 1.63875,
    "transactions": [
      {
        "date": "2025-04-18",
        "priceEur": 238000,
        "typeLocal": "Maison",
        "surfaceM2": 145,
        "isVefa": false
      }
    ]
  }
}