{
  "576f10ca395f": {
    "id": "576f10ca395f",
    "label": "13 RUE JACQUES PREVERT, Steenvoorde",
    "lat": 50.80536,
    "lng": 2.587817,
    "transactions": [
      {
        "date": "2020-09-11",
        "priceEur": 227400,
        "typeLocal": "Maison",
        "surfaceM2": 86,
        "isVefa": false
      }
    ]
  },
  "f1c35351366b": {
    "id": "f1c35351366b",
    "label": "5 RUE ALPHONSE DAUDET, Steenvoorde",
    "lat": 50.805894,
    "lng": 2.59113,
    "transactions": [
      {
        "date": "2021-03-04",
        "priceEur": 173000,
        "typeLocal": "Maison",
        "surfaceM2": 90,
        "isVefa": false
      }
    ]
  },
  "a4d6af042da9": {
    "id": "a4d6af042da9",
    "label": "87 RUE CARNOT, Steenvoorde",
    "lat": 50.805794,
    "lng": 2.584469,
    "transactions": [
      {
        "date": "2021-09-07",
        "priceEur": 90000,
        "typeLocal": "Maison",
        "surfaceM2": 45,
        "isVefa": false
      }
    ]
  },
  "81c18bfc6caf": {
    "id": "81c18bfc6caf",
    "label": "6 RUE JACQUES PREVERT, Steenvoorde",
    "lat": 50.805467,
    "lng": 2.588777,
    "transactions": [
      {
        "date": "2021-09-30",
        "priceEur": 240000,
        "typeLocal": "Maison",
        "surfaceM2": 108,
        "isVefa": false
      }
    ]
  },
  "4e430990b67c": {
    "id": "4e430990b67c",
    "label": "30 RUE DU 6 SEPTEMBRE 1944, Steenvoorde",
    "lat": 50.804027,
    "lng": 2.588,
    "transactions": [
      {
        "date": "2022-03-01",
        "priceEur": 335000,
        "typeLocal": "Maison",
        "surfaceM2": 135,
        "isVefa": false
      }
    ]
  },
  "25a971fcf43e": {
    "id": "25a971fcf43e",
    "label": "7 RUE ALPHONSE DAUDET, Steenvoorde",
    "lat": 50.805806,
    "lng": 2.591202,
    "transactions": [
      {
        "date": "2022-05-16",
        "priceEur": 184650,
        "typeLocal": "Maison",
        "surfaceM2": 90,
        "isVefa": false
      }
    ]
  },
  "ddbb2bfa23a2": {
    "id": "ddbb2bfa23a2",
    "label": "298 RUE SAINT JEAN, Terdeghem",
    "lat": 50.804344,
    "lng": 2.58205,
    "transactions": [
      {
        "date": "2022-07-01",
        "priceEur": 160000,
        "typeLocal": "Maison",
        "surfaceM2": 118,
        "isVefa": false
      }
    ]
  },
  "8e8a1a48935e": {
    "id": "8e8a1a48935e",
    "label": "117 RUE SAINT JEAN, Terdeghem",
    "lat": 50.805731,
    "lng": 2.583477,
    "transactions": [
      {
        "date": "2023-07-24",
        "priceEur": 300000,
        "typeLocal": "Maison",
        "surfaceM2": 136,
        "isVefa": false
      }
    ]
  },
  "a68383d328aa": {
    "id": "a68383d328aa",
    "label": "164 RUE SAINT JEAN, Terdeghem",
    "lat": 50.805412,
    "lng": 2.582754,
    "transactions": [
      {
        "date": "2023-08-30",
        "priceEur": 127000,
        "typeLocal": "Maison",
        "surfaceM2": 102,
        "isVefa": false
      }
    ]
  },
  "b6dac4745a88": {
    "id": "b6dac4745a88",
    "label": "83 RUE CARNOT, Steenvoorde",
    "lat": 50.805845,
    "lng": 2.584485,
    "transactions": [
      {
        "date": "2024-06-26",
        "priceEur": 146450,
        "typeLocal": "Maison",
        "surfaceM2": 58,
        "isVefa": false
      }
    ]
  }
}