{
  "ce8fcdeef4d1": {
    "id": "ce8fcdeef4d1",
    "label": "5102 VALLEE DE VILLERS, Villers-Écalles",
    "lat": 49.530021,
    "lng": 0.935578,
    "transactions": [
      {
        "date": "2020-07-06",
        "priceEur": 150000,
        "typeLocal": "Maison",
        "surfaceM2": 112,
        "isVefa": false
      }
    ]
  },
  "143297511cac": {
    "id": "143297511cac",
    "label": "121 IMP BIENVENUE, Villers-Écalles",
    "lat": 49.529998,
    "lng": 0.934137,
    "transactions": [
      {
        "date": "2022-02-23",
        "priceEur": 209700,
        "typeLocal": "Maison",
        "surfaceM2": 78,
        "isVefa": false
      }
    ]
  },
  "a71892ea67c5": {
    "id": "a71892ea67c5",
    "label": "5060 COTE DE CAMPEAUX, Villers-Écalles",
    "lat": 49.526997,
    "lng": 0.940223,
    "transactions": [
      {
        "date": "2022-12-29",
        "priceEur": 130000,
        "typeLocal": "Maison",
        "surfaceM2": 114,
        "isVefa": false
      }
    ]
  },
  "0cd5836b2647": {
    "id": "0cd5836b2647",
    "label": "5082 VALLEE DE VILLERS, Villers-Écalles",
    "lat": 49.529544,
    "lng": 0.935552,
    "transactions": [
      {
        "date": "2023-03-24",
        "priceEur": 210000,
        "typeLocal": "Maison",
        "surfaceM2": 119,
        "isVefa": false
      }
    ]
  },
  "4957636a1d16": {
    "id": "4957636a1d16",
    "label": "5173 VALLEE DE BELLEGARDE, Villers-Écalles",
    "lat": 49.530995,
    "lng": 0.934284,
    "transactions": [
      {
        "date": "2023-04-11",
        "priceEur": 139000,
        "typeLocal": "Maison",
        "surfaceM2": 74,
        "isVefa": false
      }
    ]
  },
  "9d9b46a004e9": {
    "id": "9d9b46a004e9",
    "label": "5093 VALLEE DE VILLERS, Villers-Écalles",
    "lat": 49.528835,
    "lng": 0.93584,
    "transactions": [
      {
        "date": "2023-04-17",
        "priceEur": 140000,
        "typeLocal": "Maison",
        "surfaceM2": 71,
        "isVefa": false
      }
    ]
  },
  "d7d1b7ced92f": {
    "id": "d7d1b7ced92f",
    "label": "5170 VALLEE DE BELLEGARDE, Villers-Écalles",
    "lat": 49.530953,
    "lng": 0.93547,
    "transactions": [
      {
        "date": "2023-08-28",
        "priceEur": 130000,
        "typeLocal": "Maison",
        "surfaceM2": 94,
        "isVefa": false
      }
    ]
  },
  "fcf1a1b77438": {
    "id": "fcf1a1b77438",
    "label": "2033 RTE DE DUCLAIR, Villers-Écalles",
    "lat": 49.532163,
    "lng": 0.935871,
    "transactions": [
      {
        "date": "2024-12-27",
        "priceEur": 161000,
        "typeLocal": "Maison",
        "surfaceM2": 115,
        "isVefa": false
      }
    ]
  },
  "bda1a01add78": {
    "id": "bda1a01add78",
    "label": "6006 VALLEE DE VILLERS, Villers-Écalles",
    "lat": 49.529753,
    "lng": 0.935575,
    "transactions": [
      {
        "date": "2025-06-16",
        "priceEur": 305000,
        "typeLocal": "Maison",
        "surfaceM2": 139,
        "isVefa": false
      }
    ]
  }
}