{
  "092228c95fd8": {
    "id": "092228c95fd8",
    "label": "3 RES LE CLOS JEAN, Saint-Pierre-de-Manneville",
    "lat": 49.391314,
    "lng": 0.934849,
    "transactions": [
      {
        "date": "2020-09-04",
        "priceEur": 270990,
        "typeLocal": "Maison",
        "surfaceM2": 145,
        "isVefa": false
      }
    ]
  },
  "58132a1ca0db": {
    "id": "58132a1ca0db",
    "label": "41 LA RUE SAINT-PIERRE, Saint-Pierre-de-Manneville",
    "lat": 49.392789,
    "lng": 0.9374,
    "transactions": [
      {
        "date": "2021-01-11",
        "priceEur": 208000,
        "typeLocal": "Maison",
        "surfaceM2": 120,
        "isVefa": false
      }
    ]
  },
  "1de123bf3838": {
    "id": "1de123bf3838",
    "label": "7 RES LE CLOS JEAN, Saint-Pierre-de-Manneville",
    "lat": 49.390844,
    "lng": 0.934539,
    "transactions": [
      {
        "date": "2021-10-14",
        "priceEur": 241300,
        "typeLocal": "Maison",
        "surfaceM2": 113,
        "isVefa": false
      }
    ]
  },
  "06944e794ea0": {
    "id": "06944e794ea0",
    "label": "2 ALL DES TILLEULS, Saint-Pierre-de-Manneville",
    "lat": 49.392985,
    "lng": 0.936189,
    "transactions": [
      {
        "date": "2022-04-28",
        "priceEur": 258800,
        "typeLocal": "Maison",
        "surfaceM2": 117,
        "isVefa": false
      }
    ]
  },
  "11ced1556fa4": {
    "id": "11ced1556fa4",
    "label": "1 ALL MAURICE RAVEL, Saint-Pierre-de-Manneville",
    "lat": 49.39293,
    "lng": 0.937797,
    "transactions": [
      {
        "date": "2022-06-17",
        "priceEur": 282000,
        "typeLocal": "Maison",
        "surfaceM2": 112,
        "isVefa": false
      }
    ]
  },
  "61ae964cfc70": {
    "id": "61ae964cfc70",
    "label": "4 ALL GABRIEL FAURE, Saint-Pierre-de-Manneville",
    "lat": 49.393492,
    "lng": 0.93749,
    "transactions": [
      {
        "date": "2022-07-13",
        "priceEur": 205000,
        "typeLocal": "Maison",
        "surfaceM2": 90,
        "isVefa": false
      }
    ]
  },
  "410299835b75": {
    "id": "410299835b75",
    "label": "9 ALL DES CHENES, Saint-Pierre-de-Manneville",
    "lat": 49.394041,
    "lng": 0.93395,
    "transactions": [
      {
        "date": "2022-07-22",
        "priceEur": 259500,
        "typeLocal": "Maison",
        "surfaceM2": 150,
        "isVefa": false
      }
    ]
  },
  "9128d91854ae": {
    "id": "9128d91854ae",
    "label": "12 ALL DES TILLEULS, Saint-Pierre-de-Manneville",
    "lat": 49.393588,
    "lng": 0.936662,
    "transactions": [
      {
        "date": "2023-06-30",
        "priceEur": 199000,
        "typeLocal": "Maison",
        "surfaceM2": 128,
        "isVefa": false
      }
    ]
  },
  "90b91e2db024": {
    "id": "90b91e2db024",
    "label": "38 ALL DES TILLEULS, Saint-Pierre-de-Manneville",
    "lat": 49.394097,
    "lng": 0.936455,
    "transactions": [
      {
        "date": "2023-07-31",
        "priceEur": 113000,
        "typeLocal": "Maison",
        "surfaceM2": 76,
        "isVefa": false
      }
    ]
  },
  "2ed91ddd27a7": {
    "id": "2ed91ddd27a7",
    "label": "40 ALL DES TILLEULS, Saint-Pierre-de-Manneville",
    "lat": 49.394,
    "lng": 0.936249,
    "transactions": [
      {
        "date": "2024-01-23",
        "priceEur": 118000,
        "typeLocal": "Maison",
        "surfaceM2": 50,
        "isVefa": false
      }
    ]
  },
  "9887270f32ac": {
    "id": "9887270f32ac",
    "label": "21 LA RUE SAINT-PIERRE, Saint-Pierre-de-Manneville",
    "lat": 49.392437,
    "lng": 0.934067,
    "transactions": [
      {
        "date": "2024-02-16",
        "priceEur": 100000,
        "typeLocal": "Maison",
        "surfaceM2": 66,
        "isVefa": false
      }
    ]
  },
  "7a58bfcbfc93": {
    "id": "7a58bfcbfc93",
    "label": "34A RUE DE SAINT PIERRE, Saint-Pierre-de-Manneville",
    "lat": 49.392377,
    "lng": 0.936243,
    "transactions": [
      {
        "date": "2025-04-30",
        "priceEur": 265200,
        "typeLocal": "Maison",
        "surfaceM2": 166,
        "isVefa": false
      }
    ]
  }
}