{
  "bceb62a3b630": {
    "id": "bceb62a3b630",
    "label": "9E RUE DU HAUZAY, Lillebonne",
    "lat": 49.516242,
    "lng": 0.535812,
    "transactions": [
      {
        "date": "2020-07-20",
        "priceEur": 266000,
        "typeLocal": "Maison",
        "surfaceM2": 130,
        "isVefa": false
      }
    ]
  },
  "b8e44a1d4bf1": {
    "id": "b8e44a1d4bf1",
    "label": "19 RUE DE LA REPUBLIQUE, Lillebonne",
    "lat": 49.516013,
    "lng": 0.536648,
    "transactions": [
      {
        "date": "2022-12-12",
        "priceEur": 127500,
        "typeLocal": "Maison",
        "surfaceM2": 55,
        "isVefa": false
      },
      {
        "date": "2020-09-24",
        "priceEur": 115000,
        "typeLocal": "Maison",
        "surfaceM2": 55,
        "isVefa": false
      }
    ]
  },
  "9e118a4a1032": {
    "id": "9e118a4a1032",
    "label": "9C RUE DU HAUZAY, Lillebonne",
    "lat": 49.516017,
    "lng": 0.535143,
    "transactions": [
      {
        "date": "2024-12-19",
        "priceEur": 222000,
        "typeLocal": "Maison",
        "surfaceM2": 75,
        "isVefa": false
      },
      {
        "date": "2020-10-16",
        "priceEur": 212000,
        "typeLocal": "Maison",
        "surfaceM2": 75,
        "isVefa": false
      }
    ]
  },
  "4d06e9a851c1": {
    "id": "4d06e9a851c1",
    "label": "8 RUE DU TOUPIN, Lillebonne",
    "lat": 49.516888,
    "lng": 0.537195,
    "transactions": [
      {
        "date": "2020-10-09",
        "priceEur": 120000,
        "typeLocal": "Maison",
        "surfaceM2": 68,
        "isVefa": false
      }
    ]
  },
  "3ed776af1e99": {
    "id": "3ed776af1e99",
    "label": "2 RUE KINKERVILLE, Lillebonne",
    "lat": 49.517371,
    "lng": 0.537627,
    "transactions": [
      {
        "date": "2020-11-20",
        "priceEur": 75000,
        "typeLocal": "Maison",
        "surfaceM2": 65,
        "isVefa": false
      }
    ]
  },
  "732842797942": {
    "id": "732842797942",
    "label": "5 BD MAL DE LATTRE DE TASSIGNY, Lillebonne",
    "lat": 49.51801,
    "lng": 0.533703,
    "transactions": [
      {
        "date": "2020-11-30",
        "priceEur": 180000,
        "typeLocal": "Appartement",
        "surfaceM2": 75,
        "isVefa": false
      }
    ]
  },
  "25930a1c6b7d": {
    "id": "25930a1c6b7d",
    "label": "13 RUE DE LA REPUBLIQUE, Lillebonne",
    "lat": 49.516206,
    "lng": 0.5365,
    "transactions": [
      {
        "date": "2020-12-21",
        "priceEur": 401500,
        "typeLocal": "Maison",
        "surfaceM2": 65,
        "isVefa": false
      }
    ]
  },
  "d2da4613fb26": {
    "id": "d2da4613fb26",
    "label": "9002 RUE DE LA REPUBLIQUE, Lillebonne",
    "lat": 49.515154,
    "lng": 0.536081,
    "transactions": [
      {
        "date": "2020-11-30",
        "priceEur": 80000,
        "typeLocal": "Appartement",
        "surfaceM2": 54,
        "isVefa": false
      }
    ]
  },
  "64ad6fb4c6cc": {
    "id": "64ad6fb4c6cc",
    "label": "53B RUE DE LA REPUBLIQUE, Lillebonne",
    "lat": 49.514396,
    "lng": 0.537469,
    "transactions": [
      {
        "date": "2020-12-22",
        "priceEur": 189900,
        "typeLocal": "Maison",
        "surfaceM2": 119,
        "isVefa": false
      }
    ]
  },
  "8eae3cd27e67": {
    "id": "8eae3cd27e67",
    "label": "9A RUE DU HAUZAY, Lillebonne",
    "lat": 49.515894,
    "lng": 0.534809,
    "transactions": [
      {
        "date": "2021-01-18",
        "priceEur": 187200,
        "typeLocal": "Maison",
        "surfaceM2": 91,
        "isVefa": false
      }
    ]
  },
  "4277333e7ade": {
    "id": "4277333e7ade",
    "label": "2B RUE D ALSACE LORRAINE, Lillebonne",
    "lat": 49.51734,
    "lng": 0.534083,
    "transactions": [
      {
        "date": "2021-12-17",
        "priceEur": 190000,
        "typeLocal": "Appartement",
        "surfaceM2": 114,
        "isVefa": false
      },
      {
        "date": "2021-02-09",
        "priceEur": 180000,
        "typeLocal": "Appartement",
        "surfaceM2": 79,
        "isVefa": false
      }
    ]
  },
  "05132dab8498": {
    "id": "05132dab8498",
    "label": "32B RUE DE LA REPUBLIQUE, Lillebonne",
    "lat": 49.514858,
    "lng": 0.536474,
    "transactions": [
      {
        "date": "2021-05-18",
        "priceEur": 309000,
        "typeLocal": "Maison",
        "surfaceM2": 148,
        "isVefa": false
      }
    ]
  },
  "eafcd40c3135": {
    "id": "eafcd40c3135",
    "label": "9001 RUE DE LA REPUBLIQUE, Lillebonne",
    "lat": 49.515382,
    "lng": 0.535605,
    "transactions": [
      {
        "date": "2023-12-08",
        "priceEur": 70000,
        "typeLocal": "Appartement",
        "surfaceM2": 44,
        "isVefa": false
      },
      {
        "date": "2023-05-11",
        "priceEur": 59000,
        "typeLocal": "Appartement",
        "surfaceM2": 27,
        "isVefa": false
      },
      {
        "date": "2021-06-17",
        "priceEur": 145000,
        "typeLocal": "Appartement",
        "surfaceM2": 86,
        "isVefa": false
      }
    ]
  },
  "d5c074cbb367": {
    "id": "d5c074cbb367",
    "label": "18 RUE DE LA REPUBLIQUE, Lillebonne",
    "lat": 49.517069,
    "lng": 0.535402,
    "transactions": [
      {
        "date": "2021-06-24",
        "priceEur": 235000,
        "typeLocal": "Maison",
        "surfaceM2": 104,
        "isVefa": false
      }
    ]
  },
  "2b1f05d5e235": {
    "id": "2b1f05d5e235",
    "label": "9004 RUE DU HAUZAY, Lillebonne",
    "lat": 49.516157,
    "lng": 0.534378,
    "transactions": [
      {
        "date": "2021-06-23",
        "priceEur": 300000,
        "typeLocal": "Maison",
        "surfaceM2": 121,
        "isVefa": false
      }
    ]
  },
  "089935d2d43d": {
    "id": "089935d2d43d",
    "label": "3 RUE ALBERT GLATIGNY, Lillebonne",
    "lat": 49.517303,
    "lng": 0.53765,
    "transactions": [
      {
        "date": "2021-08-31",
        "priceEur": 93500,
        "typeLocal": "Maison",
        "surfaceM2": 16,
        "isVefa": false
      },
      {
        "date": "2021-08-31",
        "priceEur": 93500,
        "typeLocal": "Maison",
        "surfaceM2": 55,
        "isVefa": false
      }
    ]
  },
  "02252b2cac57": {
    "id": "02252b2cac57",
    "label": "12 RUE ALBERT GLATIGNY, Lillebonne",
    "lat": 49.515976,
    "lng": 0.537195,
    "transactions": [
      {
        "date": "2021-09-20",
        "priceEur": 350000,
        "typeLocal": "Maison",
        "surfaceM2": 205,
        "isVefa": false
      }
    ]
  },
  "be7b304def7c": {
    "id": "be7b304def7c",
    "label": "3 RUE D ALSACE LORRAINE, Lillebonne",
    "lat": 49.517298,
    "lng": 0.534722,
    "transactions": [
      {
        "date": "2021-10-18",
        "priceEur": 245000,
        "typeLocal": "Maison",
        "surfaceM2": 120,
        "isVefa": false
      }
    ]
  },
  "d5e8965f54ad": {
    "id": "d5e8965f54ad",
    "label": "51 RUE DE LA REPUBLIQUE, Lillebonne",
    "lat": 49.51468,
    "lng": 0.537332,
    "transactions": [
      {
        "date": "2022-02-02",
        "priceEur": 115000,
        "typeLocal": "Maison",
        "surfaceM2": 52,
        "isVefa": false
      }
    ]
  },
  "b3a55ed6abb1": {
    "id": "b3a55ed6abb1",
    "label": "47 RUE DE LA BOSSAYE, Lillebonne",
    "lat": 49.516952,
    "lng": 0.529296,
    "transactions": [
      {
        "date": "2022-01-25",
        "priceEur": 100000,
        "typeLocal": "Maison",
        "surfaceM2": 48,
        "isVefa": false
      }
    ]
  },
  "6c4a9bb3ec26": {
    "id": "6c4a9bb3ec26",
    "label": "12 RUE PASTEUR, Lillebonne",
    "lat": 49.517573,
    "lng": 0.533507,
    "transactions": [
      {
        "date": "2022-02-10",
        "priceEur": 241000,
        "typeLocal": "Maison",
        "surfaceM2": 62,
        "isVefa": false
      }
    ]
  },
  "a8ab24f293dd": {
    "id": "a8ab24f293dd",
    "label": "45 RUE DE LA BOSSAYE, Lillebonne",
    "lat": 49.517099,
    "lng": 0.529116,
    "transactions": [
      {
        "date": "2022-04-29",
        "priceEur": 103700,
        "typeLocal": "Maison",
        "surfaceM2": 42,
        "isVefa": false
      }
    ]
  },
  "7092a33b8fcc": {
    "id": "7092a33b8fcc",
    "label": "6 RUE VICTOR HUGO, Lillebonne",
    "lat": 49.517764,
    "lng": 0.535847,
    "transactions": [
      {
        "date": "2022-06-08",
        "priceEur": 60000,
        "typeLocal": "Maison",
        "surfaceM2": 64,
        "isVefa": false
      }
    ]
  },
  "10c59d1218fc": {
    "id": "10c59d1218fc",
    "label": "12T BD MAL DE LATTRE DE TASSIGNY, Lillebonne",
    "lat": 49.517836,
    "lng": 0.532979,
    "transactions": [
      {
        "date": "2022-06-02",
        "priceEur": 85000,
        "typeLocal": "Appartement",
        "surfaceM2": 49,
        "isVefa": false
      }
    ]
  },
  "92c480f815fc": {
    "id": "92c480f815fc",
    "label": "22 RUE GAMBETTA, Lillebonne",
    "lat": 49.517892,
    "lng": 0.534735,
    "transactions": [
      {
        "date": "2022-06-21",
        "priceEur": 348000,
        "typeLocal": "Appartement",
        "surfaceM2": 38,
        "isVefa": false
      },
      {
        "date": "2022-06-21",
        "priceEur": 348000,
        "typeLocal": "Appartement",
        "surfaceM2": 32,
        "isVefa": false
      },
      {
        "date": "2022-06-21",
        "priceEur": 348000,
        "typeLocal": "Appartement",
        "surfaceM2": 20,
        "isVefa": false
      },
      {
        "date": "2022-06-21",
        "priceEur": 348000,
        "typeLocal": "Maison",
        "surfaceM2": 55,
        "isVefa": false
      },
      {
        "date": "2022-06-21",
        "priceEur": 348000,
        "typeLocal": "Appartement",
        "surfaceM2": 16,
        "isVefa": false
      },
      {
        "date": "2022-06-21",
        "priceEur": 348000,
        "typeLocal": "Appartement",
        "surfaceM2": 30,
        "isVefa": false
      }
    ]
  },
  "19e7d2c41ba4": {
    "id": "19e7d2c41ba4",
    "label": "13 RUE PASTEUR, Lillebonne",
    "lat": 49.517127,
    "lng": 0.533643,
    "transactions": [
      {
        "date": "2022-11-03",
        "priceEur": 140000,
        "typeLocal": "Maison",
        "surfaceM2": 138,
        "isVefa": false
      },
      {
        "date": "2022-07-13",
        "priceEur": 80000,
        "typeLocal": "Maison",
        "surfaceM2": 138,
        "isVefa": false
      }
    ]
  },
  "901f0f70a02b": {
    "id": "901f0f70a02b",
    "label": "25 RUE ALBERT GLATIGNY, Lillebonne",
    "lat": 49.516387,
    "lng": 0.537768,
    "transactions": [
      {
        "date": "2022-07-18",
        "priceEur": 192900,
        "typeLocal": "Maison",
        "surfaceM2": 135,
        "isVefa": false
      }
    ]
  },
  "04ae6d319832": {
    "id": "04ae6d319832",
    "label": "17 RUE ALBERT GLATIGNY, Lillebonne",
    "lat": 49.516804,
    "lng": 0.537855,
    "transactions": [
      {
        "date": "2022-08-09",
        "priceEur": 123000,
        "typeLocal": "Maison",
        "surfaceM2": 52,
        "isVefa": false
      }
    ]
  },
  "350ace53595d": {
    "id": "350ace53595d",
    "label": "1T RUE D ALSACE LORRAINE, Lillebonne",
    "lat": 49.517089,
    "lng": 0.534653,
    "transactions": [
      {
        "date": "2022-08-16",
        "priceEur": 185000,
        "typeLocal": "Maison",
        "surfaceM2": 100,
        "isVefa": false
      }
    ]
  },
  "6b56f3eb8578": {
    "id": "6b56f3eb8578",
    "label": "1B RUE ALBERT GLATIGNY, Lillebonne",
    "lat": 49.51747,
    "lng": 0.537758,
    "transactions": [
      {
        "date": "2022-09-30",
        "priceEur": 115000,
        "typeLocal": "Maison",
        "surfaceM2": 95,
        "isVefa": false
      }
    ]
  },
  "a362f2a741fd": {
    "id": "a362f2a741fd",
    "label": "28 RUE VICTOR HUGO, Lillebonne",
    "lat": 49.51783,
    "lng": 0.538318,
    "transactions": [
      {
        "date": "2022-11-08",
        "priceEur": 100000,
        "typeLocal": "Maison",
        "surfaceM2": 71,
        "isVefa": false
      }
    ]
  },
  "6bdeb53c5624": {
    "id": "6bdeb53c5624",
    "label": "9 RUE PASTEUR, Lillebonne",
    "lat": 49.517444,
    "lng": 0.534257,
    "transactions": [
      {
        "date": "2022-11-25",
        "priceEur": 133000,
        "typeLocal": "Maison",
        "surfaceM2": 110,
        "isVefa": false
      }
    ]
  },
  "8dc876bab2f3": {
    "id": "8dc876bab2f3",
    "label": "14 RUE DE LA REPUBLIQUE, Lillebonne",
    "lat": 49.517218,
    "lng": 0.535314,
    "transactions": [
      {
        "date": "2022-12-16",
        "priceEur": 82000,
        "typeLocal": "Appartement",
        "surfaceM2": 75,
        "isVefa": false
      }
    ]
  },
  "85b3be09654a": {
    "id": "85b3be09654a",
    "label": "9 RUE DE LA REPUBLIQUE, Lillebonne",
    "lat": 49.516514,
    "lng": 0.536242,
    "transactions": [
      {
        "date": "2023-02-14",
        "priceEur": 152500,
        "typeLocal": "Maison",
        "surfaceM2": 100,
        "isVefa": false
      }
    ]
  },
  "59be275d5068": {
    "id": "59be275d5068",
    "label": "27 RUE ALBERT GLATIGNY, Lillebonne",
    "lat": 49.516204,
    "lng": 0.537862,
    "transactions": [
      {
        "date": "2023-07-07",
        "priceEur": 186000,
        "typeLocal": "Maison",
        "surfaceM2": 152,
        "isVefa": false
      }
    ]
  },
  "24ef76502bcf": {
    "id": "24ef76502bcf",
    "label": "39 RUE SALVADOR ALLENDE, Lillebonne",
    "lat": 49.514608,
    "lng": 0.538218,
    "transactions": [
      {
        "date": "2023-11-29",
        "priceEur": 115000,
        "typeLocal": "Maison",
        "surfaceM2": 105,
        "isVefa": false
      }
    ]
  },
  "5bd797215267": {
    "id": "5bd797215267",
    "label": "21 RUE ALBERT GLATIGNY, Lillebonne",
    "lat": 49.516743,
    "lng": 0.53754,
    "transactions": [
      {
        "date": "2023-12-21",
        "priceEur": 166000,
        "typeLocal": "Maison",
        "surfaceM2": 92,
        "isVefa": false
      }
    ]
  },
  "7cab6d58b136": {
    "id": "7cab6d58b136",
    "label": "32Q RUE DE LA REPUBLIQUE, Lillebonne",
    "lat": 49.514711,
    "lng": 0.535628,
    "transactions": [
      {
        "date": "2024-02-15",
        "priceEur": 180000,
        "typeLocal": "Maison",
        "surfaceM2": 85,
        "isVefa": false
      }
    ]
  },
  "e6a4f1cccf9a": {
    "id": "e6a4f1cccf9a",
    "label": "21 RUE DE LA REPUBLIQUE, Lillebonne",
    "lat": 49.515949,
    "lng": 0.536727,
    "transactions": [
      {
        "date": "2025-02-26",
        "priceEur": 124000,
        "typeLocal": "Maison",
        "surfaceM2": 77,
        "isVefa": false
      },
      {
        "date": "2024-03-06",
        "priceEur": 70000,
        "typeLocal": "Maison",
        "surfaceM2": 77,
        "isVefa": false
      }
    ]
  },
  "dd74268cabcb": {
    "id": "dd74268cabcb",
    "label": "4 RUE KINKERVILLE, Lillebonne",
    "lat": 49.517367,
    "lng": 0.537686,
    "transactions": [
      {
        "date": "2024-03-22",
        "priceEur": 99000,
        "typeLocal": "Maison",
        "surfaceM2": 52,
        "isVefa": false
      }
    ]
  },
  "6e3906950b1d": {
    "id": "6e3906950b1d",
    "label": "4 RUE PASTEUR, Lillebonne",
    "lat": 49.517785,
    "lng": 0.534241,
    "transactions": [
      {
        "date": "2024-04-10",
        "priceEur": 148000,
        "typeLocal": "Appartement",
        "surfaceM2": 66,
        "isVefa": false
      }
    ]
  },
  "df6fa95e85db": {
    "id": "df6fa95e85db",
    "label": "32C RUE DE LA REPUBLIQUE, Lillebonne",
    "lat": 49.515154,
    "lng": 0.536081,
    "transactions": [
      {
        "date": "2024-04-24",
        "priceEur": 185000,
        "typeLocal": "Appartement",
        "surfaceM2": 77,
        "isVefa": false
      }
    ]
  },
  "6dbef1bbc122": {
    "id": "6dbef1bbc122",
    "label": "6 RUE DE LA REPUBLIQUE, Lillebonne",
    "lat": 49.517374,
    "lng": 0.535238,
    "transactions": [
      {
        "date": "2024-09-24",
        "priceEur": 30000,
        "typeLocal": "Appartement",
        "surfaceM2": 21,
        "isVefa": false
      }
    ]
  },
  "681dc2938e12": {
    "id": "681dc2938e12",
    "label": "29 RUE DE LA REPUBLIQUE, Lillebonne",
    "lat": 49.515605,
    "lng": 0.536804,
    "transactions": [
      {
        "date": "2024-10-16",
        "priceEur": 52600,
        "typeLocal": "Maison",
        "surfaceM2": 50,
        "isVefa": false
      }
    ]
  },
  "b68f14dd5b0d": {
    "id": "b68f14dd5b0d",
    "label": "38 RUE DE LA REPUBLIQUE, Lillebonne",
    "lat": 49.514768,
    "lng": 0.536827,
    "transactions": [
      {
        "date": "2025-01-08",
        "priceEur": 45000,
        "typeLocal": "Maison",
        "surfaceM2": 50,
        "isVefa": false
      }
    ]
  },
  "3d03f662f379": {
    "id": "3d03f662f379",
    "label": "26 RUE VICTOR HUGO, Lillebonne",
    "lat": 49.517827,
    "lng": 0.538243,
    "transactions": [
      {
        "date": "2025-01-22",
        "priceEur": 86000,
        "typeLocal": "Maison",
        "surfaceM2": 62,
        "isVefa": false
      }
    ]
  },
  "c7154cbb1bea": {
    "id": "c7154cbb1bea",
    "label": "33 RUE ALBERT GLATIGNY, Lillebonne",
    "lat": 49.515017,
    "lng": 0.538059,
    "transactions": [
      {
        "date": "2025-03-06",
        "priceEur": 273450,
        "typeLocal": "Maison",
        "surfaceM2": 180,
        "isVefa": false
      }
    ]
  },
  "6fce1dc40042": {
    "id": "6fce1dc40042",
    "label": "12B BD MAL DE LATTRE DE TASSIGNY, Lillebonne",
    "lat": 49.518044,
    "lng": 0.533197,
    "transactions": [
      {
        "date": "2025-04-29",
        "priceEur": 225000,
        "typeLocal": "Maison",
        "surfaceM2": 104,
        "isVefa": false
      }
    ]
  },
  "931112f42ba7": {
    "id": "931112f42ba7",
    "label": "1B RUE KINKERVILLE, Lillebonne",
    "lat": 49.517686,
    "lng": 0.538109,
    "transactions": [
      {
        "date": "2025-06-04",
        "priceEur": 77830,
        "typeLocal": "Maison",
        "surfaceM2": 56,
        "isVefa": false
      }
    ]
  }
}