{
  "37c7f7b45e74": {
    "id": "37c7f7b45e74",
    "label": "43 RTE NATIONALE, Marchiennes",
    "lat": 50.429018,
    "lng": 3.261291,
    "transactions": [
      {
        "date": "2020-10-23",
        "priceEur": 240000,
        "typeLocal": "Maison",
        "surfaceM2": 118,
        "isVefa": false
      }
    ]
  },
  "42b41ffc094c": {
    "id": "42b41ffc094c",
    "label": "1167 RUE DES JARDINS, Bouvignies",
    "lat": 50.423822,
    "lng": 3.257574,
    "transactions": [
      {
        "date": "2021-07-19",
        "priceEur": 354100,
        "typeLocal": "Maison",
        "surfaceM2": 74,
        "isVefa": false
      }
    ]
  },
  "d3e192653bfa": {
    "id": "d3e192653bfa",
    "label": "2 RUE DE LA COSSETERIE, Marchiennes",
    "lat": 50.427318,
    "lng": 3.261595,
    "transactions": [
      {
        "date": "2021-08-17",
        "priceEur": 352500,
        "typeLocal": "Maison",
        "surfaceM2": 98,
        "isVefa": false
      }
    ]
  },
  "a091075c361a": {
    "id": "a091075c361a",
    "label": "9 LOT DE LA COSSETERIE, Marchiennes",
    "lat": 50.42685,
    "lng": 3.25756,
    "transactions": [
      {
        "date": "2022-08-02",
        "priceEur": 135000,
        "typeLocal": "Maison",
        "surfaceM2": 120,
        "isVefa": false
      }
    ]
  },
  "3fa841120e0f": {
    "id": "3fa841120e0f",
    "label": "18B RUE DE LA COSSETERIE, Marchiennes",
    "lat": 50.42666,
    "lng": 3.257708,
    "transactions": [
      {
        "date": "2022-10-19",
        "priceEur": 445000,
        "typeLocal": "Maison",
        "surfaceM2": 93,
        "isVefa": false
      }
    ]
  },
  "7e5f5d60138f": {
    "id": "7e5f5d60138f",
    "label": "2T RUE DE LA COSSETERIE, Marchiennes",
    "lat": 50.427235,
    "lng": 3.262092,
    "transactions": [
      {
        "date": "2023-06-05",
        "priceEur": 344000,
        "typeLocal": "Maison",
        "surfaceM2": 149,
        "isVefa": false
      }
    ]
  },
  "5b7ed3b35871": {
    "id": "5b7ed3b35871",
    "label": "5 LOT DE LA COSSETERIE, Marchiennes",
    "lat": 50.427488,
    "lng": 3.25834,
    "transactions": [
      {
        "date": "2023-08-28",
        "priceEur": 349000,
        "typeLocal": "Maison",
        "surfaceM2": 163,
        "isVefa": false
      }
    ]
  }
}