{
  "a8a642ca7532": {
    "id": "a8a642ca7532",
    "label": "16 RUE D ERRE, Ramillies",
    "lat": 50.201992,
    "lng": 3.258728,
    "transactions": [
      {
        "date": "2021-03-19",
        "priceEur": 80000,
        "typeLocal": "Maison",
        "surfaceM2": 75,
        "isVefa": false
      }
    ]
  },
  "4a99da858b48": {
    "id": "4a99da858b48",
    "label": "22 RUE DES PRES, Escaud≈ìuvres",
    "lat": 50.200272,
    "lng": 3.261371,
    "transactions": [
      {
        "date": "2021-07-05",
        "priceEur": 110000,
        "typeLocal": "Maison",
        "surfaceM2": 113,
        "isVefa": false
      }
    ]
  },
  "90c4c9d679d3": {
    "id": "90c4c9d679d3",
    "label": "10 RUE DE LA VILLE, Ramillies",
    "lat": 50.202501,
    "lng": 3.262012,
    "transactions": [
      {
        "date": "2022-07-11",
        "priceEur": 50000,
        "typeLocal": "Maison",
        "surfaceM2": 70,
        "isVefa": false
      }
    ]
  },
  "3b625b3d907d": {
    "id": "3b625b3d907d",
    "label": "36 RUE DU PONT D ERRE, Ramillies",
    "lat": 50.19869,
    "lng": 3.252412,
    "transactions": [
      {
        "date": "2022-10-14",
        "priceEur": 25000,
        "typeLocal": "Maison",
        "surfaceM2": 20,
        "isVefa": false
      }
    ]
  },
  "351ba06ca37c": {
    "id": "351ba06ca37c",
    "label": "9 CTR DU MARAIS, Ramillies",
    "lat": 50.205005,
    "lng": 3.261692,
    "transactions": [
      {
        "date": "2022-10-21",
        "priceEur": 135000,
        "typeLocal": "Maison",
        "surfaceM2": 101,
        "isVefa": false
      }
    ]
  },
  "941d4ac7bf91": {
    "id": "941d4ac7bf91",
    "label": "2 RUE DE LA VILLE, Ramillies",
    "lat": 50.203123,
    "lng": 3.260968,
    "transactions": [
      {
        "date": "2023-04-06",
        "priceEur": 140500,
        "typeLocal": "Maison",
        "surfaceM2": 90,
        "isVefa": false
      }
    ]
  },
  "d00b1225fb31": {
    "id": "d00b1225fb31",
    "label": "24 RUE DE CAMBRAI, Ramillies",
    "lat": 50.205029,
    "lng": 3.259306,
    "transactions": [
      {
        "date": "2024-05-25",
        "priceEur": 209700,
        "typeLocal": "Maison",
        "surfaceM2": 146,
        "isVefa": false
      }
    ]
  },
  "f662a06b8fa7": {
    "id": "f662a06b8fa7",
    "label": "8 RUE D ERRE, Ramillies",
    "lat": 50.203131,
    "lng": 3.259939,
    "transactions": [
      {
        "date": "2024-07-05",
        "priceEur": 60000,
        "typeLocal": "Maison",
        "surfaceM2": 62,
        "isVefa": false
      }
    ]
  },
  "2fe8151e7946": {
    "id": "2fe8151e7946",
    "label": "3 RUE D ERRE, Ramillies",
    "lat": 50.20384,
    "lng": 3.261607,
    "transactions": [
      {
        "date": "2024-08-22",
        "priceEur": 80000,
        "typeLocal": "Maison",
        "surfaceM2": 63,
        "isVefa": false
      }
    ]
  },
  "dc6c653ffc48": {
    "id": "dc6c653ffc48",
    "label": "6 RUE DU BLANC PAIN, Ramillies",
    "lat": 50.203459,
    "lng": 3.259371,
    "transactions": [
      {
        "date": "2024-12-16",
        "priceEur": 207000,
        "typeLocal": "Maison",
        "surfaceM2": 110,
        "isVefa": false
      }
    ]
  }
}