{
  "dc17fd525c65": {
    "id": "dc17fd525c65",
    "label": "8 RUE DU GENERAL SOUHAM, Tourcoing",
    "lat": 50.728815,
    "lng": 3.147014,
    "transactions": [
      {
        "date": "2020-07-06",
        "priceEur": 110000,
        "typeLocal": "Maison",
        "surfaceM2": 51,
        "isVefa": false
      }
    ]
  },
  "ca99623b77ec": {
    "id": "ca99623b77ec",
    "label": "16 RUE JEAN JAURES, Tourcoing",
    "lat": 50.729068,
    "lng": 3.148785,
    "transactions": [
      {
        "date": "2024-12-03",
        "priceEur": 62000,
        "typeLocal": "Appartement",
        "surfaceM2": 61,
        "isVefa": false
      },
      {
        "date": "2024-11-28",
        "priceEur": 120000,
        "typeLocal": "Appartement",
        "surfaceM2": 73,
        "isVefa": false
      },
      {
        "date": "2024-03-11",
        "priceEur": 81000,
        "typeLocal": "Appartement",
        "surfaceM2": 61,
        "isVefa": false
      },
      {
        "date": "2024-02-27",
        "priceEur": 66000,
        "typeLocal": "Appartement",
        "surfaceM2": 61,
        "isVefa": false
      },
      {
        "date": "2024-02-21",
        "priceEur": 75000,
        "typeLocal": "Appartement",
        "surfaceM2": 49,
        "isVefa": false
      },
      {
        "date": "2023-12-22",
        "priceEur": 53770,
        "typeLocal": "Appartement",
        "surfaceM2": 73,
        "isVefa": false
      },
      {
        "date": "2023-08-04",
        "priceEur": 102000,
        "typeLocal": "Appartement",
        "surfaceM2": 73,
        "isVefa": false
      },
      {
        "date": "2023-06-27",
        "priceEur": 74000,
        "typeLocal": "Appartement",
        "surfaceM2": 73,
        "isVefa": false
      },
      {
        "date": "2023-02-07",
        "priceEur": 70600,
        "typeLocal": "Appartement",
        "surfaceM2": 49,
        "isVefa": false
      },
      {
        "date": "2023-01-09",
        "priceEur": 35000,
        "typeLocal": "Appartement",
        "surfaceM2": 49,
        "isVefa": false
      },
      {
        "date": "2022-09-30",
        "priceEur": 68000,
        "typeLocal": "Appartement",
        "surfaceM2": 49,
        "isVefa": false
      },
      {
        "date": "2022-08-31",
        "priceEur": 136295,
        "typeLocal": "Appartement",
        "surfaceM2": 73,
        "isVefa": false
      },
      {
        "date": "2022-06-20",
        "priceEur": 160000,
        "typeLocal": "Appartement",
        "surfaceM2": 49,
        "isVefa": false
      },
      {
        "date": "2021-12-22",
        "priceEur": 91000,
        "typeLocal": "Appartement",
        "surfaceM2": 49,
        "isVefa": false
      },
      {
        "date": "2021-11-19",
        "priceEur": 70500,
        "typeLocal": "Appartement",
        "surfaceM2": 49,
        "isVefa": false
      },
      {
        "date": "2021-09-17",
        "priceEur": 82500,
        "typeLocal": "Appartement",
        "surfaceM2": 61,
        "isVefa": false
      },
      {
        "date": "2021-08-02",
        "priceEur": 110804,
        "typeLocal": "Appartement",
        "surfaceM2": 61,
        "isVefa": false
      },
      {
        "date": "2021-07-01",
        "priceEur": 58500,
        "typeLocal": "Appartement",
        "surfaceM2": 49,
        "isVefa": false
      },
      {
        "date": "2021-05-18",
        "priceEur": 110000,
        "typeLocal": "Appartement",
        "surfaceM2": 73,
        "isVefa": false
      },
      {
        "date": "2020-07-13",
        "priceEur": 67550,
        "typeLocal": "Appartement",
        "surfaceM2": 61,
        "isVefa": false
      }
    ]
  },
  "aaa8b305cf10": {
    "id": "aaa8b305cf10",
    "label": "11 ALL LE NOTRE, Tourcoing",
    "lat": 50.726884,
    "lng": 3.147172,
    "transactions": [
      {
        "date": "2020-07-29",
        "priceEur": 150000,
        "typeLocal": "Maison",
        "surfaceM2": 81,
        "isVefa": false
      }
    ]
  },
  "f1afe915f608": {
    "id": "f1afe915f608",
    "label": "4 RUE DU GENERAL SOUHAM, Tourcoing",
    "lat": 50.728751,
    "lng": 3.14695,
    "transactions": [
      {
        "date": "2020-07-31",
        "priceEur": 133333,
        "typeLocal": "Maison",
        "surfaceM2": 87,
        "isVefa": false
      }
    ]
  },
  "b5d42dcf76da": {
    "id": "b5d42dcf76da",
    "label": "88 RUE DES POUTRAINS, Tourcoing",
    "lat": 50.725169,
    "lng": 3.152888,
    "transactions": [
      {
        "date": "2020-07-31",
        "priceEur": 60000,
        "typeLocal": "Appartement",
        "surfaceM2": 40,
        "isVefa": false
      }
    ]
  },
  "0f9c38d853e5": {
    "id": "0f9c38d853e5",
    "label": "79 RUE D OSTENDE, Tourcoing",
    "lat": 50.728549,
    "lng": 3.145762,
    "transactions": [
      {
        "date": "2020-08-28",
        "priceEur": 129000,
        "typeLocal": "Maison",
        "surfaceM2": 84,
        "isVefa": false
      }
    ]
  },
  "ffe5530eae3d": {
    "id": "ffe5530eae3d",
    "label": "31 ALL GENEVI ANTHONIOZ DE GAULLE, Tourcoing",
    "lat": 50.724053,
    "lng": 3.143494,
    "transactions": [
      {
        "date": "2023-11-30",
        "priceEur": 267000,
        "typeLocal": "Maison",
        "surfaceM2": 103,
        "isVefa": false
      },
      {
        "date": "2020-09-04",
        "priceEur": 232000,
        "typeLocal": "Maison",
        "surfaceM2": 103,
        "isVefa": false
      }
    ]
  },
  "ba66f1ce75ff": {
    "id": "ba66f1ce75ff",
    "label": "16 RUE JEAN FROISSART, Tourcoing",
    "lat": 50.724683,
    "lng": 3.146711,
    "transactions": [
      {
        "date": "2024-11-05",
        "priceEur": 111180,
        "typeLocal": "Appartement",
        "surfaceM2": 68,
        "isVefa": false
      },
      {
        "date": "2024-09-12",
        "priceEur": 90000,
        "typeLocal": "Appartement",
        "surfaceM2": 68,
        "isVefa": false
      },
      {
        "date": "2021-08-13",
        "priceEur": 76000,
        "typeLocal": "Appartement",
        "surfaceM2": 68,
        "isVefa": false
      },
      {
        "date": "2020-08-28",
        "priceEur": 92500,
        "typeLocal": "Appartement",
        "surfaceM2": 68,
        "isVefa": false
      }
    ]
  },
  "fdc40637958f": {
    "id": "fdc40637958f",
    "label": "38 RUE D OSTENDE, Tourcoing",
    "lat": 50.727765,
    "lng": 3.14549,
    "transactions": [
      {
        "date": "2020-08-27",
        "priceEur": 78000,
        "typeLocal": "Maison",
        "surfaceM2": 79,
        "isVefa": false
      }
    ]
  },
  "6b7b30f2e087": {
    "id": "6b7b30f2e087",
    "label": "33 RUE HOCHE, Tourcoing",
    "lat": 50.722614,
    "lng": 3.143235,
    "transactions": [
      {
        "date": "2020-09-01",
        "priceEur": 96000,
        "typeLocal": "Maison",
        "surfaceM2": 73,
        "isVefa": false
      }
    ]
  },
  "c9a2cb4d8c6a": {
    "id": "c9a2cb4d8c6a",
    "label": "20 RUE JEAN FROISSART, Tourcoing",
    "lat": 50.724683,
    "lng": 3.146711,
    "transactions": [
      {
        "date": "2024-01-25",
        "priceEur": 107500,
        "typeLocal": "Appartement",
        "surfaceM2": 68,
        "isVefa": false
      },
      {
        "date": "2023-01-10",
        "priceEur": 105000,
        "typeLocal": "Appartement",
        "surfaceM2": 83,
        "isVefa": false
      },
      {
        "date": "2022-12-23",
        "priceEur": 76000,
        "typeLocal": "Appartement",
        "surfaceM2": 68,
        "isVefa": false
      },
      {
        "date": "2022-02-15",
        "priceEur": 81000,
        "typeLocal": "Appartement",
        "surfaceM2": 68,
        "isVefa": false
      },
      {
        "date": "2021-10-28",
        "priceEur": 101000,
        "typeLocal": "Appartement",
        "surfaceM2": 83,
        "isVefa": false
      },
      {
        "date": "2020-09-11",
        "priceEur": 73000,
        "typeLocal": "Appartement",
        "surfaceM2": 68,
        "isVefa": false
      }
    ]
  },
  "d8691a89a7bb": {
    "id": "d8691a89a7bb",
    "label": "3 RUE DE PARIS, Tourcoing",
    "lat": 50.723204,
    "lng": 3.144968,
    "transactions": [
      {
        "date": "2020-09-18",
        "priceEur": 192000,
        "typeLocal": "Appartement",
        "surfaceM2": 55,
        "isVefa": false
      },
      {
        "date": "2020-09-18",
        "priceEur": 192000,
        "typeLocal": "Appartement",
        "surfaceM2": 32,
        "isVefa": false
      }
    ]
  },
  "1739ef99cfad": {
    "id": "1739ef99cfad",
    "label": "96 RUE DE LILLE, Tourcoing",
    "lat": 50.722778,
    "lng": 3.152559,
    "transactions": [
      {
        "date": "2020-09-25",
        "priceEur": 1030000,
        "typeLocal": "Appartement",
        "surfaceM2": 30,
        "isVefa": false
      },
      {
        "date": "2020-09-25",
        "priceEur": 1030000,
        "typeLocal": "Appartement",
        "surfaceM2": 134,
        "isVefa": false
      },
      {
        "date": "2020-09-25",
        "priceEur": 1030000,
        "typeLocal": "Appartement",
        "surfaceM2": 70,
        "isVefa": false
      },
      {
        "date": "2020-09-25",
        "priceEur": 1030000,
        "typeLocal": "Appartement",
        "surfaceM2": 40,
        "isVefa": false
      }
    ]
  },
  "48c90663faad": {
    "id": "48c90663faad",
    "label": "28 RUE MARCEAU, Tourcoing",
    "lat": 50.729053,
    "lng": 3.152879,
    "transactions": [
      {
        "date": "2023-08-25",
        "priceEur": 54000,
        "typeLocal": "Maison",
        "surfaceM2": 77,
        "isVefa": false
      },
      {
        "date": "2020-09-29",
        "priceEur": 90000,
        "typeLocal": "Maison",
        "surfaceM2": 77,
        "isVefa": false
      }
    ]
  },
  "d1262a972582": {
    "id": "d1262a972582",
    "label": "17 RUE DU GENERAL DOUAY, Tourcoing",
    "lat": 50.726908,
    "lng": 3.144374,
    "transactions": [
      {
        "date": "2020-10-06",
        "priceEur": 146000,
        "typeLocal": "Maison",
        "surfaceM2": 78,
        "isVefa": false
      }
    ]
  },
  "65f8a751c430": {
    "id": "65f8a751c430",
    "label": "135 RUE DE LILLE, Tourcoing",
    "lat": 50.723733,
    "lng": 3.146739,
    "transactions": [
      {
        "date": "2020-10-01",
        "priceEur": 700000,
        "typeLocal": "Appartement",
        "surfaceM2": 60,
        "isVefa": false
      },
      {
        "date": "2020-10-01",
        "priceEur": 700000,
        "typeLocal": "Appartement",
        "surfaceM2": 45,
        "isVefa": false
      },
      {
        "date": "2020-10-01",
        "priceEur": 700000,
        "typeLocal": "Appartement",
        "surfaceM2": 50,
        "isVefa": false
      },
      {
        "date": "2020-10-01",
        "priceEur": 700000,
        "typeLocal": "Appartement",
        "surfaceM2": 35,
        "isVefa": false
      },
      {
        "date": "2020-10-01",
        "priceEur": 700000,
        "typeLocal": "Appartement",
        "surfaceM2": 65,
        "isVefa": false
      },
      {
        "date": "2020-10-01",
        "priceEur": 700000,
        "typeLocal": "Appartement",
        "surfaceM2": 40,
        "isVefa": false
      },
      {
        "date": "2020-10-01",
        "priceEur": 700000,
        "typeLocal": "Appartement",
        "surfaceM2": 55,
        "isVefa": false
      }
    ]
  },
  "c880fd5961ce": {
    "id": "c880fd5961ce",
    "label": "131 RUE DES CHAMPS, Tourcoing",
    "lat": 50.728986,
    "lng": 3.14343,
    "transactions": [
      {
        "date": "2020-10-14",
        "priceEur": 188250,
        "typeLocal": "Maison",
        "surfaceM2": 86,
        "isVefa": false
      }
    ]
  },
  "3ba64ef7e4d3": {
    "id": "3ba64ef7e4d3",
    "label": "54 RUE DE PARIS, Tourcoing",
    "lat": 50.72281,
    "lng": 3.144275,
    "transactions": [
      {
        "date": "2020-10-19",
        "priceEur": 132000,
        "typeLocal": "Appartement",
        "surfaceM2": 29,
        "isVefa": false
      },
      {
        "date": "2020-10-19",
        "priceEur": 132000,
        "typeLocal": "Appartement",
        "surfaceM2": 36,
        "isVefa": false
      }
    ]
  },
  "df89a10d9389": {
    "id": "df89a10d9389",
    "label": "42 RUE DES CHAMPS, Tourcoing",
    "lat": 50.727024,
    "lng": 3.142445,
    "transactions": [
      {
        "date": "2020-10-29",
        "priceEur": 164000,
        "typeLocal": "Maison",
        "surfaceM2": 74,
        "isVefa": false
      }
    ]
  },
  "8bcc3f38b72f": {
    "id": "8bcc3f38b72f",
    "label": "15 RUE DU MOULIN, Tourcoing",
    "lat": 50.725791,
    "lng": 3.14435,
    "transactions": [
      {
        "date": "2022-06-24",
        "priceEur": 305000,
        "typeLocal": "Appartement",
        "surfaceM2": 143,
        "isVefa": false
      },
      {
        "date": "2022-05-13",
        "priceEur": 407000,
        "typeLocal": "Maison",
        "surfaceM2": 224,
        "isVefa": false
      },
      {
        "date": "2021-02-22",
        "priceEur": 231000,
        "typeLocal": "Appartement",
        "surfaceM2": 120,
        "isVefa": false
      },
      {
        "date": "2020-10-21",
        "priceEur": 149900,
        "typeLocal": "Appartement",
        "surfaceM2": 74,
        "isVefa": false
      }
    ]
  },
  "4b32c2cbbf90": {
    "id": "4b32c2cbbf90",
    "label": "51 RUE DU BRUN PAIN, Tourcoing",
    "lat": 50.72524,
    "lng": 3.144018,
    "transactions": [
      {
        "date": "2020-10-19",
        "priceEur": 198000,
        "typeLocal": "Maison",
        "surfaceM2": 150,
        "isVefa": false
      }
    ]
  },
  "6ef91ff9f353": {
    "id": "6ef91ff9f353",
    "label": "67 RUE DU MOULIN, Tourcoing",
    "lat": 50.726895,
    "lng": 3.145761,
    "transactions": [
      {
        "date": "2020-10-29",
        "priceEur": 127500,
        "typeLocal": "Maison",
        "surfaceM2": 82,
        "isVefa": false
      }
    ]
  },
  "d0184dbe1b45": {
    "id": "d0184dbe1b45",
    "label": "12 RUE JEAN FROISSART, Tourcoing",
    "lat": 50.724683,
    "lng": 3.146711,
    "transactions": [
      {
        "date": "2024-11-29",
        "priceEur": 100000,
        "typeLocal": "Appartement",
        "surfaceM2": 68,
        "isVefa": false
      },
      {
        "date": "2022-05-24",
        "priceEur": 140500,
        "typeLocal": "Appartement",
        "surfaceM2": 83,
        "isVefa": false
      },
      {
        "date": "2022-01-10",
        "priceEur": 95800,
        "typeLocal": "Appartement",
        "surfaceM2": 68,
        "isVefa": false
      },
      {
        "date": "2021-02-12",
        "priceEur": 78000,
        "typeLocal": "Appartement",
        "surfaceM2": 83,
        "isVefa": false
      },
      {
        "date": "2020-11-30",
        "priceEur": 77000,
        "typeLocal": "Appartement",
        "surfaceM2": 83,
        "isVefa": false
      }
    ]
  },
  "e5ba57c477b1": {
    "id": "e5ba57c477b1",
    "label": "102 RUE DES CHAMPS, Tourcoing",
    "lat": 50.728258,
    "lng": 3.143284,
    "transactions": [
      {
        "date": "2020-11-10",
        "priceEur": 228000,
        "typeLocal": "Maison",
        "surfaceM2": 82,
        "isVefa": false
      }
    ]
  },
  "4fb5b2932173": {
    "id": "4fb5b2932173",
    "label": "117 RUE NATIONALE, Tourcoing",
    "lat": 50.724588,
    "lng": 3.151077,
    "transactions": [
      {
        "date": "2025-05-26",
        "priceEur": 215000,
        "typeLocal": "Appartement",
        "surfaceM2": 26,
        "isVefa": false
      },
      {
        "date": "2025-05-26",
        "priceEur": 215000,
        "typeLocal": "Appartement",
        "surfaceM2": 60,
        "isVefa": false
      },
      {
        "date": "2025-05-26",
        "priceEur": 215000,
        "typeLocal": "Appartement",
        "surfaceM2": 48,
        "isVefa": false
      },
      {
        "date": "2022-09-08",
        "priceEur": 86500,
        "typeLocal": "Appartement",
        "surfaceM2": 60,
        "isVefa": false
      },
      {
        "date": "2022-02-22",
        "priceEur": 108150,
        "typeLocal": "Appartement",
        "surfaceM2": 57,
        "isVefa": false
      },
      {
        "date": "2021-10-21",
        "priceEur": 75000,
        "typeLocal": "Appartement",
        "surfaceM2": 26,
        "isVefa": false
      },
      {
        "date": "2021-10-21",
        "priceEur": 75000,
        "typeLocal": "Appartement",
        "surfaceM2": 48,
        "isVefa": false
      },
      {
        "date": "2020-11-30",
        "priceEur": 73000,
        "typeLocal": "Appartement",
        "surfaceM2": 49,
        "isVefa": false
      }
    ]
  },
  "1054c08b2bf8": {
    "id": "1054c08b2bf8",
    "label": "103 AV DE LA FIN DE LA GUERRE, Tourcoing",
    "lat": 50.72828,
    "lng": 3.146896,
    "transactions": [
      {
        "date": "2020-12-02",
        "priceEur": 145450,
        "typeLocal": "Appartement",
        "surfaceM2": 90,
        "isVefa": false
      }
    ]
  },
  "79c32697f487": {
    "id": "79c32697f487",
    "label": "11 RUE DU GENERAL DOUAY, Tourcoing",
    "lat": 50.726296,
    "lng": 3.144476,
    "transactions": [
      {
        "date": "2023-09-08",
        "priceEur": 153000,
        "typeLocal": "Appartement",
        "surfaceM2": 67,
        "isVefa": false
      },
      {
        "date": "2023-05-10",
        "priceEur": 129000,
        "typeLocal": "Appartement",
        "surfaceM2": 46,
        "isVefa": false
      },
      {
        "date": "2022-12-30",
        "priceEur": 143500,
        "typeLocal": "Appartement",
        "surfaceM2": 65,
        "isVefa": false
      },
      {
        "date": "2021-08-06",
        "priceEur": 175000,
        "typeLocal": "Appartement",
        "surfaceM2": 67,
        "isVefa": false
      },
      {
        "date": "2021-06-16",
        "priceEur": 203000,
        "typeLocal": "Appartement",
        "surfaceM2": 123,
        "isVefa": false
      },
      {
        "date": "2021-02-10",
        "priceEur": 113150,
        "typeLocal": "Appartement",
        "surfaceM2": 46,
        "isVefa": false
      },
      {
        "date": "2020-11-25",
        "priceEur": 143940,
        "typeLocal": "Appartement",
        "surfaceM2": 52,
        "isVefa": false
      }
    ]
  },
  "8eacb3a36ea9": {
    "id": "8eacb3a36ea9",
    "label": "14 RUE JEAN JAURES, Tourcoing",
    "lat": 50.729068,
    "lng": 3.148785,
    "transactions": [
      {
        "date": "2024-09-16",
        "priceEur": 90000,
        "typeLocal": "Appartement",
        "surfaceM2": 73,
        "isVefa": false
      },
      {
        "date": "2024-04-09",
        "priceEur": 100000,
        "typeLocal": "Appartement",
        "surfaceM2": 73,
        "isVefa": false
      },
      {
        "date": "2023-10-12",
        "priceEur": 102000,
        "typeLocal": "Appartement",
        "surfaceM2": 73,
        "isVefa": false
      },
      {
        "date": "2023-09-06",
        "priceEur": 90000,
        "typeLocal": "Appartement",
        "surfaceM2": 120,
        "isVefa": false
      },
      {
        "date": "2023-04-28",
        "priceEur": 132000,
        "typeLocal": "Appartement",
        "surfaceM2": 120,
        "isVefa": false
      },
      {
        "date": "2023-02-03",
        "priceEur": 59000,
        "typeLocal": "Appartement",
        "surfaceM2": 61,
        "isVefa": false
      },
      {
        "date": "2022-09-12",
        "priceEur": 139000,
        "typeLocal": "Appartement",
        "surfaceM2": 120,
        "isVefa": false
      },
      {
        "date": "2022-07-01",
        "priceEur": 83000,
        "typeLocal": "Appartement",
        "surfaceM2": 61,
        "isVefa": false
      },
      {
        "date": "2021-06-11",
        "priceEur": 143000,
        "typeLocal": "Appartement",
        "surfaceM2": 120,
        "isVefa": false
      },
      {
        "date": "2020-12-22",
        "priceEur": 138000,
        "typeLocal": "Appartement",
        "surfaceM2": 120,
        "isVefa": false
      },
      {
        "date": "2020-12-16",
        "priceEur": 100000,
        "typeLocal": "Appartement",
        "surfaceM2": 120,
        "isVefa": false
      }
    ]
  },
  "43d998cf180b": {
    "id": "43d998cf180b",
    "label": "55 RUE HOCHE, Tourcoing",
    "lat": 50.722698,
    "lng": 3.143401,
    "transactions": [
      {
        "date": "2020-12-18",
        "priceEur": 119000,
        "typeLocal": "Maison",
        "surfaceM2": 65,
        "isVefa": false
      }
    ]
  },
  "fa9eebb7fe9b": {
    "id": "fa9eebb7fe9b",
    "label": "5 RUE DE PARIS, Tourcoing",
    "lat": 50.723084,
    "lng": 3.145003,
    "transactions": [
      {
        "date": "2025-01-10",
        "priceEur": 143000,
        "typeLocal": "Appartement",
        "surfaceM2": 64,
        "isVefa": false
      },
      {
        "date": "2022-03-01",
        "priceEur": 138000,
        "typeLocal": "Appartement",
        "surfaceM2": 62,
        "isVefa": false
      },
      {
        "date": "2021-12-15",
        "priceEur": 139500,
        "typeLocal": "Appartement",
        "surfaceM2": 66,
        "isVefa": false
      },
      {
        "date": "2020-12-21",
        "priceEur": 127500,
        "typeLocal": "Appartement",
        "surfaceM2": 59,
        "isVefa": false
      }
    ]
  },
  "27dce94e1fe6": {
    "id": "27dce94e1fe6",
    "label": "16 RUE DU BOIS, Tourcoing",
    "lat": 50.725118,
    "lng": 3.143235,
    "transactions": [
      {
        "date": "2020-12-14",
        "priceEur": 103000,
        "typeLocal": "Maison",
        "surfaceM2": 112,
        "isVefa": false
      }
    ]
  },
  "1081662f7df8": {
    "id": "1081662f7df8",
    "label": "201 AV DE LA FIN DE LA GUERRE, Tourcoing",
    "lat": 50.729202,
    "lng": 3.144278,
    "transactions": [
      {
        "date": "2020-08-14",
        "priceEur": 159000,
        "typeLocal": "Maison",
        "surfaceM2": 100,
        "isVefa": false
      },
      {
        "date": "2020-08-14",
        "priceEur": 159000,
        "typeLocal": "Appartement",
        "surfaceM2": 50,
        "isVefa": false
      }
    ]
  },
  "f4593eb08fda": {
    "id": "f4593eb08fda",
    "label": "41 RUE D OSTENDE, Tourcoing",
    "lat": 50.728037,
    "lng": 3.145198,
    "transactions": [
      {
        "date": "2020-12-21",
        "priceEur": 125850,
        "typeLocal": "Maison",
        "surfaceM2": 65,
        "isVefa": false
      }
    ]
  },
  "82a2ea762e0f": {
    "id": "82a2ea762e0f",
    "label": "57 RUE HOCHE, Tourcoing",
    "lat": 50.722725,
    "lng": 3.143489,
    "transactions": [
      {
        "date": "2020-12-22",
        "priceEur": 80000,
        "typeLocal": "Maison",
        "surfaceM2": 117,
        "isVefa": false
      }
    ]
  },
  "1e148bceabbf": {
    "id": "1e148bceabbf",
    "label": "6 RUE DU DAHOMEY, Tourcoing",
    "lat": 50.728577,
    "lng": 3.147488,
    "transactions": [
      {
        "date": "2020-12-31",
        "priceEur": 80000,
        "typeLocal": "Maison",
        "surfaceM2": 54,
        "isVefa": false
      }
    ]
  },
  "1e18556823a3": {
    "id": "1e18556823a3",
    "label": "104 RUE DES CHAMPS, Tourcoing",
    "lat": 50.72833,
    "lng": 3.143393,
    "transactions": [
      {
        "date": "2021-01-05",
        "priceEur": 201000,
        "typeLocal": "Maison",
        "surfaceM2": 124,
        "isVefa": false
      }
    ]
  },
  "dfc38a9a5bd9": {
    "id": "dfc38a9a5bd9",
    "label": "109 RUE DES CHAMPS, Tourcoing",
    "lat": 50.728659,
    "lng": 3.143087,
    "transactions": [
      {
        "date": "2021-01-15",
        "priceEur": 160500,
        "typeLocal": "Maison",
        "surfaceM2": 80,
        "isVefa": false
      }
    ]
  },
  "f32b66223e06": {
    "id": "f32b66223e06",
    "label": "78 RUE D OSTENDE, Tourcoing",
    "lat": 50.728371,
    "lng": 3.146089,
    "transactions": [
      {
        "date": "2021-01-05",
        "priceEur": 101500,
        "typeLocal": "Maison",
        "surfaceM2": 82,
        "isVefa": false
      }
    ]
  },
  "423fc451155a": {
    "id": "423fc451155a",
    "label": "8 RUE DES FLANDRES, Tourcoing",
    "lat": 50.729239,
    "lng": 3.151972,
    "transactions": [
      {
        "date": "2021-01-08",
        "priceEur": 65000,
        "typeLocal": "Maison",
        "surfaceM2": 85,
        "isVefa": false
      }
    ]
  },
  "20135f6c84d5": {
    "id": "20135f6c84d5",
    "label": "11 RUE DU CLINQUET, Tourcoing",
    "lat": 50.722836,
    "lng": 3.143837,
    "transactions": [
      {
        "date": "2021-01-27",
        "priceEur": 65000,
        "typeLocal": "Appartement",
        "surfaceM2": 36,
        "isVefa": false
      },
      {
        "date": "2021-01-27",
        "priceEur": 65000,
        "typeLocal": "Appartement",
        "surfaceM2": 28,
        "isVefa": false
      }
    ]
  },
  "c64595766315": {
    "id": "c64595766315",
    "label": "8 RUE JEAN FROISSART, Tourcoing",
    "lat": 50.724683,
    "lng": 3.146711,
    "transactions": [
      {
        "date": "2025-03-27",
        "priceEur": 105000,
        "typeLocal": "Appartement",
        "surfaceM2": 68,
        "isVefa": false
      },
      {
        "date": "2024-11-28",
        "priceEur": 110000,
        "typeLocal": "Appartement",
        "surfaceM2": 68,
        "isVefa": false
      },
      {
        "date": "2023-05-12",
        "priceEur": 78000,
        "typeLocal": "Appartement",
        "surfaceM2": 68,
        "isVefa": false
      },
      {
        "date": "2022-12-02",
        "priceEur": 103000,
        "typeLocal": "Appartement",
        "surfaceM2": 68,
        "isVefa": false
      },
      {
        "date": "2021-02-26",
        "priceEur": 84500,
        "typeLocal": "Appartement",
        "surfaceM2": 68,
        "isVefa": false
      },
      {
        "date": "2021-01-22",
        "priceEur": 80800,
        "typeLocal": "Appartement",
        "surfaceM2": 68,
        "isVefa": false
      }
    ]
  },
  "f59468edb00f": {
    "id": "f59468edb00f",
    "label": "50 RUE NEUVE, Tourcoing",
    "lat": 50.723158,
    "lng": 3.14566,
    "transactions": [
      {
        "date": "2021-01-15",
        "priceEur": 335000,
        "typeLocal": "Maison",
        "surfaceM2": 143,
        "isVefa": false
      }
    ]
  },
  "1e810d9e0a3a": {
    "id": "1e810d9e0a3a",
    "label": "12 RUE JEAN JAURES, Tourcoing",
    "lat": 50.729068,
    "lng": 3.148785,
    "transactions": [
      {
        "date": "2024-12-31",
        "priceEur": 84500,
        "typeLocal": "Appartement",
        "surfaceM2": 61,
        "isVefa": false
      },
      {
        "date": "2024-03-20",
        "priceEur": 112000,
        "typeLocal": "Appartement",
        "surfaceM2": 73,
        "isVefa": false
      },
      {
        "date": "2024-03-11",
        "priceEur": 100000,
        "typeLocal": "Appartement",
        "surfaceM2": 61,
        "isVefa": false
      },
      {
        "date": "2023-10-31",
        "priceEur": 103000,
        "typeLocal": "Appartement",
        "surfaceM2": 73,
        "isVefa": false
      },
      {
        "date": "2023-10-30",
        "priceEur": 107840,
        "typeLocal": "Appartement",
        "surfaceM2": 61,
        "isVefa": false
      },
      {
        "date": "2023-09-21",
        "priceEur": 117150,
        "typeLocal": "Appartement",
        "surfaceM2": 120,
        "isVefa": false
      },
      {
        "date": "2022-08-04",
        "priceEur": 139500,
        "typeLocal": "Appartement",
        "surfaceM2": 120,
        "isVefa": false
      },
      {
        "date": "2022-06-27",
        "priceEur": 103350,
        "typeLocal": "Appartement",
        "surfaceM2": 61,
        "isVefa": false
      },
      {
        "date": "2021-08-16",
        "priceEur": 90000,
        "typeLocal": "Appartement",
        "surfaceM2": 61,
        "isVefa": false
      },
      {
        "date": "2021-07-29",
        "priceEur": 110000,
        "typeLocal": "Appartement",
        "surfaceM2": 120,
        "isVefa": false
      },
      {
        "date": "2021-07-12",
        "priceEur": 110000,
        "typeLocal": "Appartement",
        "surfaceM2": 61,
        "isVefa": false
      },
      {
        "date": "2021-02-18",
        "priceEur": 155000,
        "typeLocal": "Appartement",
        "surfaceM2": 120,
        "isVefa": false
      }
    ]
  },
  "a177f37f30a6": {
    "id": "a177f37f30a6",
    "label": "45B RUE DU CLINQUET, Tourcoing",
    "lat": 50.72297,
    "lng": 3.142413,
    "transactions": [
      {
        "date": "2021-03-08",
        "priceEur": 152000,
        "typeLocal": "Maison",
        "surfaceM2": 88,
        "isVefa": false
      }
    ]
  },
  "88821f08436b": {
    "id": "88821f08436b",
    "label": "38 RUE MARCEAU, Tourcoing",
    "lat": 50.729227,
    "lng": 3.153066,
    "transactions": [
      {
        "date": "2021-03-09",
        "priceEur": 130000,
        "typeLocal": "Maison",
        "surfaceM2": 87,
        "isVefa": false
      }
    ]
  },
  "6ab12904cfe9": {
    "id": "6ab12904cfe9",
    "label": "61 RUE DU GENERAL DOUAY, Tourcoing",
    "lat": 50.727317,
    "lng": 3.143673,
    "transactions": [
      {
        "date": "2021-03-05",
        "priceEur": 120000,
        "typeLocal": "Maison",
        "surfaceM2": 93,
        "isVefa": false
      }
    ]
  },
  "45011ed216a8": {
    "id": "45011ed216a8",
    "label": "15T RUE DU BOIS, Tourcoing",
    "lat": 50.725065,
    "lng": 3.14399,
    "transactions": [
      {
        "date": "2021-03-29",
        "priceEur": 285000,
        "typeLocal": "Appartement",
        "surfaceM2": 44,
        "isVefa": false
      },
      {
        "date": "2021-03-29",
        "priceEur": 285000,
        "typeLocal": "Appartement",
        "surfaceM2": 45,
        "isVefa": false
      },
      {
        "date": "2021-03-29",
        "priceEur": 285000,
        "typeLocal": "Appartement",
        "surfaceM2": 30,
        "isVefa": false
      },
      {
        "date": "2021-03-29",
        "priceEur": 285000,
        "typeLocal": "Appartement",
        "surfaceM2": 42,
        "isVefa": false
      }
    ]
  },
  "8b0e323112ec": {
    "id": "8b0e323112ec",
    "label": "76 RUE DES POUTRAINS, Tourcoing",
    "lat": 50.724932,
    "lng": 3.152563,
    "transactions": [
      {
        "date": "2021-03-29",
        "priceEur": 115000,
        "typeLocal": "Maison",
        "surfaceM2": 47,
        "isVefa": false
      }
    ]
  },
  "788375e578ed": {
    "id": "788375e578ed",
    "label": "7 RUE DU BOIS, Tourcoing",
    "lat": 50.725116,
    "lng": 3.143789,
    "transactions": [
      {
        "date": "2021-04-08",
        "priceEur": 94000,
        "typeLocal": "Maison",
        "surfaceM2": 108,
        "isVefa": false
      }
    ]
  },
  "c2d162589e89": {
    "id": "c2d162589e89",
    "label": "17 RUE JEAN FROISSART, Tourcoing",
    "lat": 50.72497,
    "lng": 3.146396,
    "transactions": [
      {
        "date": "2021-04-02",
        "priceEur": 360000,
        "typeLocal": "Appartement",
        "surfaceM2": 21,
        "isVefa": false
      },
      {
        "date": "2021-04-02",
        "priceEur": 360000,
        "typeLocal": "Appartement",
        "surfaceM2": 66,
        "isVefa": false
      },
      {
        "date": "2021-04-02",
        "priceEur": 360000,
        "typeLocal": "Appartement",
        "surfaceM2": 27,
        "isVefa": false
      },
      {
        "date": "2021-04-02",
        "priceEur": 360000,
        "typeLocal": "Appartement",
        "surfaceM2": 50,
        "isVefa": false
      },
      {
        "date": "2021-04-02",
        "priceEur": 360000,
        "typeLocal": "Appartement",
        "surfaceM2": 78,
        "isVefa": false
      }
    ]
  },
  "1aacec1536e3": {
    "id": "1aacec1536e3",
    "label": "36 RUE DES COULONS, Tourcoing",
    "lat": 50.722662,
    "lng": 3.145746,
    "transactions": [
      {
        "date": "2021-04-23",
        "priceEur": 200000,
        "typeLocal": "Maison",
        "surfaceM2": 94,
        "isVefa": false
      }
    ]
  },
  "0067cf291194": {
    "id": "0067cf291194",
    "label": "39 RUE DES POUTRAINS, Tourcoing",
    "lat": 50.723921,
    "lng": 3.15076,
    "transactions": [
      {
        "date": "2021-04-23",
        "priceEur": 141000,
        "typeLocal": "Maison",
        "surfaceM2": 64,
        "isVefa": false
      }
    ]
  },
  "6ccd643ebd16": {
    "id": "6ccd643ebd16",
    "label": "33 RUE MARCEAU, Tourcoing",
    "lat": 50.729483,
    "lng": 3.152591,
    "transactions": [
      {
        "date": "2021-04-02",
        "priceEur": 87500,
        "typeLocal": "Maison",
        "surfaceM2": 121,
        "isVefa": false
      }
    ]
  },
  "4d7e27b21b22": {
    "id": "4d7e27b21b22",
    "label": "155 AV DE LA FIN DE LA GUERRE, Tourcoing",
    "lat": 50.728928,
    "lng": 3.144983,
    "transactions": [
      {
        "date": "2021-04-23",
        "priceEur": 109523,
        "typeLocal": "Maison",
        "surfaceM2": 187,
        "isVefa": false
      }
    ]
  },
  "912fef6d4929": {
    "id": "912fef6d4929",
    "label": "91 RUE DU BRUN PAIN, Tourcoing",
    "lat": 50.725605,
    "lng": 3.142334,
    "transactions": [
      {
        "date": "2021-05-27",
        "priceEur": 215000,
        "typeLocal": "Appartement",
        "surfaceM2": 50,
        "isVefa": false
      },
      {
        "date": "2021-05-27",
        "priceEur": 215000,
        "typeLocal": "Appartement",
        "surfaceM2": 30,
        "isVefa": false
      }
    ]
  },
  "ff04a96133f1": {
    "id": "ff04a96133f1",
    "label": "10 RUE JEAN JAURES, Tourcoing",
    "lat": 50.729068,
    "lng": 3.148785,
    "transactions": [
      {
        "date": "2024-08-30",
        "priceEur": 102000,
        "typeLocal": "Appartement",
        "surfaceM2": 73,
        "isVefa": false
      },
      {
        "date": "2024-05-17",
        "priceEur": 80000,
        "typeLocal": "Appartement",
        "surfaceM2": 61,
        "isVefa": false
      },
      {
        "date": "2024-03-08",
        "priceEur": 72000,
        "typeLocal": "Appartement",
        "surfaceM2": 61,
        "isVefa": false
      },
      {
        "date": "2024-02-02",
        "priceEur": 107000,
        "typeLocal": "Appartement",
        "surfaceM2": 61,
        "isVefa": false
      },
      {
        "date": "2023-07-20",
        "priceEur": 119000,
        "typeLocal": "Appartement",
        "surfaceM2": 120,
        "isVefa": false
      },
      {
        "date": "2023-06-09",
        "priceEur": 95000,
        "typeLocal": "Appartement",
        "surfaceM2": 61,
        "isVefa": false
      },
      {
        "date": "2021-10-05",
        "priceEur": 72000,
        "typeLocal": "Appartement",
        "surfaceM2": 73,
        "isVefa": false
      },
      {
        "date": "2021-07-21",
        "priceEur": 120000,
        "typeLocal": "Appartement",
        "surfaceM2": 120,
        "isVefa": false
      },
      {
        "date": "2021-06-01",
        "priceEur": 112000,
        "typeLocal": "Appartement",
        "surfaceM2": 120,
        "isVefa": false
      }
    ]
  },
  "c43d66f21b97": {
    "id": "c43d66f21b97",
    "label": "43 RUE DU GENERAL DOUAY, Tourcoing",
    "lat": 50.727074,
    "lng": 3.144144,
    "transactions": [
      {
        "date": "2021-06-03",
        "priceEur": 175000,
        "typeLocal": "Maison",
        "surfaceM2": 74,
        "isVefa": false
      }
    ]
  },
  "9118e5ce2e55": {
    "id": "9118e5ce2e55",
    "label": "24 RUE JEAN FROISSART, Tourcoing",
    "lat": 50.724683,
    "lng": 3.146711,
    "transactions": [
      {
        "date": "2023-10-20",
        "priceEur": 80000,
        "typeLocal": "Appartement",
        "surfaceM2": 58,
        "isVefa": false
      },
      {
        "date": "2022-09-12",
        "priceEur": 103000,
        "typeLocal": "Appartement",
        "surfaceM2": 68,
        "isVefa": false
      },
      {
        "date": "2022-02-15",
        "priceEur": 110000,
        "typeLocal": "Appartement",
        "surfaceM2": 58,
        "isVefa": false
      },
      {
        "date": "2021-06-03",
        "priceEur": 84000,
        "typeLocal": "Appartement",
        "surfaceM2": 68,
        "isVefa": false
      }
    ]
  },
  "9f94c59cfec1": {
    "id": "9f94c59cfec1",
    "label": "52 RUE DES CHAMPS, Tourcoing",
    "lat": 50.727299,
    "lng": 3.142595,
    "transactions": [
      {
        "date": "2021-06-08",
        "priceEur": 40000,
        "typeLocal": "Maison",
        "surfaceM2": 89,
        "isVefa": false
      }
    ]
  },
  "659a8e7d1710": {
    "id": "659a8e7d1710",
    "label": "1B RUE MONTESQUIEU, Tourcoing",
    "lat": 50.725679,
    "lng": 3.146763,
    "transactions": [
      {
        "date": "2021-06-15",
        "priceEur": 122700,
        "typeLocal": "Maison",
        "surfaceM2": 80,
        "isVefa": false
      }
    ]
  },
  "2113f547af95": {
    "id": "2113f547af95",
    "label": "102 RUE NATIONALE, Tourcoing",
    "lat": 50.725065,
    "lng": 3.153033,
    "transactions": [
      {
        "date": "2021-06-17",
        "priceEur": 1650000,
        "typeLocal": "Appartement",
        "surfaceM2": 62,
        "isVefa": false
      },
      {
        "date": "2021-06-17",
        "priceEur": 1650000,
        "typeLocal": "Appartement",
        "surfaceM2": 45,
        "isVefa": false
      },
      {
        "date": "2021-06-17",
        "priceEur": 1650000,
        "typeLocal": "Appartement",
        "surfaceM2": 107,
        "isVefa": false
      }
    ]
  },
  "0045498e9c3d": {
    "id": "0045498e9c3d",
    "label": "12 RUE DE PARIS, Tourcoing",
    "lat": 50.724312,
    "lng": 3.145199,
    "transactions": [
      {
        "date": "2021-06-22",
        "priceEur": 173500,
        "typeLocal": "Maison",
        "surfaceM2": 91,
        "isVefa": false
      }
    ]
  },
  "b9f478210788": {
    "id": "b9f478210788",
    "label": "5 CTR DE L ABATTOIR, Tourcoing",
    "lat": 50.725525,
    "lng": 3.147861,
    "transactions": [
      {
        "date": "2021-06-25",
        "priceEur": 142000,
        "typeLocal": "Maison",
        "surfaceM2": 114,
        "isVefa": false
      }
    ]
  },
  "17abc3d4cdd5": {
    "id": "17abc3d4cdd5",
    "label": "38 RUE DE PARIS, Tourcoing",
    "lat": 50.723369,
    "lng": 3.144451,
    "transactions": [
      {
        "date": "2024-11-29",
        "priceEur": 248000,
        "typeLocal": "Appartement",
        "surfaceM2": 108,
        "isVefa": false
      },
      {
        "date": "2023-08-18",
        "priceEur": 280000,
        "typeLocal": "Appartement",
        "surfaceM2": 100,
        "isVefa": false
      },
      {
        "date": "2021-12-23",
        "priceEur": 259200,
        "typeLocal": "Appartement",
        "surfaceM2": 108,
        "isVefa": false
      },
      {
        "date": "2021-09-06",
        "priceEur": 365000,
        "typeLocal": "Appartement",
        "surfaceM2": 161,
        "isVefa": false
      },
      {
        "date": "2021-07-06",
        "priceEur": 75000,
        "typeLocal": "Appartement",
        "surfaceM2": 108,
        "isVefa": false
      }
    ]
  },
  "7c3359744b51": {
    "id": "7c3359744b51",
    "label": "156 RUE DES CHAMPS, Tourcoing",
    "lat": 50.728945,
    "lng": 3.144073,
    "transactions": [
      {
        "date": "2024-04-03",
        "priceEur": 175000,
        "typeLocal": "Maison",
        "surfaceM2": 76,
        "isVefa": false
      },
      {
        "date": "2021-07-05",
        "priceEur": 200000,
        "typeLocal": "Maison",
        "surfaceM2": 76,
        "isVefa": false
      }
    ]
  },
  "f087024e915e": {
    "id": "f087024e915e",
    "label": "164 RUE DES CHAMPS, Tourcoing",
    "lat": 50.72908,
    "lng": 3.144193,
    "transactions": [
      {
        "date": "2021-06-18",
        "priceEur": 83000,
        "typeLocal": "Maison",
        "surfaceM2": 64,
        "isVefa": false
      }
    ]
  },
  "1d6d22d08ba7": {
    "id": "1d6d22d08ba7",
    "label": "121 RUE DU BOIS, Tourcoing",
    "lat": 50.722664,
    "lng": 3.142286,
    "transactions": [
      {
        "date": "2021-07-15",
        "priceEur": 156000,
        "typeLocal": "Maison",
        "surfaceM2": 80,
        "isVefa": false
      }
    ]
  },
  "ee5a7ae026ef": {
    "id": "ee5a7ae026ef",
    "label": "32 RUE DU MOULIN, Tourcoing",
    "lat": 50.726045,
    "lng": 3.145494,
    "transactions": [
      {
        "date": "2021-07-30",
        "priceEur": 108000,
        "typeLocal": "Maison",
        "surfaceM2": 87,
        "isVefa": false
      }
    ]
  },
  "52b3972e1113": {
    "id": "52b3972e1113",
    "label": "10 RUE DES FLANDRES, Tourcoing",
    "lat": 50.729272,
    "lng": 3.151986,
    "transactions": [
      {
        "date": "2021-07-23",
        "priceEur": 138000,
        "typeLocal": "Maison",
        "surfaceM2": 53,
        "isVefa": false
      }
    ]
  },
  "21e803445fcf": {
    "id": "21e803445fcf",
    "label": "133 RUE NATIONALE, Tourcoing",
    "lat": 50.724576,
    "lng": 3.150086,
    "transactions": [
      {
        "date": "2021-07-23",
        "priceEur": 313500,
        "typeLocal": "Maison",
        "surfaceM2": 125,
        "isVefa": false
      }
    ]
  },
  "8f056bdf9a26": {
    "id": "8f056bdf9a26",
    "label": "50 RUE LA ROCHEFOUCAULD, Tourcoing",
    "lat": 50.726948,
    "lng": 3.143577,
    "transactions": [
      {
        "date": "2021-08-04",
        "priceEur": 191000,
        "typeLocal": "Maison",
        "surfaceM2": 115,
        "isVefa": false
      }
    ]
  },
  "4f4886e2833b": {
    "id": "4f4886e2833b",
    "label": "6 RUE DU BOIS, Tourcoing",
    "lat": 50.72531,
    "lng": 3.143332,
    "transactions": [
      {
        "date": "2021-08-10",
        "priceEur": 55000,
        "typeLocal": "Maison",
        "surfaceM2": 115,
        "isVefa": false
      }
    ]
  },
  "7ef3b28c45fa": {
    "id": "7ef3b28c45fa",
    "label": "39 RUE HOCHE, Tourcoing",
    "lat": 50.72255,
    "lng": 3.143391,
    "transactions": [
      {
        "date": "2021-08-16",
        "priceEur": 77000,
        "typeLocal": "Maison",
        "surfaceM2": 68,
        "isVefa": false
      }
    ]
  },
  "170226f6002f": {
    "id": "170226f6002f",
    "label": "13T RUE DU MOULIN, Tourcoing",
    "lat": 50.725645,
    "lng": 3.14411,
    "transactions": [
      {
        "date": "2021-08-23",
        "priceEur": 205900,
        "typeLocal": "Appartement",
        "surfaceM2": 83,
        "isVefa": false
      }
    ]
  },
  "fca7b9e15875": {
    "id": "fca7b9e15875",
    "label": "16 RUE LA ROCHEFOUCAULD, Tourcoing",
    "lat": 50.726265,
    "lng": 3.14306,
    "transactions": [
      {
        "date": "2021-08-20",
        "priceEur": 210000,
        "typeLocal": "Maison",
        "surfaceM2": 112,
        "isVefa": false
      }
    ]
  },
  "22c442e71c96": {
    "id": "22c442e71c96",
    "label": "126 RUE DE LA LATTE, Tourcoing",
    "lat": 50.729144,
    "lng": 3.151791,
    "transactions": [
      {
        "date": "2021-08-17",
        "priceEur": 161000,
        "typeLocal": "Appartement",
        "surfaceM2": 72,
        "isVefa": false
      }
    ]
  },
  "6822594ebde1": {
    "id": "6822594ebde1",
    "label": "27 RUE DU DAHOMEY, Tourcoing",
    "lat": 50.729064,
    "lng": 3.147401,
    "transactions": [
      {
        "date": "2021-08-24",
        "priceEur": 101000,
        "typeLocal": "Maison",
        "surfaceM2": 57,
        "isVefa": false
      }
    ]
  },
  "5dbc6630a613": {
    "id": "5dbc6630a613",
    "label": "2 ALL LE NOTRE, Tourcoing",
    "lat": 50.727103,
    "lng": 3.147525,
    "transactions": [
      {
        "date": "2021-08-27",
        "priceEur": 249200,
        "typeLocal": "Maison",
        "surfaceM2": 100,
        "isVefa": false
      }
    ]
  },
  "0704d28560e7": {
    "id": "0704d28560e7",
    "label": "17 RUE DES POUTRAINS, Tourcoing",
    "lat": 50.723522,
    "lng": 3.150202,
    "transactions": [
      {
        "date": "2024-06-18",
        "priceEur": 140000,
        "typeLocal": "Appartement",
        "surfaceM2": 55,
        "isVefa": false
      },
      {
        "date": "2023-08-22",
        "priceEur": 100000,
        "typeLocal": "Appartement",
        "surfaceM2": 44,
        "isVefa": false
      },
      {
        "date": "2023-08-22",
        "priceEur": 75000,
        "typeLocal": "Appartement",
        "surfaceM2": 41,
        "isVefa": false
      },
      {
        "date": "2023-06-21",
        "priceEur": 80000,
        "typeLocal": "Appartement",
        "surfaceM2": 29,
        "isVefa": false
      },
      {
        "date": "2023-05-30",
        "priceEur": 153000,
        "typeLocal": "Appartement",
        "surfaceM2": 35,
        "isVefa": false
      },
      {
        "date": "2023-05-30",
        "priceEur": 153000,
        "typeLocal": "Appartement",
        "surfaceM2": 36,
        "isVefa": false
      },
      {
        "date": "2023-05-24",
        "priceEur": 109000,
        "typeLocal": "Appartement",
        "surfaceM2": 51,
        "isVefa": false
      },
      {
        "date": "2023-03-22",
        "priceEur": 73500,
        "typeLocal": "Appartement",
        "surfaceM2": 34,
        "isVefa": false
      },
      {
        "date": "2021-08-24",
        "priceEur": 100000,
        "typeLocal": "Appartement",
        "surfaceM2": 36,
        "isVefa": false
      }
    ]
  },
  "ae11d88be779": {
    "id": "ae11d88be779",
    "label": "122 RUE DE LA LATTE, Tourcoing",
    "lat": 50.729085,
    "lng": 3.15189,
    "transactions": [
      {
        "date": "2021-08-25",
        "priceEur": 131200,
        "typeLocal": "Maison",
        "surfaceM2": 64,
        "isVefa": false
      }
    ]
  },
  "44b697382859": {
    "id": "44b697382859",
    "label": "6 ALL DE LA TEINTURERIE, Tourcoing",
    "lat": 50.726061,
    "lng": 3.148213,
    "transactions": [
      {
        "date": "2024-07-22",
        "priceEur": 128000,
        "typeLocal": "Appartement",
        "surfaceM2": 60,
        "isVefa": false
      },
      {
        "date": "2023-06-12",
        "priceEur": 148400,
        "typeLocal": "Appartement",
        "surfaceM2": 44,
        "isVefa": false
      },
      {
        "date": "2021-08-24",
        "priceEur": 133000,
        "typeLocal": "Appartement",
        "surfaceM2": 56,
        "isVefa": false
      }
    ]
  },
  "9224bf4ccd64": {
    "id": "9224bf4ccd64",
    "label": "6 RUE DES FLANDRES, Tourcoing",
    "lat": 50.729211,
    "lng": 3.151926,
    "transactions": [
      {
        "date": "2021-09-22",
        "priceEur": 72208,
        "typeLocal": "Maison",
        "surfaceM2": 83,
        "isVefa": false
      }
    ]
  },
  "e22d5cb3e348": {
    "id": "e22d5cb3e348",
    "label": "97 RUE DU BOIS, Tourcoing",
    "lat": 50.723312,
    "lng": 3.142612,
    "transactions": [
      {
        "date": "2022-11-04",
        "priceEur": 156700,
        "typeLocal": "Maison",
        "surfaceM2": 80,
        "isVefa": false
      },
      {
        "date": "2021-09-30",
        "priceEur": 80000,
        "typeLocal": "Maison",
        "surfaceM2": 80,
        "isVefa": false
      }
    ]
  },
  "8dea59640f10": {
    "id": "8dea59640f10",
    "label": "40 RUE DU GENERAL SOUHAM, Tourcoing",
    "lat": 50.729309,
    "lng": 3.14743,
    "transactions": [
      {
        "date": "2021-10-01",
        "priceEur": 153130,
        "typeLocal": "Maison",
        "surfaceM2": 99,
        "isVefa": false
      }
    ]
  },
  "fdfdf6e112e7": {
    "id": "fdfdf6e112e7",
    "label": "145 AV DE LA FIN DE LA GUERRE, Tourcoing",
    "lat": 50.728855,
    "lng": 3.14526,
    "transactions": [
      {
        "date": "2021-09-29",
        "priceEur": 130000,
        "typeLocal": "Maison",
        "surfaceM2": 79,
        "isVefa": false
      }
    ]
  },
  "1377e8409a8b": {
    "id": "1377e8409a8b",
    "label": "97 AV DE LA FIN DE LA GUERRE, Tourcoing",
    "lat": 50.728251,
    "lng": 3.147183,
    "transactions": [
      {
        "date": "2021-09-20",
        "priceEur": 125000,
        "typeLocal": "Maison",
        "surfaceM2": 67,
        "isVefa": false
      }
    ]
  },
  "9282847bdab1": {
    "id": "9282847bdab1",
    "label": "13 RUE DU DAHOMEY, Tourcoing",
    "lat": 50.728839,
    "lng": 3.14717,
    "transactions": [
      {
        "date": "2021-10-14",
        "priceEur": 130000,
        "typeLocal": "Maison",
        "surfaceM2": 76,
        "isVefa": false
      }
    ]
  },
  "fac42f3125e8": {
    "id": "fac42f3125e8",
    "label": "10 ASSEMAINE 58 RUE DU BOIS, Tourcoing",
    "lat": 50.724634,
    "lng": 3.142681,
    "transactions": [
      {
        "date": "2021-11-08",
        "priceEur": 118000,
        "typeLocal": "Maison",
        "surfaceM2": 71,
        "isVefa": false
      }
    ]
  },
  "022bb869ee4b": {
    "id": "022bb869ee4b",
    "label": "52 RUE LA ROCHEFOUCAULD, Tourcoing",
    "lat": 50.727018,
    "lng": 3.143661,
    "transactions": [
      {
        "date": "2021-11-05",
        "priceEur": 286700,
        "typeLocal": "Maison",
        "surfaceM2": 112,
        "isVefa": false
      }
    ]
  },
  "dc1e39cc7ebe": {
    "id": "dc1e39cc7ebe",
    "label": "117 RUE DU MOULIN, Tourcoing",
    "lat": 50.727901,
    "lng": 3.146618,
    "transactions": [
      {
        "date": "2021-12-03",
        "priceEur": 187300,
        "typeLocal": "Maison",
        "surfaceM2": 90,
        "isVefa": false
      }
    ]
  },
  "f19943f5151d": {
    "id": "f19943f5151d",
    "label": "87 RUE DES POUTRAINS, Tourcoing",
    "lat": 50.725146,
    "lng": 3.152263,
    "transactions": [
      {
        "date": "2021-12-07",
        "priceEur": 150000,
        "typeLocal": "Maison",
        "surfaceM2": 120,
        "isVefa": false
      }
    ]
  },
  "1ec06d976bc5": {
    "id": "1ec06d976bc5",
    "label": "92 RUE DES POUTRAINS, Tourcoing",
    "lat": 50.725169,
    "lng": 3.152888,
    "transactions": [
      {
        "date": "2021-12-15",
        "priceEur": 135000,
        "typeLocal": "Appartement",
        "surfaceM2": 53,
        "isVefa": false
      }
    ]
  },
  "8bea60de73c4": {
    "id": "8bea60de73c4",
    "label": "149 RUE NATIONALE, Tourcoing",
    "lat": 50.724639,
    "lng": 3.14951,
    "transactions": [
      {
        "date": "2021-12-16",
        "priceEur": 131000,
        "typeLocal": "Maison",
        "surfaceM2": 90,
        "isVefa": false
      },
      {
        "date": "2021-12-16",
        "priceEur": 131000,
        "typeLocal": "Maison",
        "surfaceM2": 65,
        "isVefa": false
      }
    ]
  },
  "889365e2c446": {
    "id": "889365e2c446",
    "label": "2 RUE NEUVE, Tourcoing",
    "lat": 50.723352,
    "lng": 3.14647,
    "transactions": [
      {
        "date": "2023-04-13",
        "priceEur": 180700,
        "typeLocal": "Appartement",
        "surfaceM2": 41,
        "isVefa": false
      },
      {
        "date": "2022-12-30",
        "priceEur": 227500,
        "typeLocal": "Appartement",
        "surfaceM2": 61,
        "isVefa": true
      },
      {
        "date": "2022-12-29",
        "priceEur": 235683,
        "typeLocal": "Appartement",
        "surfaceM2": 64,
        "isVefa": true
      },
      {
        "date": "2022-12-28",
        "priceEur": 231100,
        "typeLocal": "Appartement",
        "surfaceM2": 63,
        "isVefa": false
      },
      {
        "date": "2022-12-13",
        "priceEur": 231300,
        "typeLocal": "Appartement",
        "surfaceM2": 63,
        "isVefa": false
      },
      {
        "date": "2022-12-05",
        "priceEur": 283997,
        "typeLocal": "Appartement",
        "surfaceM2": 79,
        "isVefa": true
      },
      {
        "date": "2022-11-28",
        "priceEur": 180569,
        "typeLocal": "Appartement",
        "surfaceM2": 42,
        "isVefa": false
      },
      {
        "date": "2022-10-06",
        "priceEur": 227100,
        "typeLocal": "Appartement",
        "surfaceM2": 63,
        "isVefa": false
      },
      {
        "date": "2022-07-20",
        "priceEur": 168200,
        "typeLocal": "Appartement",
        "surfaceM2": 43,
        "isVefa": false
      },
      {
        "date": "2022-06-14",
        "priceEur": 253040,
        "typeLocal": "Appartement",
        "surfaceM2": 83,
        "isVefa": false
      },
      {
        "date": "2022-06-02",
        "priceEur": 249487,
        "typeLocal": "Appartement",
        "surfaceM2": 80,
        "isVefa": false
      },
      {
        "date": "2022-03-30",
        "priceEur": 254156,
        "typeLocal": "Appartement",
        "surfaceM2": 83,
        "isVefa": true
      },
      {
        "date": "2021-12-10",
        "priceEur": 164938,
        "typeLocal": "Appartement",
        "surfaceM2": 41,
        "isVefa": false
      }
    ]
  },
  "3687bd218e41": {
    "id": "3687bd218e41",
    "label": "132 AV DE LA FIN DE LA GUERRE, Tourcoing",
    "lat": 50.729191,
    "lng": 3.145864,
    "transactions": [
      {
        "date": "2022-01-18",
        "priceEur": 212200,
        "typeLocal": "Maison",
        "surfaceM2": 100,
        "isVefa": false
      }
    ]
  },
  "13a3d393ae37": {
    "id": "13a3d393ae37",
    "label": "35 RUE DU CLINQUET, Tourcoing",
    "lat": 50.722915,
    "lng": 3.142817,
    "transactions": [
      {
        "date": "2022-01-21",
        "priceEur": 65000,
        "typeLocal": "Maison",
        "surfaceM2": 55,
        "isVefa": false
      }
    ]
  },
  "67827eb10146": {
    "id": "67827eb10146",
    "label": "73 RUE DU BRUN PAIN, Tourcoing",
    "lat": 50.725321,
    "lng": 3.14289,
    "transactions": [
      {
        "date": "2022-01-31",
        "priceEur": 170000,
        "typeLocal": "Maison",
        "surfaceM2": 115,
        "isVefa": false
      }
    ]
  },
  "be0b6d0e02ac": {
    "id": "be0b6d0e02ac",
    "label": "1 RUE DE CHARTRES, Tourcoing",
    "lat": 50.728836,
    "lng": 3.14495,
    "transactions": [
      {
        "date": "2022-01-28",
        "priceEur": 70000,
        "typeLocal": "Maison",
        "surfaceM2": 88,
        "isVefa": false
      }
    ]
  },
  "1dc3fcfc31bc": {
    "id": "1dc3fcfc31bc",
    "label": "46 RUE DES CHAMPS, Tourcoing",
    "lat": 50.727188,
    "lng": 3.142501,
    "transactions": [
      {
        "date": "2022-02-04",
        "priceEur": 110000,
        "typeLocal": "Maison",
        "surfaceM2": 79,
        "isVefa": false
      }
    ]
  },
  "d0e8c5fc1c81": {
    "id": "d0e8c5fc1c81",
    "label": "97 RUE DU MOULIN, Tourcoing",
    "lat": 50.727529,
    "lng": 3.14621,
    "transactions": [
      {
        "date": "2022-02-14",
        "priceEur": 140600,
        "typeLocal": "Maison",
        "surfaceM2": 85,
        "isVefa": false
      }
    ]
  },
  "50988d421492": {
    "id": "50988d421492",
    "label": "14 RUE DES FLANDRES, Tourcoing",
    "lat": 50.729322,
    "lng": 3.152053,
    "transactions": [
      {
        "date": "2022-03-11",
        "priceEur": 120700,
        "typeLocal": "Maison",
        "surfaceM2": 83,
        "isVefa": false
      }
    ]
  },
  "73c0fc3652e2": {
    "id": "73c0fc3652e2",
    "label": "124 RUE DES CHAMPS, Tourcoing",
    "lat": 50.728419,
    "lng": 3.143515,
    "transactions": [
      {
        "date": "2022-03-04",
        "priceEur": 110000,
        "typeLocal": "Maison",
        "surfaceM2": 65,
        "isVefa": false
      }
    ]
  },
  "d242581dd6cd": {
    "id": "d242581dd6cd",
    "label": "95 RUE DU MOULIN, Tourcoing",
    "lat": 50.727479,
    "lng": 3.146199,
    "transactions": [
      {
        "date": "2023-07-31",
        "priceEur": 186000,
        "typeLocal": "Maison",
        "surfaceM2": 74,
        "isVefa": false
      },
      {
        "date": "2022-03-21",
        "priceEur": 190000,
        "typeLocal": "Maison",
        "surfaceM2": 74,
        "isVefa": false
      }
    ]
  },
  "9bbce240007b": {
    "id": "9bbce240007b",
    "label": "43 RUE LA ROCHEFOUCAULD, Tourcoing",
    "lat": 50.726922,
    "lng": 3.142676,
    "transactions": [
      {
        "date": "2022-04-08",
        "priceEur": 113000,
        "typeLocal": "Maison",
        "surfaceM2": 83,
        "isVefa": false
      },
      {
        "date": "2022-03-22",
        "priceEur": 90000,
        "typeLocal": "Maison",
        "surfaceM2": 83,
        "isVefa": false
      }
    ]
  },
  "794fce44761c": {
    "id": "794fce44761c",
    "label": "157 RUE NATIONALE, Tourcoing",
    "lat": 50.724481,
    "lng": 3.148732,
    "transactions": [
      {
        "date": "2022-03-25",
        "priceEur": 631000,
        "typeLocal": "Maison",
        "surfaceM2": 269,
        "isVefa": false
      }
    ]
  },
  "db7ef0158363": {
    "id": "db7ef0158363",
    "label": "70 RUE DU BRUN PAIN, Tourcoing",
    "lat": 50.725868,
    "lng": 3.143695,
    "transactions": [
      {
        "date": "2022-03-23",
        "priceEur": 210000,
        "typeLocal": "Maison",
        "surfaceM2": 114,
        "isVefa": false
      }
    ]
  },
  "4e0936544ce2": {
    "id": "4e0936544ce2",
    "label": "5 RUE DU BOIS, Tourcoing",
    "lat": 50.725155,
    "lng": 3.143807,
    "transactions": [
      {
        "date": "2022-04-15",
        "priceEur": 145000,
        "typeLocal": "Maison",
        "surfaceM2": 83,
        "isVefa": false
      }
    ]
  },
  "bb5f3f0b4a7e": {
    "id": "bb5f3f0b4a7e",
    "label": "43 RUE JEAN FROISSART, Tourcoing",
    "lat": 50.725609,
    "lng": 3.146895,
    "transactions": [
      {
        "date": "2022-04-13",
        "priceEur": 120000,
        "typeLocal": "Maison",
        "surfaceM2": 33,
        "isVefa": false
      }
    ]
  },
  "eedc1adafda7": {
    "id": "eedc1adafda7",
    "label": "79 RUE DES POUTRAINS, Tourcoing",
    "lat": 50.724943,
    "lng": 3.152177,
    "transactions": [
      {
        "date": "2022-05-06",
        "priceEur": 209000,
        "typeLocal": "Appartement",
        "surfaceM2": 33,
        "isVefa": false
      },
      {
        "date": "2022-05-06",
        "priceEur": 209000,
        "typeLocal": "Appartement",
        "surfaceM2": 62,
        "isVefa": false
      },
      {
        "date": "2022-05-06",
        "priceEur": 209000,
        "typeLocal": "Appartement",
        "surfaceM2": 39,
        "isVefa": false
      }
    ]
  },
  "e0e2c316ebf4": {
    "id": "e0e2c316ebf4",
    "label": "126 RUE NATIONALE, Tourcoing",
    "lat": 50.724912,
    "lng": 3.151367,
    "transactions": [
      {
        "date": "2025-04-25",
        "priceEur": 105000,
        "typeLocal": "Appartement",
        "surfaceM2": 60,
        "isVefa": false
      },
      {
        "date": "2025-03-21",
        "priceEur": 197500,
        "typeLocal": "Appartement",
        "surfaceM2": 80,
        "isVefa": false
      },
      {
        "date": "2022-10-04",
        "priceEur": 91500,
        "typeLocal": "Appartement",
        "surfaceM2": 47,
        "isVefa": false
      },
      {
        "date": "2022-04-29",
        "priceEur": 70000,
        "typeLocal": "Appartement",
        "surfaceM2": 45,
        "isVefa": false
      }
    ]
  },
  "188596da8fb0": {
    "id": "188596da8fb0",
    "label": "119 AV DE LA FIN DE LA GUERRE, Tourcoing",
    "lat": 50.728691,
    "lng": 3.145887,
    "transactions": [
      {
        "date": "2022-05-18",
        "priceEur": 173500,
        "typeLocal": "Maison",
        "surfaceM2": 78,
        "isVefa": false
      }
    ]
  },
  "981d81b6561e": {
    "id": "981d81b6561e",
    "label": "74 RUE DU BOIS, Tourcoing",
    "lat": 50.723862,
    "lng": 3.142413,
    "transactions": [
      {
        "date": "2022-06-03",
        "priceEur": 120000,
        "typeLocal": "Maison",
        "surfaceM2": 87,
        "isVefa": false
      }
    ]
  },
  "cf85ebcd329e": {
    "id": "cf85ebcd329e",
    "label": "14 RUE D OSTENDE, Tourcoing",
    "lat": 50.727374,
    "lng": 3.145104,
    "transactions": [
      {
        "date": "2022-06-10",
        "priceEur": 159000,
        "typeLocal": "Maison",
        "surfaceM2": 81,
        "isVefa": false
      }
    ]
  },
  "e1110386d96d": {
    "id": "e1110386d96d",
    "label": "114 RUE DU BRUN PAIN, Tourcoing",
    "lat": 50.726084,
    "lng": 3.142364,
    "transactions": [
      {
        "date": "2022-06-08",
        "priceEur": 140000,
        "typeLocal": "Maison",
        "surfaceM2": 124,
        "isVefa": false
      }
    ]
  },
  "f971bdc8f7de": {
    "id": "f971bdc8f7de",
    "label": "109 RUE NATIONALE, Tourcoing",
    "lat": 50.724648,
    "lng": 3.15167,
    "transactions": [
      {
        "date": "2022-06-21",
        "priceEur": 112000,
        "typeLocal": "Maison",
        "surfaceM2": 60,
        "isVefa": false
      }
    ]
  },
  "f82e2aa336e6": {
    "id": "f82e2aa336e6",
    "label": "20 RUE DU MOULIN, Tourcoing",
    "lat": 50.725844,
    "lng": 3.145295,
    "transactions": [
      {
        "date": "2022-06-23",
        "priceEur": 84480,
        "typeLocal": "Maison",
        "surfaceM2": 125,
        "isVefa": false
      }
    ]
  },
  "479564ce378e": {
    "id": "479564ce378e",
    "label": "25 ALL DES CERISIERS, Tourcoing",
    "lat": 50.727636,
    "lng": 3.147535,
    "transactions": [
      {
        "date": "2022-06-29",
        "priceEur": 280000,
        "typeLocal": "Maison",
        "surfaceM2": 131,
        "isVefa": false
      }
    ]
  },
  "a21b44f99f6d": {
    "id": "a21b44f99f6d",
    "label": "119 RUE DU BOIS, Tourcoing",
    "lat": 50.722695,
    "lng": 3.142317,
    "transactions": [
      {
        "date": "2022-06-30",
        "priceEur": 154450,
        "typeLocal": "Maison",
        "surfaceM2": 81,
        "isVefa": false
      }
    ]
  },
  "9888a7df7865": {
    "id": "9888a7df7865",
    "label": "87 RUE DU BRUN PAIN, Tourcoing",
    "lat": 50.725562,
    "lng": 3.142497,
    "transactions": [
      {
        "date": "2022-07-12",
        "priceEur": 265000,
        "typeLocal": "Appartement",
        "surfaceM2": 35,
        "isVefa": false
      }
    ]
  },
  "0cf18f483cdb": {
    "id": "0cf18f483cdb",
    "label": "50 RUE DU CLINQUET, Tourcoing",
    "lat": 50.723244,
    "lng": 3.142665,
    "transactions": [
      {
        "date": "2022-07-29",
        "priceEur": 112500,
        "typeLocal": "Maison",
        "surfaceM2": 78,
        "isVefa": false
      }
    ]
  },
  "e9851182f119": {
    "id": "e9851182f119",
    "label": "80 RUE DU BRUN PAIN, Tourcoing",
    "lat": 50.725846,
    "lng": 3.143375,
    "transactions": [
      {
        "date": "2022-07-22",
        "priceEur": 97000,
        "typeLocal": "Maison",
        "surfaceM2": 82,
        "isVefa": false
      }
    ]
  },
  "7108e67fbe26": {
    "id": "7108e67fbe26",
    "label": "36 RUE DU BRUN PAIN, Tourcoing",
    "lat": 50.725294,
    "lng": 3.145129,
    "transactions": [
      {
        "date": "2022-07-27",
        "priceEur": 140000,
        "typeLocal": "Maison",
        "surfaceM2": 148,
        "isVefa": false
      }
    ]
  },
  "2130bb32bbed": {
    "id": "2130bb32bbed",
    "label": "13 ALL DES CERISIERS, Tourcoing",
    "lat": 50.727375,
    "lng": 3.14771,
    "transactions": [
      {
        "date": "2022-08-01",
        "priceEur": 220000,
        "typeLocal": "Maison",
        "surfaceM2": 84,
        "isVefa": false
      }
    ]
  },
  "8646452487c8": {
    "id": "8646452487c8",
    "label": "34 RUE MARCEAU, Tourcoing",
    "lat": 50.729151,
    "lng": 3.152986,
    "transactions": [
      {
        "date": "2022-08-22",
        "priceEur": 80000,
        "typeLocal": "Maison",
        "surfaceM2": 80,
        "isVefa": false
      }
    ]
  },
  "c97938f0bde2": {
    "id": "c97938f0bde2",
    "label": "7 ALL MAURICE BARRES, Tourcoing",
    "lat": 50.72805,
    "lng": 3.144579,
    "transactions": [
      {
        "date": "2022-08-17",
        "priceEur": 230000,
        "typeLocal": "Maison",
        "surfaceM2": 90,
        "isVefa": false
      }
    ]
  },
  "ed438eca8d08": {
    "id": "ed438eca8d08",
    "label": "7 ALL DES CERISIERS, Tourcoing",
    "lat": 50.727167,
    "lng": 3.147786,
    "transactions": [
      {
        "date": "2022-08-22",
        "priceEur": 240000,
        "typeLocal": "Maison",
        "surfaceM2": 94,
        "isVefa": false
      }
    ]
  },
  "97585da2e3c9": {
    "id": "97585da2e3c9",
    "label": "105 AV DE LA FIN DE LA GUERRE, Tourcoing",
    "lat": 50.728327,
    "lng": 3.146824,
    "transactions": [
      {
        "date": "2022-09-23",
        "priceEur": 116700,
        "typeLocal": "Maison",
        "surfaceM2": 108,
        "isVefa": false
      }
    ]
  },
  "1c862fc1c559": {
    "id": "1c862fc1c559",
    "label": "31 RUE DU DAHOMEY, Tourcoing",
    "lat": 50.729131,
    "lng": 3.147451,
    "transactions": [
      {
        "date": "2022-10-05",
        "priceEur": 128000,
        "typeLocal": "Maison",
        "surfaceM2": 60,
        "isVefa": false
      }
    ]
  },
  "413e8b51bf94": {
    "id": "413e8b51bf94",
    "label": "43 RUE JEAN JAURES, Tourcoing",
    "lat": 50.72911,
    "lng": 3.148194,
    "transactions": [
      {
        "date": "2022-10-21",
        "priceEur": 130600,
        "typeLocal": "Maison",
        "surfaceM2": 68,
        "isVefa": false
      }
    ]
  },
  "29b6005da288": {
    "id": "29b6005da288",
    "label": "36 RUE D OSTENDE, Tourcoing",
    "lat": 50.727727,
    "lng": 3.145444,
    "transactions": [
      {
        "date": "2022-10-20",
        "priceEur": 90000,
        "typeLocal": "Maison",
        "surfaceM2": 82,
        "isVefa": false
      }
    ]
  },
  "93f0806898a7": {
    "id": "93f0806898a7",
    "label": "26 RUE D OSTENDE, Tourcoing",
    "lat": 50.72757,
    "lng": 3.145309,
    "transactions": [
      {
        "date": "2022-10-20",
        "priceEur": 135000,
        "typeLocal": "Maison",
        "surfaceM2": 110,
        "isVefa": false
      }
    ]
  },
  "0a1ea27e1172": {
    "id": "0a1ea27e1172",
    "label": "105 RUE DU MOULIN, Tourcoing",
    "lat": 50.727695,
    "lng": 3.146376,
    "transactions": [
      {
        "date": "2022-10-28",
        "priceEur": 170000,
        "typeLocal": "Maison",
        "surfaceM2": 86,
        "isVefa": false
      }
    ]
  },
  "e6e1ea1d1e36": {
    "id": "e6e1ea1d1e36",
    "label": "139 RUE DES CHAMPS, Tourcoing",
    "lat": 50.729092,
    "lng": 3.143568,
    "transactions": [
      {
        "date": "2022-10-22",
        "priceEur": 150000,
        "typeLocal": "Maison",
        "surfaceM2": 82,
        "isVefa": false
      }
    ]
  },
  "434550a09cc0": {
    "id": "434550a09cc0",
    "label": "49 RUE DU GENERAL DOUAY, Tourcoing",
    "lat": 50.727117,
    "lng": 3.143954,
    "transactions": [
      {
        "date": "2022-11-17",
        "priceEur": 183700,
        "typeLocal": "Maison",
        "surfaceM2": 72,
        "isVefa": false
      }
    ]
  },
  "8f51016526ea": {
    "id": "8f51016526ea",
    "label": "3 ASSEMAINE 58 RUE DU BOIS, Tourcoing",
    "lat": 50.724394,
    "lng": 3.142432,
    "transactions": [
      {
        "date": "2022-12-07",
        "priceEur": 124450,
        "typeLocal": "Maison",
        "surfaceM2": 56,
        "isVefa": false
      }
    ]
  },
  "4d7ca803743f": {
    "id": "4d7ca803743f",
    "label": "48 RUE DU CLINQUET, Tourcoing",
    "lat": 50.723231,
    "lng": 3.142729,
    "transactions": [
      {
        "date": "2022-12-16",
        "priceEur": 140000,
        "typeLocal": "Maison",
        "surfaceM2": 65,
        "isVefa": false
      }
    ]
  },
  "96e814eb0feb": {
    "id": "96e814eb0feb",
    "label": "48 RUE D OSTENDE, Tourcoing",
    "lat": 50.72791,
    "lng": 3.145634,
    "transactions": [
      {
        "date": "2022-12-16",
        "priceEur": 141000,
        "typeLocal": "Maison",
        "surfaceM2": 95,
        "isVefa": false
      }
    ]
  },
  "e96278ea54e7": {
    "id": "e96278ea54e7",
    "label": "1 RUE D OSTENDE, Tourcoing",
    "lat": 50.727264,
    "lng": 3.144557,
    "transactions": [
      {
        "date": "2022-12-20",
        "priceEur": 102750,
        "typeLocal": "Maison",
        "surfaceM2": 78,
        "isVefa": false
      }
    ]
  },
  "308d57eca8a5": {
    "id": "308d57eca8a5",
    "label": "5 CRS DUCOULOMBIER RUE BRUN PAIN, Tourcoing",
    "lat": 50.724589,
    "lng": 3.144923,
    "transactions": [
      {
        "date": "2023-01-18",
        "priceEur": 70000,
        "typeLocal": "Maison",
        "surfaceM2": 49,
        "isVefa": false
      }
    ]
  },
  "2aba17709ca6": {
    "id": "2aba17709ca6",
    "label": "79 RUE DU MOULIN, Tourcoing",
    "lat": 50.727116,
    "lng": 3.145945,
    "transactions": [
      {
        "date": "2023-01-23",
        "priceEur": 99000,
        "typeLocal": "Maison",
        "surfaceM2": 111,
        "isVefa": false
      }
    ]
  },
  "90078d4ea9d9": {
    "id": "90078d4ea9d9",
    "label": "96 RUE DES CHAMPS, Tourcoing",
    "lat": 50.727989,
    "lng": 3.143324,
    "transactions": [
      {
        "date": "2023-02-21",
        "priceEur": 187000,
        "typeLocal": "Maison",
        "surfaceM2": 70,
        "isVefa": false
      }
    ]
  },
  "7e9aafdc2e19": {
    "id": "7e9aafdc2e19",
    "label": "23 RUE LA ROCHEFOUCAULD, Tourcoing",
    "lat": 50.726554,
    "lng": 3.142543,
    "transactions": [
      {
        "date": "2023-02-23",
        "priceEur": 122000,
        "typeLocal": "Maison",
        "surfaceM2": 75,
        "isVefa": false
      }
    ]
  },
  "e34c18bf58f0": {
    "id": "e34c18bf58f0",
    "label": "8 RUE MARCEAU, Tourcoing",
    "lat": 50.728758,
    "lng": 3.15247,
    "transactions": [
      {
        "date": "2023-02-25",
        "priceEur": 222065,
        "typeLocal": "Maison",
        "surfaceM2": 86,
        "isVefa": false
      }
    ]
  },
  "3d8c87b8b142": {
    "id": "3d8c87b8b142",
    "label": "40 RUE DU DAHOMEY, Tourcoing",
    "lat": 50.729116,
    "lng": 3.147961,
    "transactions": [
      {
        "date": "2023-02-23",
        "priceEur": 118000,
        "typeLocal": "Maison",
        "surfaceM2": 68,
        "isVefa": false
      }
    ]
  },
  "67edd0f82c8c": {
    "id": "67edd0f82c8c",
    "label": "123 RUE DU BOIS, Tourcoing",
    "lat": 50.722632,
    "lng": 3.142266,
    "transactions": [
      {
        "date": "2023-03-03",
        "priceEur": 148000,
        "typeLocal": "Maison",
        "surfaceM2": 83,
        "isVefa": false
      }
    ]
  },
  "e38df9912f1f": {
    "id": "e38df9912f1f",
    "label": "111 RUE DU MOULIN, Tourcoing",
    "lat": 50.727798,
    "lng": 3.1465,
    "transactions": [
      {
        "date": "2023-02-17",
        "priceEur": 135000,
        "typeLocal": "Maison",
        "surfaceM2": 103,
        "isVefa": false
      }
    ]
  },
  "b991a6d80836": {
    "id": "b991a6d80836",
    "label": "4 ALL EDOUARD ANDRE, Tourcoing",
    "lat": 50.726239,
    "lng": 3.147233,
    "transactions": [
      {
        "date": "2023-03-13",
        "priceEur": 155000,
        "typeLocal": "Maison",
        "surfaceM2": 88,
        "isVefa": false
      }
    ]
  },
  "d5e5b2b6f7e4": {
    "id": "d5e5b2b6f7e4",
    "label": "37 RUE D OSTENDE, Tourcoing",
    "lat": 50.727973,
    "lng": 3.145142,
    "transactions": [
      {
        "date": "2023-03-23",
        "priceEur": 170740,
        "typeLocal": "Maison",
        "surfaceM2": 81,
        "isVefa": false
      }
    ]
  },
  "fb258a27a9c5": {
    "id": "fb258a27a9c5",
    "label": "19 RUE DE PARIS, Tourcoing",
    "lat": 50.722665,
    "lng": 3.144781,
    "transactions": [
      {
        "date": "2023-03-23",
        "priceEur": 227500,
        "typeLocal": "Maison",
        "surfaceM2": 70,
        "isVefa": false
      }
    ]
  },
  "6de7c34b2336": {
    "id": "6de7c34b2336",
    "label": "35 RUE DU DAHOMEY, Tourcoing",
    "lat": 50.729193,
    "lng": 3.147518,
    "transactions": [
      {
        "date": "2023-03-29",
        "priceEur": 93500,
        "typeLocal": "Maison",
        "surfaceM2": 77,
        "isVefa": false
      }
    ]
  },
  "c898a72418b2": {
    "id": "c898a72418b2",
    "label": "43 RUE DU BOIS, Tourcoing",
    "lat": 50.72435,
    "lng": 3.14352,
    "transactions": [
      {
        "date": "2023-04-07",
        "priceEur": 197200,
        "typeLocal": "Maison",
        "surfaceM2": 104,
        "isVefa": false
      }
    ]
  },
  "0c1f6ed35e4b": {
    "id": "0c1f6ed35e4b",
    "label": "20 RUE DES COULONS, Tourcoing",
    "lat": 50.722821,
    "lng": 3.14622,
    "transactions": [
      {
        "date": "2023-03-30",
        "priceEur": 102000,
        "typeLocal": "Maison",
        "surfaceM2": 85,
        "isVefa": false
      }
    ]
  },
  "6e5962968583": {
    "id": "6e5962968583",
    "label": "17 RUE DE CHARTRES, Tourcoing",
    "lat": 50.728462,
    "lng": 3.144468,
    "transactions": [
      {
        "date": "2023-03-30",
        "priceEur": 175000,
        "typeLocal": "Maison",
        "surfaceM2": 100,
        "isVefa": false
      }
    ]
  },
  "07abbdc16a23": {
    "id": "07abbdc16a23",
    "label": "15 RUE MONTESQUIEU, Tourcoing",
    "lat": 50.725893,
    "lng": 3.146083,
    "transactions": [
      {
        "date": "2023-04-14",
        "priceEur": 275450,
        "typeLocal": "Maison",
        "surfaceM2": 113,
        "isVefa": false
      }
    ]
  },
  "5e5aca6659a1": {
    "id": "5e5aca6659a1",
    "label": "21 ALL GENEVI ANTHONIOZ DE GAULLE, Tourcoing",
    "lat": 50.724311,
    "lng": 3.14401,
    "transactions": [
      {
        "date": "2023-04-18",
        "priceEur": 190000,
        "typeLocal": "Maison",
        "surfaceM2": 92,
        "isVefa": false
      }
    ]
  },
  "1c4e9c8bb5d9": {
    "id": "1c4e9c8bb5d9",
    "label": "19 RUE D OSTENDE, Tourcoing",
    "lat": 50.727665,
    "lng": 3.144759,
    "transactions": [
      {
        "date": "2023-06-07",
        "priceEur": 239000,
        "typeLocal": "Maison",
        "surfaceM2": 108,
        "isVefa": false
      }
    ]
  },
  "518121aa200c": {
    "id": "518121aa200c",
    "label": "9 RUE DU DAHOMEY, Tourcoing",
    "lat": 50.72877,
    "lng": 3.147118,
    "transactions": [
      {
        "date": "2023-06-02",
        "priceEur": 115100,
        "typeLocal": "Maison",
        "surfaceM2": 70,
        "isVefa": false
      }
    ]
  },
  "8ab004d07233": {
    "id": "8ab004d07233",
    "label": "7 RUE DU CLINQUET, Tourcoing",
    "lat": 50.722805,
    "lng": 3.143979,
    "transactions": [
      {
        "date": "2023-06-07",
        "priceEur": 170000,
        "typeLocal": "Maison",
        "surfaceM2": 68,
        "isVefa": false
      }
    ]
  },
  "5d15750713b8": {
    "id": "5d15750713b8",
    "label": "39 ALL GENEVI ANTHONIOZ DE GAULLE, Tourcoing",
    "lat": 50.723659,
    "lng": 3.143524,
    "transactions": [
      {
        "date": "2023-06-14",
        "priceEur": 240250,
        "typeLocal": "Maison",
        "surfaceM2": 87,
        "isVefa": false
      }
    ]
  },
  "66347e6cc207": {
    "id": "66347e6cc207",
    "label": "67 RUE D OSTENDE, Tourcoing",
    "lat": 50.728358,
    "lng": 3.145578,
    "transactions": [
      {
        "date": "2023-06-26",
        "priceEur": 65000,
        "typeLocal": "Maison",
        "surfaceM2": 84,
        "isVefa": false
      }
    ]
  },
  "871cba293a1f": {
    "id": "871cba293a1f",
    "label": "29 RUE DU CLINQUET, Tourcoing",
    "lat": 50.722735,
    "lng": 3.142971,
    "transactions": [
      {
        "date": "2023-06-30",
        "priceEur": 102500,
        "typeLocal": "Appartement",
        "surfaceM2": 40,
        "isVefa": false
      }
    ]
  },
  "a8f52be15939": {
    "id": "a8f52be15939",
    "label": "81 RUE DES POUTRAINS, Tourcoing",
    "lat": 50.724993,
    "lng": 3.152228,
    "transactions": [
      {
        "date": "2025-04-25",
        "priceEur": 250000,
        "typeLocal": "Appartement",
        "surfaceM2": 55,
        "isVefa": false
      },
      {
        "date": "2025-04-25",
        "priceEur": 250000,
        "typeLocal": "Appartement",
        "surfaceM2": 35,
        "isVefa": false
      },
      {
        "date": "2025-04-25",
        "priceEur": 250000,
        "typeLocal": "Appartement",
        "surfaceM2": 25,
        "isVefa": false
      },
      {
        "date": "2023-06-27",
        "priceEur": 120000,
        "typeLocal": "Appartement",
        "surfaceM2": 55,
        "isVefa": false
      },
      {
        "date": "2023-06-27",
        "priceEur": 120000,
        "typeLocal": "Appartement",
        "surfaceM2": 25,
        "isVefa": false
      },
      {
        "date": "2023-06-27",
        "priceEur": 120000,
        "typeLocal": "Appartement",
        "surfaceM2": 35,
        "isVefa": false
      }
    ]
  },
  "25279db03a30": {
    "id": "25279db03a30",
    "label": "33 RUE LA ROCHEFOUCAULD, Tourcoing",
    "lat": 50.726757,
    "lng": 3.142578,
    "transactions": [
      {
        "date": "2023-07-20",
        "priceEur": 126000,
        "typeLocal": "Maison",
        "surfaceM2": 65,
        "isVefa": false
      }
    ]
  },
  "aeb17ab3411d": {
    "id": "aeb17ab3411d",
    "label": "55 RUE DES CHAMPS, Tourcoing",
    "lat": 50.72748,
    "lng": 3.142133,
    "transactions": [
      {
        "date": "2023-07-21",
        "priceEur": 186933,
        "typeLocal": "Maison",
        "surfaceM2": 194,
        "isVefa": false
      }
    ]
  },
  "b0c570cc725d": {
    "id": "b0c570cc725d",
    "label": "37 AV DE LA FIN DE LA GUERRE, Tourcoing",
    "lat": 50.726061,
    "lng": 3.148213,
    "transactions": [
      {
        "date": "2025-02-26",
        "priceEur": 80000,
        "typeLocal": "Appartement",
        "surfaceM2": 43,
        "isVefa": false
      },
      {
        "date": "2024-03-01",
        "priceEur": 113200,
        "typeLocal": "Appartement",
        "surfaceM2": 44,
        "isVefa": false
      },
      {
        "date": "2023-08-29",
        "priceEur": 93000,
        "typeLocal": "Appartement",
        "surfaceM2": 44,
        "isVefa": false
      }
    ]
  },
  "488d165cd4db": {
    "id": "488d165cd4db",
    "label": "35 RUE LA ROCHEFOUCAULD, Tourcoing",
    "lat": 50.726785,
    "lng": 3.142593,
    "transactions": [
      {
        "date": "2023-08-30",
        "priceEur": 152000,
        "typeLocal": "Maison",
        "surfaceM2": 80,
        "isVefa": false
      }
    ]
  },
  "89403dc8bdca": {
    "id": "89403dc8bdca",
    "label": "91 RUE NATIONALE, Tourcoing",
    "lat": 50.724301,
    "lng": 3.15306,
    "transactions": [
      {
        "date": "2023-08-30",
        "priceEur": 375000,
        "typeLocal": "Maison",
        "surfaceM2": 245,
        "isVefa": false
      }
    ]
  },
  "ccc909242205": {
    "id": "ccc909242205",
    "label": "138 RUE DE LILLE, Tourcoing",
    "lat": 50.723174,
    "lng": 3.149278,
    "transactions": [
      {
        "date": "2024-05-28",
        "priceEur": 90000,
        "typeLocal": "Appartement",
        "surfaceM2": null,
        "isVefa": false
      },
      {
        "date": "2023-07-26",
        "priceEur": 140000,
        "typeLocal": "Appartement",
        "surfaceM2": null,
        "isVefa": false
      }
    ]
  },
  "2a6b4dcf4c7b": {
    "id": "2a6b4dcf4c7b",
    "label": "44 RUE DU GENERAL DOUAY, Tourcoing",
    "lat": 50.727536,
    "lng": 3.143959,
    "transactions": [
      {
        "date": "2023-09-20",
        "priceEur": 170800,
        "typeLocal": "Maison",
        "surfaceM2": 86,
        "isVefa": false
      }
    ]
  },
  "511252f5e2c0": {
    "id": "511252f5e2c0",
    "label": "38 RUE DU BRUN PAIN, Tourcoing",
    "lat": 50.725296,
    "lng": 3.144968,
    "transactions": [
      {
        "date": "2023-09-18",
        "priceEur": 59800,
        "typeLocal": "Maison",
        "surfaceM2": 68,
        "isVefa": false
      }
    ]
  },
  "0d4ee63c99c1": {
    "id": "0d4ee63c99c1",
    "label": "73 RUE LA ROCHEFOUCAULD, Tourcoing",
    "lat": 50.727551,
    "lng": 3.143094,
    "transactions": [
      {
        "date": "2023-09-05",
        "priceEur": 100000,
        "typeLocal": "Maison",
        "surfaceM2": 60,
        "isVefa": false
      }
    ]
  },
  "78f2b9bd161e": {
    "id": "78f2b9bd161e",
    "label": "21 RUE DE PARIS, Tourcoing",
    "lat": 50.722621,
    "lng": 3.144741,
    "transactions": [
      {
        "date": "2023-09-21",
        "priceEur": 185000,
        "typeLocal": "Maison",
        "surfaceM2": 63,
        "isVefa": false
      }
    ]
  },
  "7312be3a68a0": {
    "id": "7312be3a68a0",
    "label": "107 RUE DES CHAMPS, Tourcoing",
    "lat": 50.728616,
    "lng": 3.143058,
    "transactions": [
      {
        "date": "2023-09-29",
        "priceEur": 160000,
        "typeLocal": "Maison",
        "surfaceM2": 104,
        "isVefa": false
      }
    ]
  },
  "a4c9a0837fe7": {
    "id": "a4c9a0837fe7",
    "label": "28 RUE DU BOIS, Tourcoing",
    "lat": 50.724772,
    "lng": 3.142947,
    "transactions": [
      {
        "date": "2023-10-09",
        "priceEur": 143900,
        "typeLocal": "Maison",
        "surfaceM2": 61,
        "isVefa": false
      }
    ]
  },
  "48689b796297": {
    "id": "48689b796297",
    "label": "5 RUE DU GENERAL SOUHAM, Tourcoing",
    "lat": 50.728928,
    "lng": 3.146554,
    "transactions": [
      {
        "date": "2023-09-14",
        "priceEur": 203500,
        "typeLocal": "Maison",
        "surfaceM2": 45,
        "isVefa": false
      }
    ]
  },
  "f0c90292930a": {
    "id": "f0c90292930a",
    "label": "3 RUE DU GENERAL SOUHAM, Tourcoing",
    "lat": 50.728864,
    "lng": 3.146518,
    "transactions": [
      {
        "date": "2023-09-14",
        "priceEur": 203500,
        "typeLocal": "Maison",
        "surfaceM2": 100,
        "isVefa": false
      }
    ]
  },
  "21f573e0dfed": {
    "id": "21f573e0dfed",
    "label": "15 RUE NEUVE, Tourcoing",
    "lat": 50.722988,
    "lng": 3.146309,
    "transactions": [
      {
        "date": "2023-11-20",
        "priceEur": 134300,
        "typeLocal": "Maison",
        "surfaceM2": 90,
        "isVefa": false
      }
    ]
  },
  "143a2c7e46f1": {
    "id": "143a2c7e46f1",
    "label": "39 RUE DU DAHOMEY, Tourcoing",
    "lat": 50.729259,
    "lng": 3.147567,
    "transactions": [
      {
        "date": "2023-11-15",
        "priceEur": 70000,
        "typeLocal": "Maison",
        "surfaceM2": 106,
        "isVefa": false
      }
    ]
  },
  "83b09dbec45c": {
    "id": "83b09dbec45c",
    "label": "101 RUE NATIONALE, Tourcoing",
    "lat": 50.724479,
    "lng": 3.152215,
    "transactions": [
      {
        "date": "2023-12-21",
        "priceEur": 650000,
        "typeLocal": "Appartement",
        "surfaceM2": 40,
        "isVefa": false
      },
      {
        "date": "2023-12-21",
        "priceEur": 650000,
        "typeLocal": "Appartement",
        "surfaceM2": 58,
        "isVefa": false
      },
      {
        "date": "2023-12-21",
        "priceEur": 650000,
        "typeLocal": "Appartement",
        "surfaceM2": 53,
        "isVefa": false
      },
      {
        "date": "2023-12-21",
        "priceEur": 650000,
        "typeLocal": "Appartement",
        "surfaceM2": 41,
        "isVefa": false
      },
      {
        "date": "2023-12-21",
        "priceEur": 650000,
        "typeLocal": "Appartement",
        "surfaceM2": 44,
        "isVefa": false
      },
      {
        "date": "2023-12-21",
        "priceEur": 650000,
        "typeLocal": "Appartement",
        "surfaceM2": 43,
        "isVefa": false
      },
      {
        "date": "2023-12-21",
        "priceEur": 650000,
        "typeLocal": "Appartement",
        "surfaceM2": 56,
        "isVefa": false
      },
      {
        "date": "2023-12-21",
        "priceEur": 650000,
        "typeLocal": "Appartement",
        "surfaceM2": 65,
        "isVefa": false
      },
      {
        "date": "2023-12-21",
        "priceEur": 650000,
        "typeLocal": "Appartement",
        "surfaceM2": 46,
        "isVefa": false
      },
      {
        "date": "2023-12-21",
        "priceEur": 650000,
        "typeLocal": "Appartement",
        "surfaceM2": 62,
        "isVefa": false
      },
      {
        "date": "2023-12-21",
        "priceEur": 650000,
        "typeLocal": "Appartement",
        "surfaceM2": 29,
        "isVefa": false
      },
      {
        "date": "2023-12-21",
        "priceEur": 650000,
        "typeLocal": "Appartement",
        "surfaceM2": 23,
        "isVefa": false
      },
      {
        "date": "2023-12-21",
        "priceEur": 650000,
        "typeLocal": "Appartement",
        "surfaceM2": 28,
        "isVefa": false
      }
    ]
  },
  "5da9b1467178": {
    "id": "5da9b1467178",
    "label": "19 RUE NEUVE, Tourcoing",
    "lat": 50.722944,
    "lng": 3.146178,
    "transactions": [
      {
        "date": "2023-12-26",
        "priceEur": 177800,
        "typeLocal": "Maison",
        "surfaceM2": 87,
        "isVefa": false
      }
    ]
  },
  "ec512b475531": {
    "id": "ec512b475531",
    "label": "47 RUE DU BOIS, Tourcoing",
    "lat": 50.724303,
    "lng": 3.143314,
    "transactions": [
      {
        "date": "2024-02-05",
        "priceEur": 176500,
        "typeLocal": "Maison",
        "surfaceM2": 70,
        "isVefa": false
      }
    ]
  },
  "c40c969acd5c": {
    "id": "c40c969acd5c",
    "label": "10 RUE D OSTENDE, Tourcoing",
    "lat": 50.727305,
    "lng": 3.145043,
    "transactions": [
      {
        "date": "2024-03-01",
        "priceEur": 147740,
        "typeLocal": "Maison",
        "surfaceM2": 75,
        "isVefa": false
      }
    ]
  },
  "36ab211dc289": {
    "id": "36ab211dc289",
    "label": "80 RUE D OSTENDE, Tourcoing",
    "lat": 50.728397,
    "lng": 3.146126,
    "transactions": [
      {
        "date": "2024-03-11",
        "priceEur": 78000,
        "typeLocal": "Maison",
        "surfaceM2": 76,
        "isVefa": false
      }
    ]
  },
  "c4da2a3c9b92": {
    "id": "c4da2a3c9b92",
    "label": "3 RUE JEAN JAURES, Tourcoing",
    "lat": 50.728495,
    "lng": 3.147604,
    "transactions": [
      {
        "date": "2024-03-21",
        "priceEur": 128300,
        "typeLocal": "Maison",
        "surfaceM2": 63,
        "isVefa": false
      }
    ]
  },
  "a237feae7ad0": {
    "id": "a237feae7ad0",
    "label": "207 AV DE LA FIN DE LA GUERRE, Tourcoing",
    "lat": 50.729307,
    "lng": 3.14382,
    "transactions": [
      {
        "date": "2024-03-22",
        "priceEur": 373000,
        "typeLocal": "Appartement",
        "surfaceM2": 14,
        "isVefa": false
      },
      {
        "date": "2024-03-22",
        "priceEur": 373000,
        "typeLocal": "Appartement",
        "surfaceM2": 48,
        "isVefa": false
      },
      {
        "date": "2024-03-22",
        "priceEur": 373000,
        "typeLocal": "Appartement",
        "surfaceM2": 41,
        "isVefa": false
      },
      {
        "date": "2024-03-22",
        "priceEur": 373000,
        "typeLocal": "Appartement",
        "surfaceM2": 21,
        "isVefa": false
      },
      {
        "date": "2024-03-22",
        "priceEur": 373000,
        "typeLocal": "Appartement",
        "surfaceM2": 22,
        "isVefa": false
      },
      {
        "date": "2024-03-22",
        "priceEur": 373000,
        "typeLocal": "Appartement",
        "surfaceM2": 19,
        "isVefa": false
      }
    ]
  },
  "f095c679aa6f": {
    "id": "f095c679aa6f",
    "label": "132 RUE DE LA LATTE, Tourcoing",
    "lat": 50.729416,
    "lng": 3.151747,
    "transactions": [
      {
        "date": "2024-04-23",
        "priceEur": 87000,
        "typeLocal": "Maison",
        "surfaceM2": 67,
        "isVefa": false
      }
    ]
  },
  "18a96dd91902": {
    "id": "18a96dd91902",
    "label": "17 ALL DES CERISIERS, Tourcoing",
    "lat": 50.727507,
    "lng": 3.147652,
    "transactions": [
      {
        "date": "2024-04-19",
        "priceEur": 223820,
        "typeLocal": "Maison",
        "surfaceM2": 84,
        "isVefa": false
      }
    ]
  },
  "5308827d568e": {
    "id": "5308827d568e",
    "label": "2 RUE D OSTENDE, Tourcoing",
    "lat": 50.727186,
    "lng": 3.14487,
    "transactions": [
      {
        "date": "2024-04-23",
        "priceEur": 75000,
        "typeLocal": "Maison",
        "surfaceM2": 76,
        "isVefa": false
      }
    ]
  },
  "cf49dbd2f0bf": {
    "id": "cf49dbd2f0bf",
    "label": "18 RUE DES CHAMPS, Tourcoing",
    "lat": 50.726567,
    "lng": 3.142181,
    "transactions": [
      {
        "date": "2024-05-02",
        "priceEur": 50000,
        "typeLocal": "Maison",
        "surfaceM2": 64,
        "isVefa": false
      }
    ]
  },
  "1a3b73c33a7e": {
    "id": "1a3b73c33a7e",
    "label": "23 RUE JEAN FROISSART, Tourcoing",
    "lat": 50.725116,
    "lng": 3.146504,
    "transactions": [
      {
        "date": "2024-04-22",
        "priceEur": 77500,
        "typeLocal": "Maison",
        "surfaceM2": 64,
        "isVefa": false
      }
    ]
  },
  "2973a8b4ab92": {
    "id": "2973a8b4ab92",
    "label": "3 RUE D OSTENDE, Tourcoing",
    "lat": 50.727314,
    "lng": 3.144527,
    "transactions": [
      {
        "date": "2024-05-17",
        "priceEur": 230000,
        "typeLocal": "Maison",
        "surfaceM2": 160,
        "isVefa": false
      }
    ]
  },
  "becce37b8dab": {
    "id": "becce37b8dab",
    "label": "158 RUE DE LILLE, Tourcoing",
    "lat": 50.723699,
    "lng": 3.148612,
    "transactions": [
      {
        "date": "2024-06-27",
        "priceEur": 1440000,
        "typeLocal": "Appartement",
        "surfaceM2": 100,
        "isVefa": false
      }
    ]
  },
  "284bff9118c3": {
    "id": "284bff9118c3",
    "label": "7 RUE NEUVE, Tourcoing",
    "lat": 50.723043,
    "lng": 3.146566,
    "transactions": [
      {
        "date": "2024-07-18",
        "priceEur": 141000,
        "typeLocal": "Maison",
        "surfaceM2": 75,
        "isVefa": false
      }
    ]
  },
  "4955e56e1097": {
    "id": "4955e56e1097",
    "label": "33 RUE DES POUTRAINS, Tourcoing",
    "lat": 50.723877,
    "lng": 3.150214,
    "transactions": [
      {
        "date": "2024-07-26",
        "priceEur": 90450,
        "typeLocal": "Appartement",
        "surfaceM2": 33,
        "isVefa": false
      }
    ]
  },
  "9522f2617140": {
    "id": "9522f2617140",
    "label": "9B RUE DU GENERAL DOUAY, Tourcoing",
    "lat": 50.726296,
    "lng": 3.144476,
    "transactions": [
      {
        "date": "2024-08-08",
        "priceEur": 150000,
        "typeLocal": "Appartement",
        "surfaceM2": 65,
        "isVefa": false
      }
    ]
  },
  "d785b4e3834f": {
    "id": "d785b4e3834f",
    "label": "5 RUE JEAN JAURES, Tourcoing",
    "lat": 50.728525,
    "lng": 3.147634,
    "transactions": [
      {
        "date": "2024-08-08",
        "priceEur": 108000,
        "typeLocal": "Maison",
        "surfaceM2": 76,
        "isVefa": false
      }
    ]
  },
  "0318ad8ac9b9": {
    "id": "0318ad8ac9b9",
    "label": "121 AV DE LA FIN DE LA GUERRE, Tourcoing",
    "lat": 50.728691,
    "lng": 3.145797,
    "transactions": [
      {
        "date": "2024-08-09",
        "priceEur": 150000,
        "typeLocal": "Maison",
        "surfaceM2": 108,
        "isVefa": false
      }
    ]
  },
  "35e70c9735c2": {
    "id": "35e70c9735c2",
    "label": "70 RUE DES CHAMPS, Tourcoing",
    "lat": 50.727629,
    "lng": 3.142768,
    "transactions": [
      {
        "date": "2024-09-13",
        "priceEur": 138000,
        "typeLocal": "Maison",
        "surfaceM2": 99,
        "isVefa": false
      }
    ]
  },
  "450093a75740": {
    "id": "450093a75740",
    "label": "46 RUE DU GENERAL DOUAY, Tourcoing",
    "lat": 50.727563,
    "lng": 3.143894,
    "transactions": [
      {
        "date": "2024-10-16",
        "priceEur": 188750,
        "typeLocal": "Maison",
        "surfaceM2": 94,
        "isVefa": false
      }
    ]
  },
  "e1268a39e4ad": {
    "id": "e1268a39e4ad",
    "label": "83 RUE DU BRUN PAIN, Tourcoing",
    "lat": 50.725386,
    "lng": 3.142398,
    "transactions": [
      {
        "date": "2024-10-16",
        "priceEur": 110000,
        "typeLocal": "Maison",
        "surfaceM2": 87,
        "isVefa": false
      }
    ]
  },
  "0f9959c8a612": {
    "id": "0f9959c8a612",
    "label": "20 RUE DU CLINQUET, Tourcoing",
    "lat": 50.723046,
    "lng": 3.14357,
    "transactions": [
      {
        "date": "2024-09-16",
        "priceEur": 3435641.5,
        "typeLocal": "Maison",
        "surfaceM2": 63,
        "isVefa": false
      }
    ]
  },
  "08f9e9510649": {
    "id": "08f9e9510649",
    "label": "36 RUE DU CLINQUET, Tourcoing",
    "lat": 50.723096,
    "lng": 3.143032,
    "transactions": [
      {
        "date": "2024-09-16",
        "priceEur": 3435641.5,
        "typeLocal": "Maison",
        "surfaceM2": 64,
        "isVefa": false
      }
    ]
  },
  "993231171689": {
    "id": "993231171689",
    "label": "33 RUE JEAN JAURES, Tourcoing",
    "lat": 50.728959,
    "lng": 3.148046,
    "transactions": [
      {
        "date": "2024-10-17",
        "priceEur": 124900,
        "typeLocal": "Maison",
        "surfaceM2": 75,
        "isVefa": false
      }
    ]
  },
  "e341cd62bb08": {
    "id": "e341cd62bb08",
    "label": "106 RUE NATIONALE, Tourcoing",
    "lat": 50.724955,
    "lng": 3.152757,
    "transactions": [
      {
        "date": "2024-11-05",
        "priceEur": 376000,
        "typeLocal": "Maison",
        "surfaceM2": 120,
        "isVefa": false
      }
    ]
  },
  "8530b5342174": {
    "id": "8530b5342174",
    "label": "22 RUE DU MOULIN, Tourcoing",
    "lat": 50.725837,
    "lng": 3.145417,
    "transactions": [
      {
        "date": "2024-11-20",
        "priceEur": 128000,
        "typeLocal": "Maison",
        "surfaceM2": 88,
        "isVefa": false
      }
    ]
  },
  "440da0b7240d": {
    "id": "440da0b7240d",
    "label": "17 RUE JEAN JAURES, Tourcoing",
    "lat": 50.728712,
    "lng": 3.147809,
    "transactions": [
      {
        "date": "2024-11-19",
        "priceEur": 120000,
        "typeLocal": "Maison",
        "surfaceM2": 94,
        "isVefa": false
      }
    ]
  },
  "d8ef82bc2e33": {
    "id": "d8ef82bc2e33",
    "label": "34 RUE DU BOIS, Tourcoing",
    "lat": 50.724674,
    "lng": 3.142867,
    "transactions": [
      {
        "date": "2024-12-27",
        "priceEur": 172200,
        "typeLocal": "Maison",
        "surfaceM2": 68,
        "isVefa": false
      }
    ]
  },
  "786d9e9105d0": {
    "id": "786d9e9105d0",
    "label": "32 RUE DU BOIS, Tourcoing",
    "lat": 50.724701,
    "lng": 3.142905,
    "transactions": [
      {
        "date": "2025-01-24",
        "priceEur": 160000,
        "typeLocal": "Maison",
        "surfaceM2": 68,
        "isVefa": false
      }
    ]
  },
  "d5f5040d1097": {
    "id": "d5f5040d1097",
    "label": "90 RUE DES CHAMPS, Tourcoing",
    "lat": 50.7279,
    "lng": 3.143245,
    "transactions": [
      {
        "date": "2025-01-27",
        "priceEur": 185000,
        "typeLocal": "Maison",
        "surfaceM2": 70,
        "isVefa": false
      }
    ]
  },
  "14fa32e0bc82": {
    "id": "14fa32e0bc82",
    "label": "41 RUE LA ROCHEFOUCAULD, Tourcoing",
    "lat": 50.726893,
    "lng": 3.142654,
    "transactions": [
      {
        "date": "2025-03-27",
        "priceEur": 105000,
        "typeLocal": "Maison",
        "surfaceM2": 90,
        "isVefa": false
      }
    ]
  },
  "8762752499dc": {
    "id": "8762752499dc",
    "label": "18 RUE DU BRUN PAIN, Tourcoing",
    "lat": 50.725007,
    "lng": 3.145705,
    "transactions": [
      {
        "date": "2025-03-07",
        "priceEur": 167300,
        "typeLocal": "Maison",
        "surfaceM2": 137,
        "isVefa": false
      }
    ]
  },
  "70010cf465a8": {
    "id": "70010cf465a8",
    "label": "39 RUE DU BRUN PAIN, Tourcoing",
    "lat": 50.725147,
    "lng": 3.144367,
    "transactions": [
      {
        "date": "2025-04-01",
        "priceEur": 230000,
        "typeLocal": "Maison",
        "surfaceM2": 136,
        "isVefa": false
      }
    ]
  },
  "e684d6cb22b6": {
    "id": "e684d6cb22b6",
    "label": "55 RUE DU GENERAL DOUAY, Tourcoing",
    "lat": 50.727194,
    "lng": 3.143799,
    "transactions": [
      {
        "date": "2025-04-22",
        "priceEur": 145000,
        "typeLocal": "Maison",
        "surfaceM2": 82,
        "isVefa": false
      }
    ]
  },
  "75c0767e9c22": {
    "id": "75c0767e9c22",
    "label": "37 RUE DU BRUN PAIN, Tourcoing",
    "lat": 50.725143,
    "lng": 3.144452,
    "transactions": [
      {
        "date": "2025-04-01",
        "priceEur": 225000,
        "typeLocal": "Maison",
        "surfaceM2": 170,
        "isVefa": false
      }
    ]
  },
  "01277a906338": {
    "id": "01277a906338",
    "label": "25B RUE DU BRUN PAIN, Tourcoing",
    "lat": 50.724975,
    "lng": 3.144987,
    "transactions": [
      {
        "date": "2025-04-30",
        "priceEur": 190000,
        "typeLocal": "Appartement",
        "surfaceM2": 72,
        "isVefa": false
      }
    ]
  },
  "3650ea544b65": {
    "id": "3650ea544b65",
    "label": "23 RUE DU BRUN PAIN, Tourcoing",
    "lat": 50.724858,
    "lng": 3.145038,
    "transactions": [
      {
        "date": "2025-04-30",
        "priceEur": 505000,
        "typeLocal": "Maison",
        "surfaceM2": 121,
        "isVefa": false
      }
    ]
  },
  "9496f5a380b5": {
    "id": "9496f5a380b5",
    "label": "2 RUE DU GENERAL DOUAY, Tourcoing",
    "lat": 50.726842,
    "lng": 3.145621,
    "transactions": [
      {
        "date": "2025-05-21",
        "priceEur": 76000,
        "typeLocal": "Maison",
        "surfaceM2": 92,
        "isVefa": false
      }
    ]
  },
  "8927c1a53d31": {
    "id": "8927c1a53d31",
    "label": "71 RUE DES CHAMPS, Tourcoing",
    "lat": 50.728019,
    "lng": 3.142189,
    "transactions": [
      {
        "date": "2025-06-19",
        "priceEur": 110000,
        "typeLocal": "Maison",
        "surfaceM2": 88,
        "isVefa": false
      }
    ]
  }
}