{
  "55c205bfea68": {
    "id": "55c205bfea68",
    "label": "230 RUE DU MANEGE, Roucourt",
    "lat": 50.329491,
    "lng": 3.146342,
    "transactions": [
      {
        "date": "2021-07-02",
        "priceEur": 273000,
        "typeLocal": "Maison",
        "surfaceM2": 95,
        "isVefa": false
      }
    ]
  },
  "bffb99ef8696": {
    "id": "bffb99ef8696",
    "label": "50 RUE CAMILLE ROGEZ, Roucourt",
    "lat": 50.328359,
    "lng": 3.151425,
    "transactions": [
      {
        "date": "2022-03-14",
        "priceEur": 251375,
        "typeLocal": "Maison",
        "surfaceM2": 93,
        "isVefa": false
      }
    ]
  },
  "57b098df8acb": {
    "id": "57b098df8acb",
    "label": "264 RUE LOUIS MAILLET, Roucourt",
    "lat": 50.328242,
    "lng": 3.145847,
    "transactions": [
      {
        "date": "2022-06-17",
        "priceEur": 80000,
        "typeLocal": "Maison",
        "surfaceM2": 84,
        "isVefa": false
      }
    ]
  },
  "0d0b9753ada1": {
    "id": "0d0b9753ada1",
    "label": "17 RUE MARCEL LERICHE, Roucourt",
    "lat": 50.329025,
    "lng": 3.151295,
    "transactions": [
      {
        "date": "2025-04-02",
        "priceEur": 140000,
        "typeLocal": "Maison",
        "surfaceM2": 72,
        "isVefa": false
      },
      {
        "date": "2022-10-19",
        "priceEur": 139000,
        "typeLocal": "Maison",
        "surfaceM2": 72,
        "isVefa": false
      }
    ]
  },
  "8abb80cdb453": {
    "id": "8abb80cdb453",
    "label": "212 RUE DU MANEGE, Roucourt",
    "lat": 50.329277,
    "lng": 3.146374,
    "transactions": [
      {
        "date": "2023-02-17",
        "priceEur": 297500,
        "typeLocal": "Maison",
        "surfaceM2": 98,
        "isVefa": false
      }
    ]
  },
  "8803adff4a9d": {
    "id": "8803adff4a9d",
    "label": "159 RUE DU CHATEAU, Roucourt",
    "lat": 50.327569,
    "lng": 3.143765,
    "transactions": [
      {
        "date": "2023-06-06",
        "priceEur": 225000,
        "typeLocal": "Maison",
        "surfaceM2": 80,
        "isVefa": false
      }
    ]
  },
  "497a05fcab10": {
    "id": "497a05fcab10",
    "label": "264 RUE MARCEL LERICHE, Roucourt",
    "lat": 50.330979,
    "lng": 3.150597,
    "transactions": [
      {
        "date": "2024-09-20",
        "priceEur": 207300,
        "typeLocal": "Maison",
        "surfaceM2": 101,
        "isVefa": false
      }
    ]
  },
  "59c802900376": {
    "id": "59c802900376",
    "label": "34 RUE CAMILLE ROGEZ, Roucourt",
    "lat": 50.328228,
    "lng": 3.151227,
    "transactions": [
      {
        "date": "2024-10-08",
        "priceEur": 115000,
        "typeLocal": "Maison",
        "surfaceM2": 82,
        "isVefa": false
      }
    ]
  },
  "4ab7906d588f": {
    "id": "4ab7906d588f",
    "label": "39 RUE ELIE DESSAINT, Roucourt",
    "lat": 50.328647,
    "lng": 3.149887,
    "transactions": [
      {
        "date": "2025-02-11",
        "priceEur": 142900,
        "typeLocal": "Maison",
        "surfaceM2": 118,
        "isVefa": false
      }
    ]
  },
  "6b0ac7ca9a2a": {
    "id": "6b0ac7ca9a2a",
    "label": "284 RUE LOUIS MAILLET, Roucourt",
    "lat": 50.328368,
    "lng": 3.145612,
    "transactions": [
      {
        "date": "2025-03-27",
        "priceEur": 187000,
        "typeLocal": "Maison",
        "surfaceM2": 109,
        "isVefa": false
      }
    ]
  },
  "647b26708f96": {
    "id": "647b26708f96",
    "label": "111 RUE LEON RINCHEVAL, Roucourt",
    "lat": 50.325973,
    "lng": 3.149504,
    "transactions": [
      {
        "date": "2025-03-31",
        "priceEur": 225000,
        "typeLocal": "Maison",
        "surfaceM2": 127,
        "isVefa": false
      }
    ]
  },
  "da79001c5ebc": {
    "id": "da79001c5ebc",
    "label": "137 RUE DU MANEGE, Roucourt",
    "lat": 50.328681,
    "lng": 3.147012,
    "transactions": [
      {
        "date": "2025-05-12",
        "priceEur": 240000,
        "typeLocal": "Maison",
        "surfaceM2": 116,
        "isVefa": false
      }
    ]
  }
}