{
  "ef2245e7b60c": {
    "id": "ef2245e7b60c",
    "label": "72 CHE CLAIRAC, Bédarieux",
    "lat": 43.616246,
    "lng": 3.152196,
    "transactions": [
      {
        "date": "2020-08-24",
        "priceEur": 52500,
        "typeLocal": "Maison",
        "surfaceM2": 65,
        "isVefa": false
      }
    ]
  },
  "66375910d116": {
    "id": "66375910d116",
    "label": "1504 CHE DE CANTALAURES, Bédarieux",
    "lat": 43.619034,
    "lng": 3.144958,
    "transactions": [
      {
        "date": "2020-08-31",
        "priceEur": 292520,
        "typeLocal": "Maison",
        "surfaceM2": 70,
        "isVefa": false
      }
    ]
  },
  "964600a51b3d": {
    "id": "964600a51b3d",
    "label": "442 CHE CLAIRAC, Bédarieux",
    "lat": 43.618861,
    "lng": 3.149476,
    "transactions": [
      {
        "date": "2020-10-13",
        "priceEur": 67500,
        "typeLocal": "Maison",
        "surfaceM2": 40,
        "isVefa": false
      }
    ]
  },
  "32ac9fd7a917": {
    "id": "32ac9fd7a917",
    "label": "109 CHE CLAIRAC, Bédarieux",
    "lat": 43.615895,
    "lng": 3.151761,
    "transactions": [
      {
        "date": "2020-11-09",
        "priceEur": 146800,
        "typeLocal": "Maison",
        "surfaceM2": 116,
        "isVefa": false
      }
    ]
  },
  "53be464dc432": {
    "id": "53be464dc432",
    "label": "7 RUE DE LA POTERIE, Bédarieux",
    "lat": 43.614355,
    "lng": 3.152664,
    "transactions": [
      {
        "date": "2023-10-30",
        "priceEur": 143000,
        "typeLocal": "Maison",
        "surfaceM2": 73,
        "isVefa": false
      },
      {
        "date": "2021-03-03",
        "priceEur": 120000,
        "typeLocal": "Maison",
        "surfaceM2": 73,
        "isVefa": false
      }
    ]
  },
  "d048ef05b382": {
    "id": "d048ef05b382",
    "label": "6046F ROUANELS, Bédarieux",
    "lat": 43.618397,
    "lng": 3.15238,
    "transactions": [
      {
        "date": "2021-04-29",
        "priceEur": 39000,
        "typeLocal": "Maison",
        "surfaceM2": 10,
        "isVefa": false
      }
    ]
  },
  "3358fe3567fe": {
    "id": "3358fe3567fe",
    "label": "152 CHE CLAIRAC, Bédarieux",
    "lat": 43.616583,
    "lng": 3.151665,
    "transactions": [
      {
        "date": "2025-04-30",
        "priceEur": 43000,
        "typeLocal": "Maison",
        "surfaceM2": 60,
        "isVefa": false
      },
      {
        "date": "2021-07-05",
        "priceEur": 38325,
        "typeLocal": "Maison",
        "surfaceM2": 60,
        "isVefa": false
      }
    ]
  },
  "129005279a49": {
    "id": "129005279a49",
    "label": "66B AV JEAN JAURES, Bédarieux",
    "lat": 43.612506,
    "lng": 3.152522,
    "transactions": [
      {
        "date": "2021-07-29",
        "priceEur": 95000,
        "typeLocal": "Appartement",
        "surfaceM2": 111,
        "isVefa": false
      }
    ]
  },
  "884503550460": {
    "id": "884503550460",
    "label": "612 CHE HAUT DE CANTALAURES, Bédarieux",
    "lat": 43.612825,
    "lng": 3.14821,
    "transactions": [
      {
        "date": "2021-09-30",
        "priceEur": 205000,
        "typeLocal": "Maison",
        "surfaceM2": 72,
        "isVefa": false
      }
    ]
  },
  "042800cd5501": {
    "id": "042800cd5501",
    "label": "31 CHE HAUT DE CANTALAURES, Bédarieux",
    "lat": 43.617231,
    "lng": 3.147776,
    "transactions": [
      {
        "date": "2021-10-22",
        "priceEur": 210000,
        "typeLocal": "Maison",
        "surfaceM2": 54,
        "isVefa": false
      }
    ]
  },
  "f046fdc7ec2f": {
    "id": "f046fdc7ec2f",
    "label": "31B CHE HAUT DE CANTALAURES, Bédarieux",
    "lat": 43.617656,
    "lng": 3.147029,
    "transactions": [
      {
        "date": "2021-10-22",
        "priceEur": 210000,
        "typeLocal": "Maison",
        "surfaceM2": 24,
        "isVefa": false
      }
    ]
  },
  "f001139e3dfc": {
    "id": "f001139e3dfc",
    "label": "208 CHE CLAIRAC, Bédarieux",
    "lat": 43.617002,
    "lng": 3.151592,
    "transactions": [
      {
        "date": "2022-09-02",
        "priceEur": 180000,
        "typeLocal": "Maison",
        "surfaceM2": 109,
        "isVefa": false
      }
    ]
  },
  "bd530cb0edb8": {
    "id": "bd530cb0edb8",
    "label": "325 CHE CLAIRAC, Bédarieux",
    "lat": 43.617295,
    "lng": 3.149843,
    "transactions": [
      {
        "date": "2022-09-15",
        "priceEur": 190000,
        "typeLocal": "Maison",
        "surfaceM2": 84,
        "isVefa": false
      }
    ]
  },
  "e255d0e7a0e8": {
    "id": "e255d0e7a0e8",
    "label": "619 CHE DE LA CAPITELLE, Bédarieux",
    "lat": 43.619374,
    "lng": 3.150348,
    "transactions": [
      {
        "date": "2022-12-02",
        "priceEur": 185000,
        "typeLocal": "Maison",
        "surfaceM2": 40,
        "isVefa": false
      }
    ]
  },
  "a6baa42ca8b3": {
    "id": "a6baa42ca8b3",
    "label": "782 CHE DE CANTALAURES, Bédarieux",
    "lat": 43.615223,
    "lng": 3.143364,
    "transactions": [
      {
        "date": "2023-01-31",
        "priceEur": 220000,
        "typeLocal": "Maison",
        "surfaceM2": 50,
        "isVefa": false
      }
    ]
  },
  "7aa5c767248d": {
    "id": "7aa5c767248d",
    "label": "9021F CANTALAURES, Bédarieux",
    "lat": 43.614317,
    "lng": 3.147824,
    "transactions": [
      {
        "date": "2023-02-03",
        "priceEur": 24000,
        "typeLocal": "Maison",
        "surfaceM2": 40,
        "isVefa": false
      }
    ]
  },
  "7f15aefccbf3": {
    "id": "7f15aefccbf3",
    "label": "181 CANTALAURES, Bédarieux",
    "lat": 43.616029,
    "lng": 3.146535,
    "transactions": [
      {
        "date": "2023-07-19",
        "priceEur": 329605,
        "typeLocal": "Maison",
        "surfaceM2": 175,
        "isVefa": false
      }
    ]
  },
  "85ef8b001e1e": {
    "id": "85ef8b001e1e",
    "label": "888 CHE CLAIRAC, Bédarieux",
    "lat": 43.620019,
    "lng": 3.144798,
    "transactions": [
      {
        "date": "2023-12-19",
        "priceEur": 290000,
        "typeLocal": "Maison",
        "surfaceM2": 72,
        "isVefa": false
      }
    ]
  },
  "101c0eba8e00": {
    "id": "101c0eba8e00",
    "label": "370 CHE CLAIRAC, Bédarieux",
    "lat": 43.618136,
    "lng": 3.149655,
    "transactions": [
      {
        "date": "2025-03-18",
        "priceEur": 65000,
        "typeLocal": "Maison",
        "surfaceM2": 90,
        "isVefa": false
      }
    ]
  }
}