{
  "98e1c6234f68": {
    "id": "98e1c6234f68",
    "label": "5195F IMP DES SAULES, Berlou",
    "lat": 43.492468,
    "lng": 2.961014,
    "transactions": [
      {
        "date": "2020-07-06",
        "priceEur": 100000,
        "typeLocal": "Maison",
        "surfaceM2": 63,
        "isVefa": false
      }
    ]
  },
  "f1afaf8ab398": {
    "id": "f1afaf8ab398",
    "label": "6 RUE BASSE, Berlou",
    "lat": 43.489903,
    "lng": 2.956071,
    "transactions": [
      {
        "date": "2021-05-07",
        "priceEur": 23130,
        "typeLocal": "Maison",
        "surfaceM2": 58,
        "isVefa": false
      }
    ]
  },
  "6a76f1b68244": {
    "id": "6a76f1b68244",
    "label": "11 RUE BASSE, Berlou",
    "lat": 43.489779,
    "lng": 2.955956,
    "transactions": [
      {
        "date": "2021-10-15",
        "priceEur": 56720,
        "typeLocal": "Maison",
        "surfaceM2": 100,
        "isVefa": false
      }
    ]
  },
  "69c1f514e2c3": {
    "id": "69c1f514e2c3",
    "label": "4 AV DE L EGLISE, Berlou",
    "lat": 43.491219,
    "lng": 2.960941,
    "transactions": [
      {
        "date": "2021-12-07",
        "priceEur": 140000,
        "typeLocal": "Appartement",
        "surfaceM2": 75,
        "isVefa": false
      },
      {
        "date": "2021-12-07",
        "priceEur": 140000,
        "typeLocal": "Appartement",
        "surfaceM2": 74,
        "isVefa": false
      }
    ]
  },
  "305195faf916": {
    "id": "305195faf916",
    "label": "22 AV DE L EGLISE, Berlou",
    "lat": 43.491781,
    "lng": 2.963805,
    "transactions": [
      {
        "date": "2021-12-20",
        "priceEur": 220000,
        "typeLocal": "Maison",
        "surfaceM2": 112,
        "isVefa": false
      },
      {
        "date": "2021-12-20",
        "priceEur": 220000,
        "typeLocal": "Maison",
        "surfaceM2": 112,
        "isVefa": false
      }
    ]
  },
  "500965f148fb": {
    "id": "500965f148fb",
    "label": "9 RUE BASSE, Berlou",
    "lat": 43.48975,
    "lng": 2.956003,
    "transactions": [
      {
        "date": "2022-04-20",
        "priceEur": 137000,
        "typeLocal": "Maison",
        "surfaceM2": 94,
        "isVefa": false
      }
    ]
  },
  "e8883d07c4f3": {
    "id": "e8883d07c4f3",
    "label": "2 RUE DE LA RAGEOLLE, Berlou",
    "lat": 43.490077,
    "lng": 2.956126,
    "transactions": [
      {
        "date": "2022-06-27",
        "priceEur": 25000,
        "typeLocal": "Maison",
        "surfaceM2": 91,
        "isVefa": false
      }
    ]
  },
  "b696408dc020": {
    "id": "b696408dc020",
    "label": "16 RUE BASSE, Berlou",
    "lat": 43.489879,
    "lng": 2.955547,
    "transactions": [
      {
        "date": "2022-11-24",
        "priceEur": 70000,
        "typeLocal": "Maison",
        "surfaceM2": 80,
        "isVefa": false
      }
    ]
  },
  "06e6affceca1": {
    "id": "06e6affceca1",
    "label": "2 AV DE LA MAIRIE, Berlou",
    "lat": 43.490636,
    "lng": 2.959174,
    "transactions": [
      {
        "date": "2023-10-19",
        "priceEur": 221250,
        "typeLocal": "Maison",
        "surfaceM2": 78,
        "isVefa": false
      }
    ]
  },
  "3e2373eb82af": {
    "id": "3e2373eb82af",
    "label": "4 RUE HAUTE, Berlou",
    "lat": 43.490217,
    "lng": 2.956295,
    "transactions": [
      {
        "date": "2025-05-15",
        "priceEur": 117000,
        "typeLocal": "Maison",
        "surfaceM2": 84,
        "isVefa": false
      }
    ]
  }
}