{
  "2a255b34465f": {
    "id": "2a255b34465f",
    "label": "5 CHE DE LA BADE, Popian",
    "lat": 43.616798,
    "lng": 3.532716,
    "transactions": [
      {
        "date": "2020-08-31",
        "priceEur": 251450,
        "typeLocal": "Maison",
        "surfaceM2": 117,
        "isVefa": false
      },
      {
        "date": "2020-08-31",
        "priceEur": 251450,
        "typeLocal": "Maison",
        "surfaceM2": 117,
        "isVefa": false
      }
    ]
  },
  "a5cf865eb6bf": {
    "id": "a5cf865eb6bf",
    "label": "7 RUE DE L EGLISE, Popian",
    "lat": 43.619625,
    "lng": 3.53479,
    "transactions": [
      {
        "date": "2020-11-23",
        "priceEur": 95600,
        "typeLocal": "Maison",
        "surfaceM2": 68,
        "isVefa": false
      }
    ]
  },
  "e5934ed963f7": {
    "id": "e5934ed963f7",
    "label": "5 CHE DES CONDAMINES, Popian",
    "lat": 43.618463,
    "lng": 3.533242,
    "transactions": [
      {
        "date": "2021-03-12",
        "priceEur": 344000,
        "typeLocal": "Maison",
        "surfaceM2": 100,
        "isVefa": false
      },
      {
        "date": "2021-03-12",
        "priceEur": 344000,
        "typeLocal": "Maison",
        "surfaceM2": 100,
        "isVefa": false
      }
    ]
  },
  "4ffbbb018b90": {
    "id": "4ffbbb018b90",
    "label": "5 RUE DE L OLIVIER, Popian",
    "lat": 43.61935,
    "lng": 3.535084,
    "transactions": [
      {
        "date": "2021-04-02",
        "priceEur": 50000,
        "typeLocal": "Maison",
        "surfaceM2": 40,
        "isVefa": false
      }
    ]
  },
  "0167da5ef7a5": {
    "id": "0167da5ef7a5",
    "label": "2B AV DE ST BAUZILLE DE LA SYLVE, Popian",
    "lat": 43.619559,
    "lng": 3.536679,
    "transactions": [
      {
        "date": "2021-07-05",
        "priceEur": 617000,
        "typeLocal": "Maison",
        "surfaceM2": 190,
        "isVefa": false
      },
      {
        "date": "2021-07-05",
        "priceEur": 617000,
        "typeLocal": "Maison",
        "surfaceM2": 190,
        "isVefa": false
      }
    ]
  },
  "1b3804e07511": {
    "id": "1b3804e07511",
    "label": "6 CHE DES CONDAMINES, Popian",
    "lat": 43.618748,
    "lng": 3.533496,
    "transactions": [
      {
        "date": "2021-08-17",
        "priceEur": 212500,
        "typeLocal": "Maison",
        "surfaceM2": 90,
        "isVefa": false
      }
    ]
  },
  "df17ff7660bb": {
    "id": "df17ff7660bb",
    "label": "8 RUE DE L EGLISE, Popian",
    "lat": 43.619866,
    "lng": 3.534842,
    "transactions": [
      {
        "date": "2021-09-06",
        "priceEur": 164550,
        "typeLocal": "Maison",
        "surfaceM2": 60,
        "isVefa": false
      }
    ]
  },
  "85bf8251a94c": {
    "id": "85bf8251a94c",
    "label": "6 AV DE LAURELLE, Popian",
    "lat": 43.618807,
    "lng": 3.535095,
    "transactions": [
      {
        "date": "2021-12-10",
        "priceEur": 170000,
        "typeLocal": "Maison",
        "surfaceM2": 84,
        "isVefa": false
      }
    ]
  },
  "86e5d45fdc16": {
    "id": "86e5d45fdc16",
    "label": "9 RUE DE L EGLISE, Popian",
    "lat": 43.619669,
    "lng": 3.534756,
    "transactions": [
      {
        "date": "2022-08-10",
        "priceEur": 223000,
        "typeLocal": "Maison",
        "surfaceM2": 90,
        "isVefa": false
      },
      {
        "date": "2022-08-10",
        "priceEur": 223000,
        "typeLocal": "Maison",
        "surfaceM2": 60,
        "isVefa": false
      }
    ]
  },
  "a2cc64391915": {
    "id": "a2cc64391915",
    "label": "29 AV DE LAURELLE, Popian",
    "lat": 43.618773,
    "lng": 3.535386,
    "transactions": [
      {
        "date": "2022-10-12",
        "priceEur": 205600,
        "typeLocal": "Maison",
        "surfaceM2": 91,
        "isVefa": false
      }
    ]
  },
  "f3600ab0434a": {
    "id": "f3600ab0434a",
    "label": "16 RUE DE LA CALADE, Popian",
    "lat": 43.619524,
    "lng": 3.535137,
    "transactions": [
      {
        "date": "2022-11-22",
        "priceEur": 114000,
        "typeLocal": "Maison",
        "surfaceM2": 48,
        "isVefa": false
      }
    ]
  },
  "c0c4485e71f1": {
    "id": "c0c4485e71f1",
    "label": "5050 RUE DES LAVOIRS, Popian",
    "lat": 43.618727,
    "lng": 3.534694,
    "transactions": [
      {
        "date": "2023-02-09",
        "priceEur": 152500,
        "typeLocal": "Maison",
        "surfaceM2": 90,
        "isVefa": false
      }
    ]
  },
  "6ddc37fbbd4f": {
    "id": "6ddc37fbbd4f",
    "label": "9B RUE DE L EGLISE, Popian",
    "lat": 43.619647,
    "lng": 3.534658,
    "transactions": [
      {
        "date": "2023-08-29",
        "priceEur": 135000,
        "typeLocal": "Maison",
        "surfaceM2": 60,
        "isVefa": false
      }
    ]
  },
  "be857c076743": {
    "id": "be857c076743",
    "label": "21 AV DE LAURELLE, Popian",
    "lat": 43.618862,
    "lng": 3.535471,
    "transactions": [
      {
        "date": "2024-01-05",
        "priceEur": 138700,
        "typeLocal": "Maison",
        "surfaceM2": 53,
        "isVefa": false
      }
    ]
  },
  "074170b1bd28": {
    "id": "074170b1bd28",
    "label": "2 CHE DE LA PRADE, Popian",
    "lat": 43.618989,
    "lng": 3.536235,
    "transactions": [
      {
        "date": "2024-03-01",
        "priceEur": 105000,
        "typeLocal": "Maison",
        "surfaceM2": 40,
        "isVefa": false
      },
      {
        "date": "2024-03-01",
        "priceEur": 105000,
        "typeLocal": "Maison",
        "surfaceM2": 40,
        "isVefa": false
      }
    ]
  },
  "5621b0843292": {
    "id": "5621b0843292",
    "label": "7 AV DE LAURELLE, Popian",
    "lat": 43.619177,
    "lng": 3.536071,
    "transactions": [
      {
        "date": "2024-03-29",
        "priceEur": 275000,
        "typeLocal": "Appartement",
        "surfaceM2": 114,
        "isVefa": false
      },
      {
        "date": "2024-03-29",
        "priceEur": 275000,
        "typeLocal": "Appartement",
        "surfaceM2": 80,
        "isVefa": false
      }
    ]
  },
  "a1a23d29f50f": {
    "id": "a1a23d29f50f",
    "label": "3 RUE DE LA SERRE, Popian",
    "lat": 43.619983,
    "lng": 3.535117,
    "transactions": [
      {
        "date": "2024-06-20",
        "priceEur": 187090,
        "typeLocal": "Maison",
        "surfaceM2": 62,
        "isVefa": false
      }
    ]
  },
  "683e04d67ee5": {
    "id": "683e04d67ee5",
    "label": "11 AV DE LAURELLE, Popian",
    "lat": 43.619114,
    "lng": 3.535982,
    "transactions": [
      {
        "date": "2025-01-09",
        "priceEur": 107000,
        "typeLocal": "Maison",
        "surfaceM2": 110,
        "isVefa": false
      },
      {
        "date": "2024-08-27",
        "priceEur": 143820,
        "typeLocal": "Maison",
        "surfaceM2": 110,
        "isVefa": false
      }
    ]
  }
}