{
  "65978166a822": {
    "id": "65978166a822",
    "label": "57 CHE DU CLAUS DE BOUVIE, Lauret",
    "lat": 43.833642,
    "lng": 3.879726,
    "transactions": [
      {
        "date": "2022-02-15",
        "priceEur": 344450,
        "typeLocal": "Maison",
        "surfaceM2": 101,
        "isVefa": false
      }
    ]
  },
  "d9a8b5ab0016": {
    "id": "d9a8b5ab0016",
    "label": "2 RUE LA NOUVELLE, Lauret",
    "lat": 43.833293,
    "lng": 3.878338,
    "transactions": [
      {
        "date": "2022-02-09",
        "priceEur": 351090,
        "typeLocal": "Maison",
        "surfaceM2": 88,
        "isVefa": false
      },
      {
        "date": "2022-02-09",
        "priceEur": 351090,
        "typeLocal": "Maison",
        "surfaceM2": 88,
        "isVefa": false
      }
    ]
  },
  "c3c9d74c242e": {
    "id": "c3c9d74c242e",
    "label": "2 IMP DU CHATEAU D'EAU, Lauret",
    "lat": 43.834488,
    "lng": 3.880713,
    "transactions": [
      {
        "date": "2022-10-28",
        "priceEur": 360970,
        "typeLocal": "Maison",
        "surfaceM2": 88,
        "isVefa": false
      }
    ]
  },
  "9e003955b61b": {
    "id": "9e003955b61b",
    "label": "5 RUE DE L AIRE, Lauret",
    "lat": 43.8342,
    "lng": 3.883486,
    "transactions": [
      {
        "date": "2023-04-24",
        "priceEur": 404000,
        "typeLocal": "Maison",
        "surfaceM2": 123,
        "isVefa": false
      }
    ]
  },
  "0247928a778c": {
    "id": "0247928a778c",
    "label": "1 IMP DE L'AIRE, Lauret",
    "lat": 43.834329,
    "lng": 3.883211,
    "transactions": [
      {
        "date": "2023-05-16",
        "priceEur": 185000,
        "typeLocal": "Maison",
        "surfaceM2": 73,
        "isVefa": false
      }
    ]
  },
  "a67b2d1f5695": {
    "id": "a67b2d1f5695",
    "label": "6 RUE DE L AIRE, Lauret",
    "lat": 43.834444,
    "lng": 3.883549,
    "transactions": [
      {
        "date": "2024-02-23",
        "priceEur": 170000,
        "typeLocal": "Maison",
        "surfaceM2": 95,
        "isVefa": false
      }
    ]
  },
  "fabf072c287b": {
    "id": "fabf072c287b",
    "label": "8 IMP DES GRANDES VIGNES, Lauret",
    "lat": 43.832863,
    "lng": 3.881002,
    "transactions": [
      {
        "date": "2024-12-20",
        "priceEur": 237000,
        "typeLocal": "Maison",
        "surfaceM2": 75,
        "isVefa": false
      },
      {
        "date": "2024-12-20",
        "priceEur": 237000,
        "typeLocal": "Maison",
        "surfaceM2": 75,
        "isVefa": false
      }
    ]
  }
}