{
  "fc8b11f377fe": {
    "id": "fc8b11f377fe",
    "label": "5 RUE JOSEPH DELTEIL, Clapiers",
    "lat": 43.652579,
    "lng": 3.884213,
    "transactions": [
      {
        "date": "2020-07-02",
        "priceEur": 284000,
        "typeLocal": "Appartement",
        "surfaceM2": 79,
        "isVefa": true
      }
    ]
  },
  "5b1991a1e914": {
    "id": "5b1991a1e914",
    "label": "246B RUE DU ROMARIN, Clapiers",
    "lat": 43.65935,
    "lng": 3.886136,
    "transactions": [
      {
        "date": "2024-02-01",
        "priceEur": 96100,
        "typeLocal": "Appartement",
        "surfaceM2": 26,
        "isVefa": false
      },
      {
        "date": "2023-03-20",
        "priceEur": 86620,
        "typeLocal": "Appartement",
        "surfaceM2": 26,
        "isVefa": false
      },
      {
        "date": "2023-01-19",
        "priceEur": 92414,
        "typeLocal": "Appartement",
        "surfaceM2": 26,
        "isVefa": false
      },
      {
        "date": "2022-10-20",
        "priceEur": 120000,
        "typeLocal": "Appartement",
        "surfaceM2": 34,
        "isVefa": false
      },
      {
        "date": "2022-09-22",
        "priceEur": 85000,
        "typeLocal": "Appartement",
        "surfaceM2": 26,
        "isVefa": false
      },
      {
        "date": "2022-05-24",
        "priceEur": 77500,
        "typeLocal": "Appartement",
        "surfaceM2": 25,
        "isVefa": false
      },
      {
        "date": "2022-05-18",
        "priceEur": 99000,
        "typeLocal": "Appartement",
        "surfaceM2": 25,
        "isVefa": false
      },
      {
        "date": "2022-04-07",
        "priceEur": 286500,
        "typeLocal": "Appartement",
        "surfaceM2": 24,
        "isVefa": false
      },
      {
        "date": "2022-04-07",
        "priceEur": 286500,
        "typeLocal": "Appartement",
        "surfaceM2": 29,
        "isVefa": false
      },
      {
        "date": "2020-07-02",
        "priceEur": 85000,
        "typeLocal": "Appartement",
        "surfaceM2": 36,
        "isVefa": false
      }
    ]
  },
  "49ac6c941046": {
    "id": "49ac6c941046",
    "label": "7 RUE DU JEU, Clapiers",
    "lat": 43.654341,
    "lng": 3.886309,
    "transactions": [
      {
        "date": "2020-07-24",
        "priceEur": 329000,
        "typeLocal": "Maison",
        "surfaceM2": 81,
        "isVefa": false
      }
    ]
  },
  "779f1b80f289": {
    "id": "779f1b80f289",
    "label": "105 RUE DES JARDINS, Clapiers",
    "lat": 43.655704,
    "lng": 3.884633,
    "transactions": [
      {
        "date": "2020-07-31",
        "priceEur": 313500,
        "typeLocal": "Maison",
        "surfaceM2": 58,
        "isVefa": false
      }
    ]
  },
  "75994c3893bb": {
    "id": "75994c3893bb",
    "label": "21 VC TRAVERSA DE L'ESCOUTAIRE, Clapiers",
    "lat": 43.658514,
    "lng": 3.884833,
    "transactions": [
      {
        "date": "2020-07-13",
        "priceEur": 122400,
        "typeLocal": "Maison",
        "surfaceM2": 167,
        "isVefa": false
      },
      {
        "date": "2020-07-13",
        "priceEur": 122400,
        "typeLocal": "Maison",
        "surfaceM2": 167,
        "isVefa": false
      }
    ]
  },
  "331fb6f0351c": {
    "id": "331fb6f0351c",
    "label": "20 RUE PAULE PALLARES-ROCHE, Clapiers",
    "lat": 43.653234,
    "lng": 3.884125,
    "transactions": [
      {
        "date": "2020-08-25",
        "priceEur": 544900,
        "typeLocal": "Maison",
        "surfaceM2": 125,
        "isVefa": false
      }
    ]
  },
  "f25d649346d2": {
    "id": "f25d649346d2",
    "label": "35 RUE DU BICENTENAIRE, Clapiers",
    "lat": 43.654327,
    "lng": 3.882858,
    "transactions": [
      {
        "date": "2023-04-17",
        "priceEur": 494440,
        "typeLocal": "Maison",
        "surfaceM2": 92,
        "isVefa": false
      },
      {
        "date": "2020-08-24",
        "priceEur": 375900,
        "typeLocal": "Maison",
        "surfaceM2": 92,
        "isVefa": false
      }
    ]
  },
  "522d80ca4774": {
    "id": "522d80ca4774",
    "label": "10 RUE DU CHATEAU, Clapiers",
    "lat": 43.656734,
    "lng": 3.88886,
    "transactions": [
      {
        "date": "2020-09-11",
        "priceEur": 180000,
        "typeLocal": "Maison",
        "surfaceM2": 78,
        "isVefa": false
      }
    ]
  },
  "046708ec72e4": {
    "id": "046708ec72e4",
    "label": "40 RUE PIERRE MENDES FRANCE, Clapiers",
    "lat": 43.654506,
    "lng": 3.881904,
    "transactions": [
      {
        "date": "2020-09-15",
        "priceEur": 300000,
        "typeLocal": "Maison",
        "surfaceM2": 93,
        "isVefa": false
      }
    ]
  },
  "3b031e833a0b": {
    "id": "3b031e833a0b",
    "label": "3 PLAN DES HAUTS DU FESQUET, Clapiers",
    "lat": 43.652337,
    "lng": 3.880714,
    "transactions": [
      {
        "date": "2020-09-15",
        "priceEur": 590000,
        "typeLocal": "Maison",
        "surfaceM2": 143,
        "isVefa": false
      },
      {
        "date": "2020-09-15",
        "priceEur": 590000,
        "typeLocal": "Maison",
        "surfaceM2": 143,
        "isVefa": false
      }
    ]
  },
  "3a3eabf4293d": {
    "id": "3a3eabf4293d",
    "label": "22 GR GRAND'RUE, Clapiers",
    "lat": 43.65706,
    "lng": 3.886222,
    "transactions": [
      {
        "date": "2020-09-23",
        "priceEur": 260850,
        "typeLocal": "Maison",
        "surfaceM2": 110,
        "isVefa": false
      }
    ]
  },
  "94129c0b85d5": {
    "id": "94129c0b85d5",
    "label": "3 RUE MOZART, Clapiers",
    "lat": 43.655772,
    "lng": 3.88869,
    "transactions": [
      {
        "date": "2020-10-06",
        "priceEur": 523600,
        "typeLocal": "Maison",
        "surfaceM2": 136,
        "isVefa": false
      }
    ]
  },
  "50215803fc15": {
    "id": "50215803fc15",
    "label": "3 RUE JOSEPH DELTEIL, Clapiers",
    "lat": 43.652579,
    "lng": 3.884213,
    "transactions": [
      {
        "date": "2020-12-30",
        "priceEur": 132500,
        "typeLocal": "Appartement",
        "surfaceM2": 24,
        "isVefa": false
      },
      {
        "date": "2020-11-20",
        "priceEur": 258000,
        "typeLocal": "Appartement",
        "surfaceM2": 60,
        "isVefa": true
      },
      {
        "date": "2020-10-21",
        "priceEur": 243000,
        "typeLocal": "Appartement",
        "surfaceM2": 63,
        "isVefa": true
      }
    ]
  },
  "0e504abca529": {
    "id": "0e504abca529",
    "label": "100 RUE DE MONTFERRIER, Clapiers",
    "lat": 43.65494,
    "lng": 3.878476,
    "transactions": [
      {
        "date": "2022-06-07",
        "priceEur": 12000,
        "typeLocal": "Appartement",
        "surfaceM2": 58,
        "isVefa": false
      },
      {
        "date": "2021-07-05",
        "priceEur": 96300,
        "typeLocal": "Appartement",
        "surfaceM2": 26,
        "isVefa": false
      },
      {
        "date": "2021-03-05",
        "priceEur": 100000,
        "typeLocal": "Appartement",
        "surfaceM2": 26,
        "isVefa": false
      },
      {
        "date": "2021-01-12",
        "priceEur": 109500,
        "typeLocal": "Appartement",
        "surfaceM2": 26,
        "isVefa": false
      },
      {
        "date": "2020-10-29",
        "priceEur": 240000,
        "typeLocal": "Appartement",
        "surfaceM2": 58,
        "isVefa": false
      }
    ]
  },
  "339eb1adc731": {
    "id": "339eb1adc731",
    "label": "560 RUE DU ROMARIN, Clapiers",
    "lat": 43.65935,
    "lng": 3.886136,
    "transactions": [
      {
        "date": "2025-05-14",
        "priceEur": 117500,
        "typeLocal": "Appartement",
        "surfaceM2": 30,
        "isVefa": false
      },
      {
        "date": "2024-09-10",
        "priceEur": 100500,
        "typeLocal": "Appartement",
        "surfaceM2": 29,
        "isVefa": false
      },
      {
        "date": "2024-06-06",
        "priceEur": 84113,
        "typeLocal": "Appartement",
        "surfaceM2": 30,
        "isVefa": false
      },
      {
        "date": "2023-07-28",
        "priceEur": 80000,
        "typeLocal": "Appartement",
        "surfaceM2": 39,
        "isVefa": false
      },
      {
        "date": "2023-07-28",
        "priceEur": 80000,
        "typeLocal": "Appartement",
        "surfaceM2": 29,
        "isVefa": false
      },
      {
        "date": "2023-07-03",
        "priceEur": 85500,
        "typeLocal": "Appartement",
        "surfaceM2": 30,
        "isVefa": false
      },
      {
        "date": "2023-05-25",
        "priceEur": 120000,
        "typeLocal": "Appartement",
        "surfaceM2": 30,
        "isVefa": false
      },
      {
        "date": "2023-05-10",
        "priceEur": 98750,
        "typeLocal": "Appartement",
        "surfaceM2": 30,
        "isVefa": false
      },
      {
        "date": "2022-11-04",
        "priceEur": 86000,
        "typeLocal": "Appartement",
        "surfaceM2": 30,
        "isVefa": false
      },
      {
        "date": "2022-05-24",
        "priceEur": 270500,
        "typeLocal": "Appartement",
        "surfaceM2": 30,
        "isVefa": false
      },
      {
        "date": "2022-05-24",
        "priceEur": 270500,
        "typeLocal": "Appartement",
        "surfaceM2": 30,
        "isVefa": false
      },
      {
        "date": "2022-05-17",
        "priceEur": 75000,
        "typeLocal": "Appartement",
        "surfaceM2": 30,
        "isVefa": false
      },
      {
        "date": "2022-05-11",
        "priceEur": 164000,
        "typeLocal": "Appartement",
        "surfaceM2": 30,
        "isVefa": false
      },
      {
        "date": "2022-05-11",
        "priceEur": 164000,
        "typeLocal": "Appartement",
        "surfaceM2": 30,
        "isVefa": false
      },
      {
        "date": "2022-04-07",
        "priceEur": 286500,
        "typeLocal": "Appartement",
        "surfaceM2": 37,
        "isVefa": false
      },
      {
        "date": "2022-04-07",
        "priceEur": 286500,
        "typeLocal": "Appartement",
        "surfaceM2": 39,
        "isVefa": false
      },
      {
        "date": "2022-04-07",
        "priceEur": 286500,
        "typeLocal": "Appartement",
        "surfaceM2": 29,
        "isVefa": false
      },
      {
        "date": "2022-02-08",
        "priceEur": 60000,
        "typeLocal": "Appartement",
        "surfaceM2": 24,
        "isVefa": false
      },
      {
        "date": "2021-11-22",
        "priceEur": 80000,
        "typeLocal": "Appartement",
        "surfaceM2": 29,
        "isVefa": false
      },
      {
        "date": "2021-09-21",
        "priceEur": 70000,
        "typeLocal": "Appartement",
        "surfaceM2": 30,
        "isVefa": false
      },
      {
        "date": "2021-09-13",
        "priceEur": 80370,
        "typeLocal": "Appartement",
        "surfaceM2": 29,
        "isVefa": false
      },
      {
        "date": "2021-07-21",
        "priceEur": 75000,
        "typeLocal": "Appartement",
        "surfaceM2": 29,
        "isVefa": false
      },
      {
        "date": "2021-07-08",
        "priceEur": 76000,
        "typeLocal": "Appartement",
        "surfaceM2": 30,
        "isVefa": false
      },
      {
        "date": "2021-06-09",
        "priceEur": 70000,
        "typeLocal": "Appartement",
        "surfaceM2": 30,
        "isVefa": false
      },
      {
        "date": "2021-05-03",
        "priceEur": 74000,
        "typeLocal": "Appartement",
        "surfaceM2": 30,
        "isVefa": false
      },
      {
        "date": "2021-04-19",
        "priceEur": 72000,
        "typeLocal": "Appartement",
        "surfaceM2": 30,
        "isVefa": false
      },
      {
        "date": "2021-03-15",
        "priceEur": 71315,
        "typeLocal": "Appartement",
        "surfaceM2": 30,
        "isVefa": false
      },
      {
        "date": "2021-01-26",
        "priceEur": 84900,
        "typeLocal": "Appartement",
        "surfaceM2": 30,
        "isVefa": false
      },
      {
        "date": "2020-10-23",
        "priceEur": 71000,
        "typeLocal": "Appartement",
        "surfaceM2": 30,
        "isVefa": false
      }
    ]
  },
  "4772b51d80ac": {
    "id": "4772b51d80ac",
    "label": "3 PL MAX LEENHARDT, Clapiers",
    "lat": 43.657485,
    "lng": 3.886136,
    "transactions": [
      {
        "date": "2023-06-20",
        "priceEur": 195630,
        "typeLocal": "Appartement",
        "surfaceM2": 42,
        "isVefa": false
      },
      {
        "date": "2022-04-04",
        "priceEur": 151000,
        "typeLocal": "Appartement",
        "surfaceM2": 41,
        "isVefa": false
      },
      {
        "date": "2020-12-11",
        "priceEur": 110000,
        "typeLocal": "Appartement",
        "surfaceM2": 37,
        "isVefa": false
      }
    ]
  },
  "baa3f929900a": {
    "id": "baa3f929900a",
    "label": "10 RUE PAUL CEZANNE, Clapiers",
    "lat": 43.657016,
    "lng": 3.881169,
    "transactions": [
      {
        "date": "2021-01-22",
        "priceEur": 392000,
        "typeLocal": "Maison",
        "surfaceM2": 130,
        "isVefa": false
      }
    ]
  },
  "33e5bd32a2db": {
    "id": "33e5bd32a2db",
    "label": "4 RUE MOZART, Clapiers",
    "lat": 43.655504,
    "lng": 3.888704,
    "transactions": [
      {
        "date": "2021-01-15",
        "priceEur": 537000,
        "typeLocal": "Maison",
        "surfaceM2": 118,
        "isVefa": false
      }
    ]
  },
  "37791f3acf6e": {
    "id": "37791f3acf6e",
    "label": "29 RUE FREDERIC BAZILLE, Clapiers",
    "lat": 43.65682,
    "lng": 3.883747,
    "transactions": [
      {
        "date": "2021-02-09",
        "priceEur": 410000,
        "typeLocal": "Maison",
        "surfaceM2": 100,
        "isVefa": false
      }
    ]
  },
  "59bfbcae86c1": {
    "id": "59bfbcae86c1",
    "label": "224 RUE DES LITANIES, Clapiers",
    "lat": 43.653994,
    "lng": 3.887342,
    "transactions": [
      {
        "date": "2021-02-23",
        "priceEur": 356430,
        "typeLocal": "Maison",
        "surfaceM2": 99,
        "isVefa": false
      }
    ]
  },
  "0fa929a97523": {
    "id": "0fa929a97523",
    "label": "9 RUE DE LA SOURCE, Clapiers",
    "lat": 43.652147,
    "lng": 3.879472,
    "transactions": [
      {
        "date": "2021-03-08",
        "priceEur": 400000,
        "typeLocal": "Maison",
        "surfaceM2": 95,
        "isVefa": false
      },
      {
        "date": "2021-03-08",
        "priceEur": 400000,
        "typeLocal": "Maison",
        "surfaceM2": 95,
        "isVefa": false
      }
    ]
  },
  "a292888c05d2": {
    "id": "a292888c05d2",
    "label": "19 RUE DES ASPHODELES, Clapiers",
    "lat": 43.656064,
    "lng": 3.880327,
    "transactions": [
      {
        "date": "2021-10-28",
        "priceEur": 366000,
        "typeLocal": "Maison",
        "surfaceM2": 92,
        "isVefa": false
      },
      {
        "date": "2021-04-28",
        "priceEur": 300000,
        "typeLocal": "Maison",
        "surfaceM2": 92,
        "isVefa": false
      }
    ]
  },
  "365ba79bdcf6": {
    "id": "365ba79bdcf6",
    "label": "31 RUE DES LITANIES, Clapiers",
    "lat": 43.653905,
    "lng": 3.883359,
    "transactions": [
      {
        "date": "2021-04-28",
        "priceEur": 388000,
        "typeLocal": "Maison",
        "surfaceM2": 143,
        "isVefa": false
      }
    ]
  },
  "a13fc2718dc6": {
    "id": "a13fc2718dc6",
    "label": "1 RUE DES ERABLES, Clapiers",
    "lat": 43.655151,
    "lng": 3.885217,
    "transactions": [
      {
        "date": "2021-06-04",
        "priceEur": 470000,
        "typeLocal": "Maison",
        "surfaceM2": 108,
        "isVefa": false
      }
    ]
  },
  "a5d4c009ebf4": {
    "id": "a5d4c009ebf4",
    "label": "8 RUE DES MOULIERES, Clapiers",
    "lat": 43.657392,
    "lng": 3.88686,
    "transactions": [
      {
        "date": "2021-05-31",
        "priceEur": 338800,
        "typeLocal": "Maison",
        "surfaceM2": 111,
        "isVefa": false
      }
    ]
  },
  "2a2144d8109a": {
    "id": "2a2144d8109a",
    "label": "13 GR GRAND'RUE, Clapiers",
    "lat": 43.657014,
    "lng": 3.887013,
    "transactions": [
      {
        "date": "2021-06-30",
        "priceEur": 110000,
        "typeLocal": "Maison",
        "surfaceM2": 52,
        "isVefa": false
      }
    ]
  },
  "b6af0f775a0e": {
    "id": "b6af0f775a0e",
    "label": "6 RUE ANDRE BOURRELY, Clapiers",
    "lat": 43.652534,
    "lng": 3.886271,
    "transactions": [
      {
        "date": "2022-11-14",
        "priceEur": 476700,
        "typeLocal": "Maison",
        "surfaceM2": 90,
        "isVefa": false
      },
      {
        "date": "2021-07-13",
        "priceEur": 384714,
        "typeLocal": "Maison",
        "surfaceM2": 90,
        "isVefa": false
      }
    ]
  },
  "6e3b6dc2997f": {
    "id": "6e3b6dc2997f",
    "label": "19 RUE DE LA CANTONADE, Clapiers",
    "lat": 43.65739,
    "lng": 3.888496,
    "transactions": [
      {
        "date": "2021-07-15",
        "priceEur": 100000,
        "typeLocal": "Maison",
        "surfaceM2": 33,
        "isVefa": false
      }
    ]
  },
  "5b2c413545cc": {
    "id": "5b2c413545cc",
    "label": "4B RUE DU CHATEAU, Clapiers",
    "lat": 43.656831,
    "lng": 3.888684,
    "transactions": [
      {
        "date": "2021-07-29",
        "priceEur": 192200,
        "typeLocal": "Appartement",
        "surfaceM2": 43,
        "isVefa": false
      }
    ]
  },
  "f30209ed884c": {
    "id": "f30209ed884c",
    "label": "7 RUE DE L'EOLIENNE, Clapiers",
    "lat": 43.655891,
    "lng": 3.888148,
    "transactions": [
      {
        "date": "2021-08-06",
        "priceEur": 478700,
        "typeLocal": "Maison",
        "surfaceM2": 142,
        "isVefa": false
      }
    ]
  },
  "c10be35922f4": {
    "id": "c10be35922f4",
    "label": "3 RUE CHARLES CAMPROUX, Clapiers",
    "lat": 43.652017,
    "lng": 3.886197,
    "transactions": [
      {
        "date": "2021-05-06",
        "priceEur": 635102.06,
        "typeLocal": "Maison",
        "surfaceM2": 150,
        "isVefa": false
      }
    ]
  },
  "8c1234a279e2": {
    "id": "8c1234a279e2",
    "label": "2 RUE DE LA PISTOULE, Clapiers",
    "lat": 43.657112,
    "lng": 3.879416,
    "transactions": [
      {
        "date": "2021-08-26",
        "priceEur": 546450,
        "typeLocal": "Maison",
        "surfaceM2": 134,
        "isVefa": false
      }
    ]
  },
  "bf2e09b22fca": {
    "id": "bf2e09b22fca",
    "label": "2 RUE DU STADE, Clapiers",
    "lat": 43.656793,
    "lng": 3.888372,
    "transactions": [
      {
        "date": "2021-09-13",
        "priceEur": 200000,
        "typeLocal": "Maison",
        "surfaceM2": 51,
        "isVefa": false
      }
    ]
  },
  "161280c11b0f": {
    "id": "161280c11b0f",
    "label": "4 RUE DU CHATEAU, Clapiers",
    "lat": 43.656831,
    "lng": 3.888684,
    "transactions": [
      {
        "date": "2021-09-07",
        "priceEur": 164700,
        "typeLocal": "Appartement",
        "surfaceM2": 53,
        "isVefa": false
      }
    ]
  },
  "35d40df0a899": {
    "id": "35d40df0a899",
    "label": "17 RUE FREDERIC BAZILLE, Clapiers",
    "lat": 43.656097,
    "lng": 3.882351,
    "transactions": [
      {
        "date": "2021-09-27",
        "priceEur": 521500,
        "typeLocal": "Maison",
        "surfaceM2": 116,
        "isVefa": false
      }
    ]
  },
  "5d7aad6f5515": {
    "id": "5d7aad6f5515",
    "label": "3 RUE DES ASPHODELES, Clapiers",
    "lat": 43.655853,
    "lng": 3.879832,
    "transactions": [
      {
        "date": "2021-09-10",
        "priceEur": 326600,
        "typeLocal": "Maison",
        "surfaceM2": 81,
        "isVefa": false
      }
    ]
  },
  "c61b6eba6438": {
    "id": "c61b6eba6438",
    "label": "17 RUE DE LA CANTONADE, Clapiers",
    "lat": 43.657264,
    "lng": 3.888544,
    "transactions": [
      {
        "date": "2023-04-21",
        "priceEur": 305000,
        "typeLocal": "Maison",
        "surfaceM2": 88,
        "isVefa": false
      },
      {
        "date": "2021-10-08",
        "priceEur": 266050,
        "typeLocal": "Maison",
        "surfaceM2": 88,
        "isVefa": false
      }
    ]
  },
  "215d96cbe7aa": {
    "id": "215d96cbe7aa",
    "label": "6 RUE MOZART, Clapiers",
    "lat": 43.655486,
    "lng": 3.888869,
    "transactions": [
      {
        "date": "2021-10-25",
        "priceEur": 630000,
        "typeLocal": "Maison",
        "surfaceM2": 120,
        "isVefa": false
      }
    ]
  },
  "34e666fb6723": {
    "id": "34e666fb6723",
    "label": "10 RUE MOZART, Clapiers",
    "lat": 43.655747,
    "lng": 3.889051,
    "transactions": [
      {
        "date": "2021-10-15",
        "priceEur": 528900,
        "typeLocal": "Maison",
        "surfaceM2": 125,
        "isVefa": false
      }
    ]
  },
  "5266a8f112fc": {
    "id": "5266a8f112fc",
    "label": "5 PL MAX LEENHARDT, Clapiers",
    "lat": 43.657485,
    "lng": 3.886136,
    "transactions": [
      {
        "date": "2024-03-20",
        "priceEur": 176020,
        "typeLocal": "Appartement",
        "surfaceM2": 44,
        "isVefa": false
      },
      {
        "date": "2021-12-10",
        "priceEur": 113300,
        "typeLocal": "Appartement",
        "surfaceM2": 26,
        "isVefa": false
      }
    ]
  },
  "05adaf3926a7": {
    "id": "05adaf3926a7",
    "label": "4 RUE DES ASPHODELES, Clapiers",
    "lat": 43.65576,
    "lng": 3.879774,
    "transactions": [
      {
        "date": "2021-12-02",
        "priceEur": 390000,
        "typeLocal": "Maison",
        "surfaceM2": 81,
        "isVefa": false
      }
    ]
  },
  "8d4ca2eefe80": {
    "id": "8d4ca2eefe80",
    "label": "3 AV CHARLES DE GAULLE, Clapiers",
    "lat": 43.656633,
    "lng": 3.884933,
    "transactions": [
      {
        "date": "2022-01-14",
        "priceEur": 270000,
        "typeLocal": "Maison",
        "surfaceM2": 132,
        "isVefa": false
      }
    ]
  },
  "c04463ff9b09": {
    "id": "c04463ff9b09",
    "label": "170 RUE DES LITANIES, Clapiers",
    "lat": 43.654236,
    "lng": 3.886731,
    "transactions": [
      {
        "date": "2022-01-28",
        "priceEur": 364320,
        "typeLocal": "Maison",
        "surfaceM2": 94,
        "isVefa": false
      }
    ]
  },
  "9c547c0cc953": {
    "id": "9c547c0cc953",
    "label": "18 RUE JOSEPH DELTEIL, Clapiers",
    "lat": 43.65293,
    "lng": 3.883759,
    "transactions": [
      {
        "date": "2022-02-17",
        "priceEur": 336100,
        "typeLocal": "Maison",
        "surfaceM2": 67,
        "isVefa": false
      }
    ]
  },
  "d5f78500c715": {
    "id": "d5f78500c715",
    "label": "140 RUE JEAN MOULIN, Clapiers",
    "lat": 43.655236,
    "lng": 3.888397,
    "transactions": [
      {
        "date": "2022-03-08",
        "priceEur": 490000,
        "typeLocal": "Maison",
        "surfaceM2": 128,
        "isVefa": false
      }
    ]
  },
  "14043516e815": {
    "id": "14043516e815",
    "label": "22 RUE JOSEPH DELTEIL, Clapiers",
    "lat": 43.652966,
    "lng": 3.883217,
    "transactions": [
      {
        "date": "2024-06-10",
        "priceEur": 290000,
        "typeLocal": "Appartement",
        "surfaceM2": 71,
        "isVefa": false
      },
      {
        "date": "2023-09-29",
        "priceEur": 275000,
        "typeLocal": "Appartement",
        "surfaceM2": 74,
        "isVefa": false
      },
      {
        "date": "2023-09-07",
        "priceEur": 270000,
        "typeLocal": "Appartement",
        "surfaceM2": 60,
        "isVefa": false
      },
      {
        "date": "2022-02-22",
        "priceEur": 301400,
        "typeLocal": "Appartement",
        "surfaceM2": 86,
        "isVefa": false
      }
    ]
  },
  "65a16c8a4519": {
    "id": "65a16c8a4519",
    "label": "32 RUE DU BICENTENAIRE, Clapiers",
    "lat": 43.653779,
    "lng": 3.883145,
    "transactions": [
      {
        "date": "2022-04-04",
        "priceEur": 340000,
        "typeLocal": "Maison",
        "surfaceM2": 90,
        "isVefa": false
      }
    ]
  },
  "73eb766f3236": {
    "id": "73eb766f3236",
    "label": "83 VC TRAVERSA DE L'ESCOUTAIRE, Clapiers",
    "lat": 43.658463,
    "lng": 3.885305,
    "transactions": [
      {
        "date": "2022-05-30",
        "priceEur": 1349780,
        "typeLocal": "Maison",
        "surfaceM2": 207,
        "isVefa": false
      }
    ]
  },
  "cdc1ccc6d0cb": {
    "id": "cdc1ccc6d0cb",
    "label": "4 RUE DE LA PAIX, Clapiers",
    "lat": 43.654276,
    "lng": 3.884286,
    "transactions": [
      {
        "date": "2022-06-17",
        "priceEur": 466450,
        "typeLocal": "Maison",
        "surfaceM2": 104,
        "isVefa": false
      }
    ]
  },
  "794cae4ec098": {
    "id": "794cae4ec098",
    "label": "1 AV CHARLES DE GAULLE, Clapiers",
    "lat": 43.656788,
    "lng": 3.885652,
    "transactions": [
      {
        "date": "2022-08-16",
        "priceEur": 315000,
        "typeLocal": "Appartement",
        "surfaceM2": 35,
        "isVefa": false
      },
      {
        "date": "2022-08-16",
        "priceEur": 315000,
        "typeLocal": "Appartement",
        "surfaceM2": 26,
        "isVefa": false
      },
      {
        "date": "2022-08-16",
        "priceEur": 315000,
        "typeLocal": "Appartement",
        "surfaceM2": 70,
        "isVefa": false
      }
    ]
  },
  "34d3bb8a85a3": {
    "id": "34d3bb8a85a3",
    "label": "6 RUE DES COTEAUX, Clapiers",
    "lat": 43.656231,
    "lng": 3.879711,
    "transactions": [
      {
        "date": "2022-09-29",
        "priceEur": 551250,
        "typeLocal": "Maison",
        "surfaceM2": 130,
        "isVefa": false
      }
    ]
  },
  "9823d318475a": {
    "id": "9823d318475a",
    "label": "14 RUE DES ERABLES, Clapiers",
    "lat": 43.654793,
    "lng": 3.885267,
    "transactions": [
      {
        "date": "2022-11-29",
        "priceEur": 541825,
        "typeLocal": "Maison",
        "surfaceM2": 120,
        "isVefa": false
      }
    ]
  },
  "54c2cef5c9c7": {
    "id": "54c2cef5c9c7",
    "label": "6A RUE DES COTEAUX, Clapiers",
    "lat": 43.656582,
    "lng": 3.879593,
    "transactions": [
      {
        "date": "2022-11-30",
        "priceEur": 535000,
        "typeLocal": "Maison",
        "surfaceM2": 119,
        "isVefa": false
      }
    ]
  },
  "d7c9dee28980": {
    "id": "d7c9dee28980",
    "label": "1B RUE DES ERABLES, Clapiers",
    "lat": 43.655418,
    "lng": 3.885209,
    "transactions": [
      {
        "date": "2022-12-20",
        "priceEur": 65000,
        "typeLocal": "Maison",
        "surfaceM2": 109,
        "isVefa": false
      }
    ]
  },
  "085069dd0a47": {
    "id": "085069dd0a47",
    "label": "13 RUE DE LA FONTAINE, Clapiers",
    "lat": 43.657154,
    "lng": 3.880858,
    "transactions": [
      {
        "date": "2022-12-19",
        "priceEur": 590000,
        "typeLocal": "Maison",
        "surfaceM2": 124,
        "isVefa": false
      }
    ]
  },
  "3a11e62baab8": {
    "id": "3a11e62baab8",
    "label": "2F RUE DE LA SOURCE, Clapiers",
    "lat": 43.652406,
    "lng": 3.879775,
    "transactions": [
      {
        "date": "2022-12-21",
        "priceEur": 9000,
        "typeLocal": "Maison",
        "surfaceM2": 85,
        "isVefa": false
      }
    ]
  },
  "49699d80c936": {
    "id": "49699d80c936",
    "label": "4 AV CHARLES DE GAULLE, Clapiers",
    "lat": 43.656965,
    "lng": 3.88489,
    "transactions": [
      {
        "date": "2022-12-27",
        "priceEur": 300000,
        "typeLocal": "Maison",
        "surfaceM2": 165,
        "isVefa": false
      },
      {
        "date": "2022-12-27",
        "priceEur": 300000,
        "typeLocal": "Maison",
        "surfaceM2": 165,
        "isVefa": false
      }
    ]
  },
  "0f8bbb760f5e": {
    "id": "0f8bbb760f5e",
    "label": "1 GR GRAND'RUE, Clapiers",
    "lat": 43.656943,
    "lng": 3.888147,
    "transactions": [
      {
        "date": "2023-03-21",
        "priceEur": 226150,
        "typeLocal": "Appartement",
        "surfaceM2": 53,
        "isVefa": false
      }
    ]
  },
  "87c5a66d0e60": {
    "id": "87c5a66d0e60",
    "label": "12 RUE MOZART, Clapiers",
    "lat": 43.655957,
    "lng": 3.889097,
    "transactions": [
      {
        "date": "2023-03-28",
        "priceEur": 510000,
        "typeLocal": "Maison",
        "surfaceM2": 127,
        "isVefa": false
      }
    ]
  },
  "917fee985541": {
    "id": "917fee985541",
    "label": "9 RUE MOZART, Clapiers",
    "lat": 43.656044,
    "lng": 3.888308,
    "transactions": [
      {
        "date": "2023-04-18",
        "priceEur": 689400,
        "typeLocal": "Maison",
        "surfaceM2": 165,
        "isVefa": false
      }
    ]
  },
  "3a3d0f3c3fa1": {
    "id": "3a3d0f3c3fa1",
    "label": "6 RUE MARIE JEAN CONDORCET, Clapiers",
    "lat": 43.654806,
    "lng": 3.882445,
    "transactions": [
      {
        "date": "2023-06-05",
        "priceEur": 400000,
        "typeLocal": "Maison",
        "surfaceM2": 148,
        "isVefa": false
      }
    ]
  },
  "369351bcc2cf": {
    "id": "369351bcc2cf",
    "label": "1 RUE DE L'EOLIENNE, Clapiers",
    "lat": 43.655978,
    "lng": 3.886317,
    "transactions": [
      {
        "date": "2023-06-22",
        "priceEur": 300000,
        "typeLocal": "Maison",
        "surfaceM2": 108,
        "isVefa": false
      }
    ]
  },
  "311d2471ff86": {
    "id": "311d2471ff86",
    "label": "11 GR GRAND'RUE, Clapiers",
    "lat": 43.657021,
    "lng": 3.887141,
    "transactions": [
      {
        "date": "2023-06-30",
        "priceEur": 180000,
        "typeLocal": "Appartement",
        "surfaceM2": 76,
        "isVefa": false
      },
      {
        "date": "2023-06-30",
        "priceEur": 180000,
        "typeLocal": "Appartement",
        "surfaceM2": 26,
        "isVefa": false
      }
    ]
  },
  "1868877e3c47": {
    "id": "1868877e3c47",
    "label": "11 RUE DE LA PAIX, Clapiers",
    "lat": 43.653833,
    "lng": 3.884312,
    "transactions": [
      {
        "date": "2024-04-30",
        "priceEur": 556300,
        "typeLocal": "Maison",
        "surfaceM2": 104,
        "isVefa": false
      },
      {
        "date": "2023-07-21",
        "priceEur": 534700,
        "typeLocal": "Maison",
        "surfaceM2": 104,
        "isVefa": false
      }
    ]
  },
  "4c76ade7bdec": {
    "id": "4c76ade7bdec",
    "label": "9 RUE PAUL CEZANNE, Clapiers",
    "lat": 43.657021,
    "lng": 3.881699,
    "transactions": [
      {
        "date": "2023-08-09",
        "priceEur": 425000,
        "typeLocal": "Maison",
        "surfaceM2": 119,
        "isVefa": false
      }
    ]
  },
  "4199bd5abcf5": {
    "id": "4199bd5abcf5",
    "label": "4 RUE PIERRE MENDES FRANCE, Clapiers",
    "lat": 43.655527,
    "lng": 3.882531,
    "transactions": [
      {
        "date": "2023-12-19",
        "priceEur": 82500,
        "typeLocal": "Maison",
        "surfaceM2": 85,
        "isVefa": false
      }
    ]
  },
  "51cd6d30bf63": {
    "id": "51cd6d30bf63",
    "label": "5 PLAN DU CLAPAS, Clapiers",
    "lat": 43.657866,
    "lng": 3.880382,
    "transactions": [
      {
        "date": "2023-12-29",
        "priceEur": 244080,
        "typeLocal": "Maison",
        "surfaceM2": 99,
        "isVefa": false
      }
    ]
  },
  "711e64df1362": {
    "id": "711e64df1362",
    "label": "3 RUE DE LA POSTE, Clapiers",
    "lat": 43.657016,
    "lng": 3.888751,
    "transactions": [
      {
        "date": "2024-01-22",
        "priceEur": 360000,
        "typeLocal": "Appartement",
        "surfaceM2": 80,
        "isVefa": false
      },
      {
        "date": "2024-01-22",
        "priceEur": 360000,
        "typeLocal": "Appartement",
        "surfaceM2": 66,
        "isVefa": false
      }
    ]
  },
  "33175b687ea6": {
    "id": "33175b687ea6",
    "label": "17B GR GRAND'RUE, Clapiers",
    "lat": 43.656727,
    "lng": 3.886441,
    "transactions": [
      {
        "date": "2024-02-22",
        "priceEur": 480000,
        "typeLocal": "Maison",
        "surfaceM2": 90,
        "isVefa": false
      }
    ]
  },
  "1d2a002371cc": {
    "id": "1d2a002371cc",
    "label": "9 RUE DE LA MERIDIENNE, Clapiers",
    "lat": 43.654084,
    "lng": 3.88476,
    "transactions": [
      {
        "date": "2024-04-02",
        "priceEur": 395000,
        "typeLocal": "Maison",
        "surfaceM2": 91,
        "isVefa": false
      }
    ]
  },
  "37a5e1512b33": {
    "id": "37a5e1512b33",
    "label": "5 RUE ANDRE CHAMSON, Clapiers",
    "lat": 43.652624,
    "lng": 3.886825,
    "transactions": [
      {
        "date": "2024-06-13",
        "priceEur": 534850,
        "typeLocal": "Maison",
        "surfaceM2": 110,
        "isVefa": false
      }
    ]
  },
  "b55068a5aba8": {
    "id": "b55068a5aba8",
    "label": "2 RUE DE REGAGNAS, Clapiers",
    "lat": 43.656849,
    "lng": 3.882768,
    "transactions": [
      {
        "date": "2024-06-05",
        "priceEur": 477850,
        "typeLocal": "Maison",
        "surfaceM2": 86,
        "isVefa": false
      }
    ]
  },
  "0b55e555ca25": {
    "id": "0b55e555ca25",
    "label": "20 RUE DU JEU, Clapiers",
    "lat": 43.653909,
    "lng": 3.885905,
    "transactions": [
      {
        "date": "2024-07-10",
        "priceEur": 330000,
        "typeLocal": "Maison",
        "surfaceM2": 98,
        "isVefa": false
      }
    ]
  },
  "f810d2e39b06": {
    "id": "f810d2e39b06",
    "label": "24 RUE DU JEU, Clapiers",
    "lat": 43.654012,
    "lng": 3.885648,
    "transactions": [
      {
        "date": "2024-06-27",
        "priceEur": 418000,
        "typeLocal": "Maison",
        "surfaceM2": 99,
        "isVefa": false
      }
    ]
  },
  "0d2b64da9800": {
    "id": "0d2b64da9800",
    "label": "47B RUE DES JARDINS, Clapiers",
    "lat": 43.65614,
    "lng": 3.88443,
    "transactions": [
      {
        "date": "2024-07-25",
        "priceEur": 551740,
        "typeLocal": "Maison",
        "surfaceM2": 100,
        "isVefa": false
      }
    ]
  },
  "ee0f585354c8": {
    "id": "ee0f585354c8",
    "label": "7 RUE DE LA PISTOULE, Clapiers",
    "lat": 43.656511,
    "lng": 3.879234,
    "transactions": [
      {
        "date": "2024-07-15",
        "priceEur": 450300,
        "typeLocal": "Maison",
        "surfaceM2": 103,
        "isVefa": false
      }
    ]
  },
  "89076229900a": {
    "id": "89076229900a",
    "label": "8 RUE YVES MONTAND, Clapiers",
    "lat": 43.656261,
    "lng": 3.887012,
    "transactions": [
      {
        "date": "2024-07-24",
        "priceEur": 493550,
        "typeLocal": "Maison",
        "surfaceM2": 125,
        "isVefa": false
      }
    ]
  },
  "31b997e16327": {
    "id": "31b997e16327",
    "label": "5 RUE DES ERABLES, Clapiers",
    "lat": 43.655129,
    "lng": 3.885957,
    "transactions": [
      {
        "date": "2024-08-29",
        "priceEur": 550000,
        "typeLocal": "Maison",
        "surfaceM2": 166,
        "isVefa": false
      }
    ]
  },
  "de156f3b2a58": {
    "id": "de156f3b2a58",
    "label": "15 PLAN DU CLAPAS, Clapiers",
    "lat": 43.657718,
    "lng": 3.880872,
    "transactions": [
      {
        "date": "2024-11-12",
        "priceEur": 202850,
        "typeLocal": "Maison",
        "surfaceM2": 84,
        "isVefa": false
      }
    ]
  },
  "4e6d118a6f13": {
    "id": "4e6d118a6f13",
    "label": "10 RUE DU PRE, Clapiers",
    "lat": 43.655891,
    "lng": 3.884995,
    "transactions": [
      {
        "date": "2025-01-08",
        "priceEur": 295900,
        "typeLocal": "Maison",
        "surfaceM2": 98,
        "isVefa": false
      }
    ]
  },
  "3a6125c6fe37": {
    "id": "3a6125c6fe37",
    "label": "105 VC TRAVERSA DE L'ESCOUTAIRE, Clapiers",
    "lat": 43.657956,
    "lng": 3.885097,
    "transactions": [
      {
        "date": "2025-01-07",
        "priceEur": 880000,
        "typeLocal": "Maison",
        "surfaceM2": 160,
        "isVefa": false
      }
    ]
  },
  "443463841402": {
    "id": "443463841402",
    "label": "145 RUE DES JARDINS, Clapiers",
    "lat": 43.655361,
    "lng": 3.884646,
    "transactions": [
      {
        "date": "2025-01-07",
        "priceEur": 577000,
        "typeLocal": "Maison",
        "surfaceM2": 112,
        "isVefa": false
      }
    ]
  },
  "0bd03f7d1a0b": {
    "id": "0bd03f7d1a0b",
    "label": "8 RUE PAULE PALLARES-ROCHE, Clapiers",
    "lat": 43.653408,
    "lng": 3.884747,
    "transactions": [
      {
        "date": "2025-01-30",
        "priceEur": 480000,
        "typeLocal": "Maison",
        "surfaceM2": 81,
        "isVefa": false
      },
      {
        "date": "2025-01-30",
        "priceEur": 480000,
        "typeLocal": "Maison",
        "surfaceM2": 104,
        "isVefa": false
      }
    ]
  },
  "1dbc875780a0": {
    "id": "1dbc875780a0",
    "label": "12 RUE DES COTEAUX, Clapiers",
    "lat": 43.656104,
    "lng": 3.879643,
    "transactions": [
      {
        "date": "2025-02-20",
        "priceEur": 526500,
        "typeLocal": "Maison",
        "surfaceM2": 100,
        "isVefa": false
      }
    ]
  },
  "79265507166a": {
    "id": "79265507166a",
    "label": "8 RUE DU CHATEAU, Clapiers",
    "lat": 43.656784,
    "lng": 3.888784,
    "transactions": [
      {
        "date": "2025-03-03",
        "priceEur": 127000,
        "typeLocal": "Appartement",
        "surfaceM2": 25,
        "isVefa": false
      },
      {
        "date": "2025-03-03",
        "priceEur": 127000,
        "typeLocal": "Appartement",
        "surfaceM2": 25,
        "isVefa": false
      }
    ]
  },
  "ceedbf22d775": {
    "id": "ceedbf22d775",
    "label": "130 CHE DES TEREBINTHES, Clapiers",
    "lat": 43.657921,
    "lng": 3.878242,
    "transactions": [
      {
        "date": "2025-03-10",
        "priceEur": 921000,
        "typeLocal": "Maison",
        "surfaceM2": 115,
        "isVefa": false
      }
    ]
  },
  "0de4a83c16f9": {
    "id": "0de4a83c16f9",
    "label": "4 RUE DE LA CANTONADE, Clapiers",
    "lat": 43.657016,
    "lng": 3.888751,
    "transactions": [
      {
        "date": "2025-06-23",
        "priceEur": 370000,
        "typeLocal": "Appartement",
        "surfaceM2": 91,
        "isVefa": false
      }
    ]
  },
  "8aa1ed783199": {
    "id": "8aa1ed783199",
    "label": "6 RUE DU CHATEAU, Clapiers",
    "lat": 43.656805,
    "lng": 3.888748,
    "transactions": [
      {
        "date": "2025-06-24",
        "priceEur": 215000,
        "typeLocal": "Maison",
        "surfaceM2": 71,
        "isVefa": false
      }
    ]
  }
}