{
  "2bec3b6b6418": {
    "id": "2bec3b6b6418",
    "label": "155 RUE DU PARC - FAUVILLE, Terres-de-Caux",
    "lat": 49.655114,
    "lng": 0.594442,
    "transactions": [
      {
        "date": "2021-07-02",
        "priceEur": 283000,
        "typeLocal": "Maison",
        "surfaceM2": 140,
        "isVefa": false
      }
    ]
  },
  "6f7e77c19eac": {
    "id": "6f7e77c19eac",
    "label": "21 RUE DE PEZENAS, Terres-de-Caux",
    "lat": 49.655013,
    "lng": 0.595497,
    "transactions": [
      {
        "date": "2021-08-30",
        "priceEur": 228000,
        "typeLocal": "Maison",
        "surfaceM2": 118,
        "isVefa": false
      }
    ]
  },
  "b8ec1cbe3957": {
    "id": "b8ec1cbe3957",
    "label": "9030 RUE DU PARC - FAUVILLE, Terres-de-Caux",
    "lat": 49.654426,
    "lng": 0.594139,
    "transactions": [
      {
        "date": "2022-05-18",
        "priceEur": 262550,
        "typeLocal": "Maison",
        "surfaceM2": 113,
        "isVefa": false
      }
    ]
  },
  "6bfe3210d1a8": {
    "id": "6bfe3210d1a8",
    "label": "76 RUE D ADISSAN, Terres-de-Caux",
    "lat": 49.654199,
    "lng": 0.596746,
    "transactions": [
      {
        "date": "2022-08-12",
        "priceEur": 248200,
        "typeLocal": "Maison",
        "surfaceM2": 75,
        "isVefa": false
      }
    ]
  },
  "4c6a2a071100": {
    "id": "4c6a2a071100",
    "label": "23 RES DES ACACIAS, Terres-de-Caux",
    "lat": 49.653791,
    "lng": 0.598926,
    "transactions": [
      {
        "date": "2023-03-03",
        "priceEur": 172000,
        "typeLocal": "Maison",
        "surfaceM2": 95,
        "isVefa": false
      }
    ]
  },
  "b55486abb7f9": {
    "id": "b55486abb7f9",
    "label": "69 RUE DE PEZENAS, Terres-de-Caux",
    "lat": 49.654462,
    "lng": 0.595704,
    "transactions": [
      {
        "date": "2023-09-07",
        "priceEur": 209000,
        "typeLocal": "Maison",
        "surfaceM2": 85,
        "isVefa": false
      }
    ]
  },
  "ac3b57468d3a": {
    "id": "ac3b57468d3a",
    "label": "5 RES DES ACACIAS, Terres-de-Caux",
    "lat": 49.653527,
    "lng": 0.599071,
    "transactions": [
      {
        "date": "2024-01-12",
        "priceEur": 157000,
        "typeLocal": "Maison",
        "surfaceM2": 80,
        "isVefa": false
      }
    ]
  },
  "98c9a7d455ba": {
    "id": "98c9a7d455ba",
    "label": "102 SEN DE LA RUETTE, Terres-de-Caux",
    "lat": 49.65364,
    "lng": 0.593656,
    "transactions": [
      {
        "date": "2024-03-26",
        "priceEur": 294400,
        "typeLocal": "Maison",
        "surfaceM2": 115,
        "isVefa": false
      }
    ]
  },
  "de4ad6a44684": {
    "id": "de4ad6a44684",
    "label": "97 RUE DE PEZENAS, Terres-de-Caux",
    "lat": 49.65412,
    "lng": 0.59533,
    "transactions": [
      {
        "date": "2024-05-31",
        "priceEur": 310000,
        "typeLocal": "Maison",
        "surfaceM2": 120,
        "isVefa": false
      }
    ]
  },
  "9b410da9ef25": {
    "id": "9b410da9ef25",
    "label": "151 RUE DU PARC - FAUVILLE, Terres-de-Caux",
    "lat": 49.655266,
    "lng": 0.59407,
    "transactions": [
      {
        "date": "2025-02-10",
        "priceEur": 33250,
        "typeLocal": "Maison",
        "surfaceM2": 118,
        "isVefa": false
      }
    ]
  }
}