{
  "19ccb83054e8": {
    "id": "19ccb83054e8",
    "label": "125 RUE DES COQUELICOTS, Grand-Camp",
    "lat": 49.557651,
    "lng": 0.593586,
    "transactions": [
      {
        "date": "2020-10-28",
        "priceEur": 189000,
        "typeLocal": "Maison",
        "surfaceM2": 101,
        "isVefa": false
      }
    ]
  },
  "594efbcc15ef": {
    "id": "594efbcc15ef",
    "label": "5190 LA CROIX DE FER, Grand-Camp",
    "lat": 49.554259,
    "lng": 0.596797,
    "transactions": [
      {
        "date": "2021-10-28",
        "priceEur": 178000,
        "typeLocal": "Maison",
        "surfaceM2": 101,
        "isVefa": false
      }
    ]
  },
  "906653d3bb30": {
    "id": "906653d3bb30",
    "label": "120 RUE DES COLCHIQUES, Grand-Camp",
    "lat": 49.557698,
    "lng": 0.594722,
    "transactions": [
      {
        "date": "2022-05-24",
        "priceEur": 237000,
        "typeLocal": "Maison",
        "surfaceM2": 100,
        "isVefa": false
      }
    ]
  },
  "883ab1e27fd8": {
    "id": "883ab1e27fd8",
    "label": "240 RUE DES COQUELICOTS, Grand-Camp",
    "lat": 49.55645,
    "lng": 0.593375,
    "transactions": [
      {
        "date": "2023-09-29",
        "priceEur": 233000,
        "typeLocal": "Maison",
        "surfaceM2": 98,
        "isVefa": false
      }
    ]
  },
  "3b07124a7d86": {
    "id": "3b07124a7d86",
    "label": "105 RUE DE L'ECOLE, Grand-Camp",
    "lat": 49.55389,
    "lng": 0.597289,
    "transactions": [
      {
        "date": "2024-09-03",
        "priceEur": 215000,
        "typeLocal": "Maison",
        "surfaceM2": 93,
        "isVefa": false
      }
    ]
  },
  "fc2140da26e2": {
    "id": "fc2140da26e2",
    "label": "18 RUE DES PRES VERTS, Grand-Camp",
    "lat": 49.555823,
    "lng": 0.595678,
    "transactions": [
      {
        "date": "2025-01-06",
        "priceEur": 135000,
        "typeLocal": "Maison",
        "surfaceM2": 77,
        "isVefa": false
      }
    ]
  }
}