{
  "ba65706081a6": {
    "id": "ba65706081a6",
    "label": "5184 HAMEAU DE LA CAUMETTE, Faugères",
    "lat": 43.584362,
    "lng": 3.165729,
    "transactions": [
      {
        "date": "2021-01-29",
        "priceEur": 148000,
        "typeLocal": "Maison",
        "surfaceM2": 90,
        "isVefa": false
      }
    ]
  },
  "043ef2ccf6be": {
    "id": "043ef2ccf6be",
    "label": "48 RUE BASSE, Faugères",
    "lat": 43.584238,
    "lng": 3.165806,
    "transactions": [
      {
        "date": "2021-07-02",
        "priceEur": 122962,
        "typeLocal": "Maison",
        "surfaceM2": 86,
        "isVefa": false
      }
    ]
  },
  "01fe27fd0dd8": {
    "id": "01fe27fd0dd8",
    "label": "5309 LE CADE, Faugères",
    "lat": 43.583031,
    "lng": 3.164899,
    "transactions": [
      {
        "date": "2022-07-27",
        "priceEur": 88000,
        "typeLocal": "Maison",
        "surfaceM2": 90,
        "isVefa": false
      }
    ]
  },
  "d0926c3f4b37": {
    "id": "d0926c3f4b37",
    "label": "1 CHE DE LA CERISERAIE, Faugères",
    "lat": 43.584005,
    "lng": 3.165072,
    "transactions": [
      {
        "date": "2022-08-22",
        "priceEur": 420000,
        "typeLocal": "Maison",
        "surfaceM2": 250,
        "isVefa": false
      }
    ]
  },
  "2b466e63a5b6": {
    "id": "2b466e63a5b6",
    "label": "3 PL CLAUDE ABBES, Faugères",
    "lat": 43.584154,
    "lng": 3.165526,
    "transactions": [
      {
        "date": "2023-06-07",
        "priceEur": 155000,
        "typeLocal": "Maison",
        "surfaceM2": 100,
        "isVefa": false
      }
    ]
  },
  "06c9d62a37d9": {
    "id": "06c9d62a37d9",
    "label": "79 CHE DE LA CERISERAIE, Faugères",
    "lat": 43.583977,
    "lng": 3.165712,
    "transactions": [
      {
        "date": "2024-11-25",
        "priceEur": 222000,
        "typeLocal": "Maison",
        "surfaceM2": 85,
        "isVefa": false
      },
      {
        "date": "2023-10-25",
        "priceEur": 185000,
        "typeLocal": "Maison",
        "surfaceM2": 85,
        "isVefa": false
      }
    ]
  }
}