{
  "a23e9e726b51": {
    "id": "a23e9e726b51",
    "label": "26 RTE DE PEZENES, Bédarieux",
    "lat": 43.604904,
    "lng": 3.17055,
    "transactions": [
      {
        "date": "2020-11-26",
        "priceEur": 260000,
        "typeLocal": "Maison",
        "surfaceM2": 160,
        "isVefa": false
      },
      {
        "date": "2020-11-26",
        "priceEur": 260000,
        "typeLocal": "Maison",
        "surfaceM2": 160,
        "isVefa": false
      }
    ]
  },
  "0329f2e18c5a": {
    "id": "0329f2e18c5a",
    "label": "2 RTE DE PEZENES, Bédarieux",
    "lat": 43.60896,
    "lng": 3.16545,
    "transactions": [
      {
        "date": "2021-05-18",
        "priceEur": 50000,
        "typeLocal": "Appartement",
        "surfaceM2": 52,
        "isVefa": false
      },
      {
        "date": "2021-05-18",
        "priceEur": 50000,
        "typeLocal": "Maison",
        "surfaceM2": 117,
        "isVefa": false
      }
    ]
  },
  "7908404b9412": {
    "id": "7908404b9412",
    "label": "2 ART ANCIENNE ROUTE DE BEZIERS, Bédarieux",
    "lat": 43.605459,
    "lng": 3.165338,
    "transactions": [
      {
        "date": "2021-06-29",
        "priceEur": 219940,
        "typeLocal": "Maison",
        "surfaceM2": 146,
        "isVefa": false
      },
      {
        "date": "2021-06-29",
        "priceEur": 219940,
        "typeLocal": "Maison",
        "surfaceM2": 146,
        "isVefa": false
      },
      {
        "date": "2021-06-29",
        "priceEur": 219940,
        "typeLocal": "Maison",
        "surfaceM2": 146,
        "isVefa": false
      }
    ]
  },
  "ba4a2a6baa13": {
    "id": "ba4a2a6baa13",
    "label": "12T JOLI CANTEL, Bédarieux",
    "lat": 43.609925,
    "lng": 3.168584,
    "transactions": [
      {
        "date": "2022-12-22",
        "priceEur": 267000,
        "typeLocal": "Maison",
        "surfaceM2": 116,
        "isVefa": false
      }
    ]
  },
  "4919449c7cca": {
    "id": "4919449c7cca",
    "label": "1 RTE DE BEZIERS, Bédarieux",
    "lat": 43.608526,
    "lng": 3.164314,
    "transactions": [
      {
        "date": "2023-01-26",
        "priceEur": 105000,
        "typeLocal": "Maison",
        "surfaceM2": 33,
        "isVefa": false
      }
    ]
  },
  "72b4161a9caf": {
    "id": "72b4161a9caf",
    "label": "1C RTE DE BEZIERS, Bédarieux",
    "lat": 43.608308,
    "lng": 3.164305,
    "transactions": [
      {
        "date": "2023-01-26",
        "priceEur": 105000,
        "typeLocal": "Maison",
        "surfaceM2": 29,
        "isVefa": false
      },
      {
        "date": "2023-01-26",
        "priceEur": 105000,
        "typeLocal": "Maison",
        "surfaceM2": 29,
        "isVefa": false
      }
    ]
  },
  "83125b1cbbd4": {
    "id": "83125b1cbbd4",
    "label": "164B AV AUGUSTE COT, Bédarieux",
    "lat": 43.609669,
    "lng": 3.164322,
    "transactions": [
      {
        "date": "2023-04-28",
        "priceEur": 118000,
        "typeLocal": "Maison",
        "surfaceM2": 66,
        "isVefa": false
      }
    ]
  },
  "79d62f23e38f": {
    "id": "79d62f23e38f",
    "label": "20 RTE DE CLERMONT, Bédarieux",
    "lat": 43.612059,
    "lng": 3.164312,
    "transactions": [
      {
        "date": "2025-03-06",
        "priceEur": 57000,
        "typeLocal": "Maison",
        "surfaceM2": 58,
        "isVefa": false
      },
      {
        "date": "2023-06-20",
        "priceEur": 50000,
        "typeLocal": "Maison",
        "surfaceM2": 58,
        "isVefa": false
      }
    ]
  },
  "f17cd19d43b5": {
    "id": "f17cd19d43b5",
    "label": "9031 RTE DE PEZENES, Bédarieux",
    "lat": 43.606104,
    "lng": 3.169372,
    "transactions": [
      {
        "date": "2023-09-08",
        "priceEur": 262000,
        "typeLocal": "Maison",
        "surfaceM2": 138,
        "isVefa": false
      }
    ]
  },
  "6af096ce0384": {
    "id": "6af096ce0384",
    "label": "9009 AV AUGUSTE COT, Bédarieux",
    "lat": 43.609434,
    "lng": 3.164353,
    "transactions": [
      {
        "date": "2024-04-18",
        "priceEur": 27000,
        "typeLocal": "Maison",
        "surfaceM2": 67,
        "isVefa": false
      },
      {
        "date": "2024-04-18",
        "priceEur": 27000,
        "typeLocal": "Maison",
        "surfaceM2": 67,
        "isVefa": false
      }
    ]
  },
  "2277d1d4fe03": {
    "id": "2277d1d4fe03",
    "label": "6F RTE DE BEZIERS, Bédarieux",
    "lat": 43.607189,
    "lng": 3.164779,
    "transactions": [
      {
        "date": "2024-06-05",
        "priceEur": 148000,
        "typeLocal": "Maison",
        "surfaceM2": 74,
        "isVefa": false
      }
    ]
  }
}