{
  "95461b99a53a": {
    "id": "95461b99a53a",
    "label": "22 CRS JEAN MOULIN, Saint-Geniès-de-Fontedit",
    "lat": 43.464824,
    "lng": 3.172763,
    "transactions": [
      {
        "date": "2020-07-17",
        "priceEur": 530000,
        "typeLocal": "Maison",
        "surfaceM2": 312,
        "isVefa": false
      },
      {
        "date": "2020-07-17",
        "priceEur": 530000,
        "typeLocal": "Maison",
        "surfaceM2": 312,
        "isVefa": false
      }
    ]
  },
  "d5bff130f02f": {
    "id": "d5bff130f02f",
    "label": "5438F RUE DE LA CHAPELLE, Saint-Geniès-de-Fontedit",
    "lat": 43.467078,
    "lng": 3.173676,
    "transactions": [
      {
        "date": "2020-10-14",
        "priceEur": 350000,
        "typeLocal": "Maison",
        "surfaceM2": 125,
        "isVefa": false
      },
      {
        "date": "2020-10-14",
        "priceEur": 350000,
        "typeLocal": "Maison",
        "surfaceM2": 125,
        "isVefa": false
      }
    ]
  },
  "d1388226725d": {
    "id": "d1388226725d",
    "label": "28 RUE SAINT MARTIN, Saint-Geniès-de-Fontedit",
    "lat": 43.463937,
    "lng": 3.174086,
    "transactions": [
      {
        "date": "2020-11-12",
        "priceEur": 269800,
        "typeLocal": "Maison",
        "surfaceM2": 114,
        "isVefa": false
      }
    ]
  },
  "288caf704c2d": {
    "id": "288caf704c2d",
    "label": "9 RUE DES AIRES HAUTES, Saint-Geniès-de-Fontedit",
    "lat": 43.466311,
    "lng": 3.17446,
    "transactions": [
      {
        "date": "2021-01-19",
        "priceEur": 362900,
        "typeLocal": "Maison",
        "surfaceM2": 139,
        "isVefa": false
      },
      {
        "date": "2021-01-19",
        "priceEur": 362900,
        "typeLocal": "Maison",
        "surfaceM2": 139,
        "isVefa": false
      }
    ]
  },
  "986ed7227e00": {
    "id": "986ed7227e00",
    "label": "5459F RUE JULES CADENAT, Saint-Geniès-de-Fontedit",
    "lat": 43.468258,
    "lng": 3.17476,
    "transactions": [
      {
        "date": "2021-02-25",
        "priceEur": 224900,
        "typeLocal": "Maison",
        "surfaceM2": 110,
        "isVefa": false
      }
    ]
  },
  "a2ac766768e2": {
    "id": "a2ac766768e2",
    "label": "220 RUE DES BOUDOUNES, Saint-Geniès-de-Fontedit",
    "lat": 43.467338,
    "lng": 3.173041,
    "transactions": [
      {
        "date": "2021-07-08",
        "priceEur": 250000,
        "typeLocal": "Maison",
        "surfaceM2": 130,
        "isVefa": false
      }
    ]
  },
  "f06f8c6a9948": {
    "id": "f06f8c6a9948",
    "label": "50 RUE DES BOUDOUNES, Saint-Geniès-de-Fontedit",
    "lat": 43.467891,
    "lng": 3.174871,
    "transactions": [
      {
        "date": "2021-07-26",
        "priceEur": 225590,
        "typeLocal": "Maison",
        "surfaceM2": 120,
        "isVefa": false
      }
    ]
  },
  "0d36679cf995": {
    "id": "0d36679cf995",
    "label": "96B RUE JOSEPH JORDANO, Saint-Geniès-de-Fontedit",
    "lat": 43.467576,
    "lng": 3.173583,
    "transactions": [
      {
        "date": "2021-06-07",
        "priceEur": 101500,
        "typeLocal": "Maison",
        "surfaceM2": 90,
        "isVefa": false
      }
    ]
  },
  "bd614c6e04df": {
    "id": "bd614c6e04df",
    "label": "96 RUE JOSEPH JORDANO, Saint-Geniès-de-Fontedit",
    "lat": 43.467726,
    "lng": 3.173372,
    "transactions": [
      {
        "date": "2022-04-22",
        "priceEur": 16900,
        "typeLocal": "Maison",
        "surfaceM2": 90,
        "isVefa": false
      },
      {
        "date": "2021-06-07",
        "priceEur": 130000,
        "typeLocal": "Maison",
        "surfaceM2": 90,
        "isVefa": false
      }
    ]
  },
  "328c16853593": {
    "id": "328c16853593",
    "label": "5428F CRS JEAN MOULIN, Saint-Geniès-de-Fontedit",
    "lat": 43.464431,
    "lng": 3.173752,
    "transactions": [
      {
        "date": "2021-12-02",
        "priceEur": 260000,
        "typeLocal": "Maison",
        "surfaceM2": 108,
        "isVefa": false
      }
    ]
  },
  "4df4e3cba99b": {
    "id": "4df4e3cba99b",
    "label": "7 RUE DES CERISIERS, Saint-Geniès-de-Fontedit",
    "lat": 43.463287,
    "lng": 3.174946,
    "transactions": [
      {
        "date": "2022-02-28",
        "priceEur": 357047,
        "typeLocal": "Maison",
        "surfaceM2": 116,
        "isVefa": false
      }
    ]
  },
  "8b46eb0f8819": {
    "id": "8b46eb0f8819",
    "label": "7008F RUE JOSEPH JORDANO, Saint-Geniès-de-Fontedit",
    "lat": 43.467608,
    "lng": 3.17269,
    "transactions": [
      {
        "date": "2023-10-25",
        "priceEur": 349000,
        "typeLocal": "Maison",
        "surfaceM2": 138,
        "isVefa": false
      }
    ]
  },
  "e60273e95da2": {
    "id": "e60273e95da2",
    "label": "250 RUE DES BOUDOUNES, Saint-Geniès-de-Fontedit",
    "lat": 43.467065,
    "lng": 3.172392,
    "transactions": [
      {
        "date": "2024-03-19",
        "priceEur": 297163.06,
        "typeLocal": "Maison",
        "surfaceM2": 130,
        "isVefa": false
      }
    ]
  },
  "61b586ad4212": {
    "id": "61b586ad4212",
    "label": "4 RUE DES CERISIERS, Saint-Geniès-de-Fontedit",
    "lat": 43.462871,
    "lng": 3.174903,
    "transactions": [
      {
        "date": "2024-01-10",
        "priceEur": 400000,
        "typeLocal": "Maison",
        "surfaceM2": 120,
        "isVefa": false
      }
    ]
  },
  "268ffcd68b26": {
    "id": "268ffcd68b26",
    "label": "29 RUE SAINT MARTIN, Saint-Geniès-de-Fontedit",
    "lat": 43.463588,
    "lng": 3.173841,
    "transactions": [
      {
        "date": "2025-03-17",
        "priceEur": 345810,
        "typeLocal": "Maison",
        "surfaceM2": 113,
        "isVefa": false
      }
    ]
  },
  "bf1336f2bda4": {
    "id": "bf1336f2bda4",
    "label": "9A RUE DES AIRES HAUTES, Saint-Geniès-de-Fontedit",
    "lat": 43.466056,
    "lng": 3.174037,
    "transactions": [
      {
        "date": "2025-03-24",
        "priceEur": 570500,
        "typeLocal": "Maison",
        "surfaceM2": 128,
        "isVefa": false
      },
      {
        "date": "2025-03-24",
        "priceEur": 570500,
        "typeLocal": "Maison",
        "surfaceM2": 128,
        "isVefa": false
      }
    ]
  }
}