{
  "881836a56dba": {
    "id": "881836a56dba",
    "label": "16 LOT LE CLOS SAINT MICHEL, Lespignan",
    "lat": 43.277383,
    "lng": 3.173843,
    "transactions": [
      {
        "date": "2020-09-09",
        "priceEur": 248200,
        "typeLocal": "Maison",
        "surfaceM2": 90,
        "isVefa": false
      }
    ]
  },
  "8e9d6481769d": {
    "id": "8e9d6481769d",
    "label": "3 IMP CLOS DU PECH, Lespignan",
    "lat": 43.277742,
    "lng": 3.173257,
    "transactions": [
      {
        "date": "2020-10-19",
        "priceEur": 255000,
        "typeLocal": "Maison",
        "surfaceM2": 145,
        "isVefa": false
      }
    ]
  },
  "20a7faaf7a74": {
    "id": "20a7faaf7a74",
    "label": "7B IMP DES CROUZELS, Lespignan",
    "lat": 43.277302,
    "lng": 3.170682,
    "transactions": [
      {
        "date": "2020-10-22",
        "priceEur": 166710,
        "typeLocal": "Maison",
        "surfaceM2": 88,
        "isVefa": false
      }
    ]
  },
  "bb0c75a35dc3": {
    "id": "bb0c75a35dc3",
    "label": "19 RUE DES GARRIGUES, Lespignan",
    "lat": 43.277516,
    "lng": 3.169511,
    "transactions": [
      {
        "date": "2021-07-16",
        "priceEur": 523020,
        "typeLocal": "Maison",
        "surfaceM2": 222,
        "isVefa": false
      },
      {
        "date": "2021-07-16",
        "priceEur": 523020,
        "typeLocal": "Maison",
        "surfaceM2": 222,
        "isVefa": false
      }
    ]
  },
  "7cf0a5eb62f8": {
    "id": "7cf0a5eb62f8",
    "label": "17 RUE DU PECH, Lespignan",
    "lat": 43.277409,
    "lng": 3.172489,
    "transactions": [
      {
        "date": "2022-05-27",
        "priceEur": 326500,
        "typeLocal": "Maison",
        "surfaceM2": 165,
        "isVefa": false
      }
    ]
  },
  "ba1d7a44e004": {
    "id": "ba1d7a44e004",
    "label": "21 RUE DU PECH, Lespignan",
    "lat": 43.277659,
    "lng": 3.172659,
    "transactions": [
      {
        "date": "2022-05-30",
        "priceEur": 340000,
        "typeLocal": "Maison",
        "surfaceM2": 162,
        "isVefa": false
      }
    ]
  },
  "e82145f2c28c": {
    "id": "e82145f2c28c",
    "label": "18 LOT LE CLOS SAINT MICHEL, Lespignan",
    "lat": 43.277246,
    "lng": 3.17431,
    "transactions": [
      {
        "date": "2022-06-22",
        "priceEur": 160000,
        "typeLocal": "Maison",
        "surfaceM2": 104,
        "isVefa": false
      }
    ]
  },
  "7fa4ab53ec26": {
    "id": "7fa4ab53ec26",
    "label": "9 IMP DES CROUZELS, Lespignan",
    "lat": 43.277499,
    "lng": 3.170868,
    "transactions": [
      {
        "date": "2023-04-04",
        "priceEur": 263920,
        "typeLocal": "Maison",
        "surfaceM2": 114,
        "isVefa": false
      }
    ]
  },
  "13be1136216d": {
    "id": "13be1136216d",
    "label": "8 IMP DES CROUZELS, Lespignan",
    "lat": 43.277344,
    "lng": 3.170429,
    "transactions": [
      {
        "date": "2024-02-09",
        "priceEur": 270868.4,
        "typeLocal": "Maison",
        "surfaceM2": 87,
        "isVefa": false
      }
    ]
  },
  "6b0a39b6e564": {
    "id": "6b0a39b6e564",
    "label": "10 IMP DES CROUZELS, Lespignan",
    "lat": 43.277845,
    "lng": 3.170933,
    "transactions": [
      {
        "date": "2024-04-19",
        "priceEur": 330000,
        "typeLocal": "Maison",
        "surfaceM2": 116,
        "isVefa": false
      },
      {
        "date": "2024-04-19",
        "priceEur": 330000,
        "typeLocal": "Maison",
        "surfaceM2": 116,
        "isVefa": false
      }
    ]
  },
  "457ea266d867": {
    "id": "457ea266d867",
    "label": "15 LOT LE CLOS SAINT MICHEL, Lespignan",
    "lat": 43.277431,
    "lng": 3.173579,
    "transactions": [
      {
        "date": "2024-08-29",
        "priceEur": 400850,
        "typeLocal": "Maison",
        "surfaceM2": 129,
        "isVefa": false
      }
    ]
  }
}