{
  "978ecbd1e578": {
    "id": "978ecbd1e578",
    "label": "5030F CHEM DE LA PLANTADE, Saint-Bauzille-de-Putois",
    "lat": 43.89844,
    "lng": 3.744737,
    "transactions": [
      {
        "date": "2020-07-28",
        "priceEur": 247000,
        "typeLocal": "Maison",
        "surfaceM2": 88,
        "isVefa": false
      }
    ]
  },
  "ae0d2b52c1b9": {
    "id": "ae0d2b52c1b9",
    "label": "961 RTE DE LA GROTTE, Saint-Bauzille-de-Putois",
    "lat": 43.903025,
    "lng": 3.744571,
    "transactions": [
      {
        "date": "2020-08-20",
        "priceEur": 325000,
        "typeLocal": "Maison",
        "surfaceM2": 133,
        "isVefa": false
      }
    ]
  },
  "153278314bef": {
    "id": "153278314bef",
    "label": "390 CHE DE LA COSTE, Saint-Bauzille-de-Putois",
    "lat": 43.903847,
    "lng": 3.74155,
    "transactions": [
      {
        "date": "2020-10-19",
        "priceEur": 248500,
        "typeLocal": "Maison",
        "surfaceM2": 90,
        "isVefa": false
      }
    ]
  },
  "4f55c5d4a3dc": {
    "id": "4f55c5d4a3dc",
    "label": "5479 LA PLANTADE, Saint-Bauzille-de-Putois",
    "lat": 43.898173,
    "lng": 3.741046,
    "transactions": [
      {
        "date": "2020-11-24",
        "priceEur": 161900,
        "typeLocal": "Maison",
        "surfaceM2": 54,
        "isVefa": false
      }
    ]
  },
  "1f3e25eac410": {
    "id": "1f3e25eac410",
    "label": "11 LOT LE CABERNET, Saint-Bauzille-de-Putois",
    "lat": 43.898474,
    "lng": 3.744606,
    "transactions": [
      {
        "date": "2021-01-11",
        "priceEur": 186600,
        "typeLocal": "Maison",
        "surfaceM2": 94,
        "isVefa": false
      }
    ]
  },
  "da36fbe86df8": {
    "id": "da36fbe86df8",
    "label": "284 RTE DE LA GROTTE, Saint-Bauzille-de-Putois",
    "lat": 43.897953,
    "lng": 3.740421,
    "transactions": [
      {
        "date": "2021-03-23",
        "priceEur": 485000,
        "typeLocal": "Maison",
        "surfaceM2": 273,
        "isVefa": false
      }
    ]
  },
  "2edc57569b9d": {
    "id": "2edc57569b9d",
    "label": "12B AV DU CHEMIN NEUF, Saint-Bauzille-de-Putois",
    "lat": 43.898958,
    "lng": 3.736506,
    "transactions": [
      {
        "date": "2021-03-22",
        "priceEur": 185000,
        "typeLocal": "Maison",
        "surfaceM2": 130,
        "isVefa": false
      }
    ]
  },
  "cc389196e374": {
    "id": "cc389196e374",
    "label": "12 LOT LE CARDINAL, Saint-Bauzille-de-Putois",
    "lat": 43.898416,
    "lng": 3.743228,
    "transactions": [
      {
        "date": "2021-05-11",
        "priceEur": 200000,
        "typeLocal": "Maison",
        "surfaceM2": 88,
        "isVefa": false
      }
    ]
  },
  "f3dfabf57990": {
    "id": "f3dfabf57990",
    "label": "203 CHE DES BASSINS, Saint-Bauzille-de-Putois",
    "lat": 43.905237,
    "lng": 3.738446,
    "transactions": [
      {
        "date": "2021-06-03",
        "priceEur": 263880,
        "typeLocal": "Maison",
        "surfaceM2": 80,
        "isVefa": false
      },
      {
        "date": "2021-06-03",
        "priceEur": 263880,
        "typeLocal": "Maison",
        "surfaceM2": 80,
        "isVefa": false
      },
      {
        "date": "2021-06-03",
        "priceEur": 263880,
        "typeLocal": "Maison",
        "surfaceM2": 80,
        "isVefa": false
      }
    ]
  },
  "3202231b4198": {
    "id": "3202231b4198",
    "label": "44 ACH ANCIEN CHEMIN DE GANGES, Saint-Bauzille-de-Putois",
    "lat": 43.901181,
    "lng": 3.737537,
    "transactions": [
      {
        "date": "2021-09-08",
        "priceEur": 89000,
        "typeLocal": "Maison",
        "surfaceM2": 70,
        "isVefa": false
      }
    ]
  },
  "4d5a414b6bcd": {
    "id": "4d5a414b6bcd",
    "label": "95 AV DU CHEMIN NEUF, Saint-Bauzille-de-Putois",
    "lat": 43.904486,
    "lng": 3.738081,
    "transactions": [
      {
        "date": "2021-10-06",
        "priceEur": 80000,
        "typeLocal": "Maison",
        "surfaceM2": 48,
        "isVefa": false
      }
    ]
  },
  "cfe29c2efc06": {
    "id": "cfe29c2efc06",
    "label": "1 LOT LES ARAMONS, Saint-Bauzille-de-Putois",
    "lat": 43.898047,
    "lng": 3.74336,
    "transactions": [
      {
        "date": "2021-12-03",
        "priceEur": 258570,
        "typeLocal": "Maison",
        "surfaceM2": 87,
        "isVefa": false
      }
    ]
  },
  "46d43016dd89": {
    "id": "46d43016dd89",
    "label": "657 CHE DE LA COSTE, Saint-Bauzille-de-Putois",
    "lat": 43.904971,
    "lng": 3.739741,
    "transactions": [
      {
        "date": "2021-12-30",
        "priceEur": 475000,
        "typeLocal": "Maison",
        "surfaceM2": 148,
        "isVefa": false
      }
    ]
  },
  "68a22224cc8f": {
    "id": "68a22224cc8f",
    "label": "5001F LA COSTE, Saint-Bauzille-de-Putois",
    "lat": 43.905009,
    "lng": 3.739895,
    "transactions": [
      {
        "date": "2021-12-30",
        "priceEur": 475000,
        "typeLocal": "Maison",
        "surfaceM2": 1,
        "isVefa": false
      }
    ]
  },
  "de7ef26621a6": {
    "id": "de7ef26621a6",
    "label": "6049 AV DU CHEMIN NEUF, Saint-Bauzille-de-Putois",
    "lat": 43.904969,
    "lng": 3.737994,
    "transactions": [
      {
        "date": "2023-07-12",
        "priceEur": 20000,
        "typeLocal": "Appartement",
        "surfaceM2": 2,
        "isVefa": false
      },
      {
        "date": "2022-02-15",
        "priceEur": 40000,
        "typeLocal": "Appartement",
        "surfaceM2": 2,
        "isVefa": false
      }
    ]
  },
  "5ef909ead943": {
    "id": "5ef909ead943",
    "label": "1 AV DU CHEMIN NEUF, Saint-Bauzille-de-Putois",
    "lat": 43.904969,
    "lng": 3.737994,
    "transactions": [
      {
        "date": "2023-07-12",
        "priceEur": 20000,
        "typeLocal": "Appartement",
        "surfaceM2": 66,
        "isVefa": false
      },
      {
        "date": "2022-02-15",
        "priceEur": 40000,
        "typeLocal": "Appartement",
        "surfaceM2": 66,
        "isVefa": false
      }
    ]
  },
  "684442d2cd67": {
    "id": "684442d2cd67",
    "label": "7 LOT LES ARAMONS, Saint-Bauzille-de-Putois",
    "lat": 43.898053,
    "lng": 3.743994,
    "transactions": [
      {
        "date": "2022-03-21",
        "priceEur": 262000,
        "typeLocal": "Maison",
        "surfaceM2": 100,
        "isVefa": false
      }
    ]
  },
  "fa0337c795eb": {
    "id": "fa0337c795eb",
    "label": "144 CHE DES LUTINS, Saint-Bauzille-de-Putois",
    "lat": 43.903631,
    "lng": 3.739373,
    "transactions": [
      {
        "date": "2022-03-21",
        "priceEur": 270000,
        "typeLocal": "Maison",
        "surfaceM2": 98,
        "isVefa": false
      }
    ]
  },
  "8d621f8870e7": {
    "id": "8d621f8870e7",
    "label": "8 LOT LE CARDINAL, Saint-Bauzille-de-Putois",
    "lat": 43.898888,
    "lng": 3.743268,
    "transactions": [
      {
        "date": "2022-05-09",
        "priceEur": 285000,
        "typeLocal": "Maison",
        "surfaceM2": 100,
        "isVefa": false
      }
    ]
  },
  "e5f2afb9b208": {
    "id": "e5f2afb9b208",
    "label": "3 LOT LES ARAMONS, Saint-Bauzille-de-Putois",
    "lat": 43.89846,
    "lng": 3.743473,
    "transactions": [
      {
        "date": "2022-11-10",
        "priceEur": 291330,
        "typeLocal": "Maison",
        "surfaceM2": 134,
        "isVefa": false
      }
    ]
  },
  "df10e82c355d": {
    "id": "df10e82c355d",
    "label": "73 DRA DE LA CROIX VERTE, Saint-Bauzille-de-Putois",
    "lat": 43.902989,
    "lng": 3.742328,
    "transactions": [
      {
        "date": "2023-04-11",
        "priceEur": 388971,
        "typeLocal": "Maison",
        "surfaceM2": 96,
        "isVefa": false
      },
      {
        "date": "2023-04-11",
        "priceEur": 388971,
        "typeLocal": "Maison",
        "surfaceM2": 96,
        "isVefa": false
      }
    ]
  },
  "a2e9022880dc": {
    "id": "a2e9022880dc",
    "label": "166 CHEM DE LA PLANTADE, Saint-Bauzille-de-Putois",
    "lat": 43.897925,
    "lng": 3.741953,
    "transactions": [
      {
        "date": "2023-06-01",
        "priceEur": 477617,
        "typeLocal": "Maison",
        "surfaceM2": 117,
        "isVefa": false
      }
    ]
  },
  "5dec98c62e59": {
    "id": "5dec98c62e59",
    "label": "8 LOT LES ARAMONS, Saint-Bauzille-de-Putois",
    "lat": 43.897911,
    "lng": 3.744079,
    "transactions": [
      {
        "date": "2023-07-28",
        "priceEur": 273000,
        "typeLocal": "Maison",
        "surfaceM2": 88,
        "isVefa": false
      }
    ]
  },
  "c3f6adfef124": {
    "id": "c3f6adfef124",
    "label": "5547 AV DU CHEMIN NEUF, Saint-Bauzille-de-Putois",
    "lat": 43.898886,
    "lng": 3.73649,
    "transactions": [
      {
        "date": "2024-01-19",
        "priceEur": 185000,
        "typeLocal": "Appartement",
        "surfaceM2": 48,
        "isVefa": false
      },
      {
        "date": "2024-01-19",
        "priceEur": 185000,
        "typeLocal": "Appartement",
        "surfaceM2": 48,
        "isVefa": false
      }
    ]
  },
  "4ab7a494941c": {
    "id": "4ab7a494941c",
    "label": "81 LOT DU RIEUTOR, Saint-Bauzille-de-Putois",
    "lat": 43.901929,
    "lng": 3.738708,
    "transactions": [
      {
        "date": "2024-09-18",
        "priceEur": 223500,
        "typeLocal": "Maison",
        "surfaceM2": 73,
        "isVefa": false
      }
    ]
  },
  "e67e4281048f": {
    "id": "e67e4281048f",
    "label": "65 CHE DE LA PLANTADE, Saint-Bauzille-de-Putois",
    "lat": 43.897943,
    "lng": 3.740536,
    "transactions": [
      {
        "date": "2025-02-06",
        "priceEur": 60000,
        "typeLocal": "Maison",
        "surfaceM2": 38,
        "isVefa": false
      }
    ]
  },
  "b394488a5b43": {
    "id": "b394488a5b43",
    "label": "122 CHE DE LA COSTE, Saint-Bauzille-de-Putois",
    "lat": 43.902735,
    "lng": 3.739384,
    "transactions": [
      {
        "date": "2025-03-05",
        "priceEur": 303910,
        "typeLocal": "Maison",
        "surfaceM2": 87,
        "isVefa": false
      }
    ]
  },
  "e898f406d30f": {
    "id": "e898f406d30f",
    "label": "4 LOT LE CARDINAL, Saint-Bauzille-de-Putois",
    "lat": 43.898627,
    "lng": 3.742954,
    "transactions": [
      {
        "date": "2025-03-28",
        "priceEur": 271200,
        "typeLocal": "Maison",
        "surfaceM2": 100,
        "isVefa": false
      }
    ]
  },
  "fc9012ebcf39": {
    "id": "fc9012ebcf39",
    "label": "56 LOT DU RIEUTOR, Saint-Bauzille-de-Putois",
    "lat": 43.90161,
    "lng": 3.738456,
    "transactions": [
      {
        "date": "2025-05-13",
        "priceEur": 227000,
        "typeLocal": "Maison",
        "surfaceM2": 67,
        "isVefa": false
      }
    ]
  }
}