{
  "e916fc9a9924": {
    "id": "e916fc9a9924",
    "label": "694 RUE FRANCOIS JOSEPH BROUTIN, Tilloy-lez-Marchiennes",
    "lat": 50.424897,
    "lng": 3.315775,
    "transactions": [
      {
        "date": "2020-08-19",
        "priceEur": 368000,
        "typeLocal": "Maison",
        "surfaceM2": 127,
        "isVefa": false
      }
    ]
  },
  "5a7de7e670c8": {
    "id": "5a7de7e670c8",
    "label": "93 RUE EMILE LEDOUX, Tilloy-lez-Marchiennes",
    "lat": 50.429236,
    "lng": 3.313655,
    "transactions": [
      {
        "date": "2021-12-17",
        "priceEur": 257750,
        "typeLocal": "Maison",
        "surfaceM2": 123,
        "isVefa": false
      }
    ]
  },
  "884886cdda9e": {
    "id": "884886cdda9e",
    "label": "91 RUE FLORIMOND HOUDART, Tilloy-lez-Marchiennes",
    "lat": 50.423414,
    "lng": 3.317771,
    "transactions": [
      {
        "date": "2021-12-23",
        "priceEur": 389000,
        "typeLocal": "Maison",
        "surfaceM2": 147,
        "isVefa": false
      }
    ]
  },
  "8a66e2f8e6a7": {
    "id": "8a66e2f8e6a7",
    "label": "154 RUE EMILE LEDOUX, Tilloy-lez-Marchiennes",
    "lat": 50.429314,
    "lng": 3.312298,
    "transactions": [
      {
        "date": "2022-11-10",
        "priceEur": 252000,
        "typeLocal": "Maison",
        "surfaceM2": 131,
        "isVefa": false
      },
      {
        "date": "2022-04-15",
        "priceEur": 100000,
        "typeLocal": "Maison",
        "surfaceM2": 131,
        "isVefa": false
      }
    ]
  },
  "770fac5b9885": {
    "id": "770fac5b9885",
    "label": "323 RUE PIERRE JOSEPH BROUTIN, Tilloy-lez-Marchiennes",
    "lat": 50.427727,
    "lng": 3.316687,
    "transactions": [
      {
        "date": "2023-03-29",
        "priceEur": 230000,
        "typeLocal": "Maison",
        "surfaceM2": 80,
        "isVefa": false
      }
    ]
  },
  "0c6119e7477e": {
    "id": "0c6119e7477e",
    "label": "110 RUE FLORIMOND HOUDART, Tilloy-lez-Marchiennes",
    "lat": 50.42354,
    "lng": 3.316969,
    "transactions": [
      {
        "date": "2023-09-29",
        "priceEur": 70000,
        "typeLocal": "Maison",
        "surfaceM2": 84,
        "isVefa": false
      }
    ]
  },
  "4f80cdacf9d4": {
    "id": "4f80cdacf9d4",
    "label": "246 RUE HENRI MILLON, Tilloy-lez-Marchiennes",
    "lat": 50.423687,
    "lng": 3.315773,
    "transactions": [
      {
        "date": "2024-04-11",
        "priceEur": 145500,
        "typeLocal": "Maison",
        "surfaceM2": 119,
        "isVefa": false
      }
    ]
  },
  "078073db20c4": {
    "id": "078073db20c4",
    "label": "380 RUE PIERRE JOSEPH BROUTIN, Tilloy-lez-Marchiennes",
    "lat": 50.42706,
    "lng": 3.3158,
    "transactions": [
      {
        "date": "2025-04-23",
        "priceEur": 363800,
        "typeLocal": "Maison",
        "surfaceM2": 153,
        "isVefa": false
      }
    ]
  },
  "67a751d2008b": {
    "id": "67a751d2008b",
    "label": "65 RUE FRANCOIS JOSEPH BROUTIN, Tilloy-lez-Marchiennes",
    "lat": 50.425432,
    "lng": 3.316866,
    "transactions": [
      {
        "date": "2025-05-23",
        "priceEur": 665000,
        "typeLocal": "Maison",
        "surfaceM2": 213,
        "isVefa": false
      }
    ]
  }
}