{
  "b732775a374e": {
    "id": "b732775a374e",
    "label": "6 RES DE LA BAHOTTE, Cagnoncles",
    "lat": 50.186279,
    "lng": 3.310397,
    "transactions": [
      {
        "date": "2020-10-01",
        "priceEur": 252200,
        "typeLocal": "Maison",
        "surfaceM2": 168,
        "isVefa": false
      }
    ]
  },
  "b2037897c1ea": {
    "id": "b2037897c1ea",
    "label": "5 RUE DE CARNIERES, Cagnoncles",
    "lat": 50.189063,
    "lng": 3.310411,
    "transactions": [
      {
        "date": "2022-06-17",
        "priceEur": 115000,
        "typeLocal": "Maison",
        "surfaceM2": 116,
        "isVefa": false
      }
    ]
  },
  "286340f8548f": {
    "id": "286340f8548f",
    "label": "7 RUE DU CALVAIRE, Cagnoncles",
    "lat": 50.185102,
    "lng": 3.312975,
    "transactions": [
      {
        "date": "2022-07-06",
        "priceEur": 208000,
        "typeLocal": "Maison",
        "surfaceM2": 148,
        "isVefa": false
      }
    ]
  },
  "b22b684db30d": {
    "id": "b22b684db30d",
    "label": "6 RUE DE CARNIERES, Cagnoncles",
    "lat": 50.187785,
    "lng": 3.310718,
    "transactions": [
      {
        "date": "2022-09-19",
        "priceEur": 290000,
        "typeLocal": "Maison",
        "surfaceM2": 145,
        "isVefa": false
      }
    ]
  },
  "31575da9d0c6": {
    "id": "31575da9d0c6",
    "label": "6 RUE DE CAMBRAI, Cagnoncles",
    "lat": 50.190096,
    "lng": 3.308989,
    "transactions": [
      {
        "date": "2022-09-30",
        "priceEur": 95000,
        "typeLocal": "Maison",
        "surfaceM2": 115,
        "isVefa": false
      }
    ]
  },
  "e8a9ac0607d3": {
    "id": "e8a9ac0607d3",
    "label": "2 RUE DE MAUGIS, Cagnoncles",
    "lat": 50.190924,
    "lng": 3.312792,
    "transactions": [
      {
        "date": "2022-09-28",
        "priceEur": 164600,
        "typeLocal": "Maison",
        "surfaceM2": 15,
        "isVefa": false
      }
    ]
  },
  "861174fdac03": {
    "id": "861174fdac03",
    "label": "3B RUE DE MAUGIS, Cagnoncles",
    "lat": 50.190902,
    "lng": 3.312978,
    "transactions": [
      {
        "date": "2022-09-28",
        "priceEur": 164600,
        "typeLocal": "Maison",
        "surfaceM2": 12,
        "isVefa": false
      }
    ]
  },
  "de211bfb3bc3": {
    "id": "de211bfb3bc3",
    "label": "1 RES DE LA BAHOTTE, Cagnoncles",
    "lat": 50.18626,
    "lng": 3.308923,
    "transactions": [
      {
        "date": "2023-03-03",
        "priceEur": 307000,
        "typeLocal": "Maison",
        "surfaceM2": 153,
        "isVefa": false
      }
    ]
  },
  "af070d88d1fc": {
    "id": "af070d88d1fc",
    "label": "2 RUE DE CAMBRAI, Cagnoncles",
    "lat": 50.18984,
    "lng": 3.309609,
    "transactions": [
      {
        "date": "2023-02-24",
        "priceEur": 228000,
        "typeLocal": "Maison",
        "surfaceM2": 93,
        "isVefa": false
      }
    ]
  },
  "8e3c9429e606": {
    "id": "8e3c9429e606",
    "label": "4 RUE DU CIMETIERE, Cagnoncles",
    "lat": 50.189361,
    "lng": 3.311435,
    "transactions": [
      {
        "date": "2023-08-04",
        "priceEur": 317500,
        "typeLocal": "Maison",
        "surfaceM2": 167,
        "isVefa": false
      }
    ]
  },
  "a5c06a78b0bf": {
    "id": "a5c06a78b0bf",
    "label": "11 CHE DE LA BAHOTTE, Cagnoncles",
    "lat": 50.186749,
    "lng": 3.309764,
    "transactions": [
      {
        "date": "2023-11-04",
        "priceEur": 323000,
        "typeLocal": "Maison",
        "surfaceM2": 147,
        "isVefa": false
      }
    ]
  },
  "b6929e8c01e2": {
    "id": "b6929e8c01e2",
    "label": "8 RUE ROGER BOUDRINGHIN, Cagnoncles",
    "lat": 50.184843,
    "lng": 3.30887,
    "transactions": [
      {
        "date": "2023-11-17",
        "priceEur": 258000,
        "typeLocal": "Maison",
        "surfaceM2": 89,
        "isVefa": false
      }
    ]
  },
  "5991c5c89b11": {
    "id": "5991c5c89b11",
    "label": "12 RUE DE CAMBRAI, Cagnoncles",
    "lat": 50.190338,
    "lng": 3.307966,
    "transactions": [
      {
        "date": "2024-04-10",
        "priceEur": 293150,
        "typeLocal": "Maison",
        "surfaceM2": 208,
        "isVefa": false
      }
    ]
  },
  "184b1646ad9a": {
    "id": "184b1646ad9a",
    "label": "11 RUE DE CARNIERES, Cagnoncles",
    "lat": 50.188921,
    "lng": 3.310953,
    "transactions": [
      {
        "date": "2024-07-24",
        "priceEur": 124500,
        "typeLocal": "Maison",
        "surfaceM2": 69,
        "isVefa": false
      }
    ]
  },
  "dce4a049e080": {
    "id": "dce4a049e080",
    "label": "13 RUE DE CARNIERES, Cagnoncles",
    "lat": 50.188729,
    "lng": 3.311059,
    "transactions": [
      {
        "date": "2024-08-02",
        "priceEur": 172000,
        "typeLocal": "Maison",
        "surfaceM2": 85,
        "isVefa": false
      }
    ]
  },
  "3b3ef44c390c": {
    "id": "3b3ef44c390c",
    "label": "12 RUE DE L EGLISE, Cagnoncles",
    "lat": 50.190249,
    "lng": 3.309612,
    "transactions": [
      {
        "date": "2024-08-07",
        "priceEur": 120000,
        "typeLocal": "Maison",
        "surfaceM2": 77,
        "isVefa": false
      }
    ]
  }
}