{
  "5297ace7ab9d": {
    "id": "5297ace7ab9d",
    "label": "19 CHE DU CASTELLAS, Lodève",
    "lat": 43.724884,
    "lng": 3.315583,
    "transactions": [
      {
        "date": "2020-07-07",
        "priceEur": 169000,
        "typeLocal": "Maison",
        "surfaceM2": 56,
        "isVefa": false
      }
    ]
  },
  "84ef7c66487c": {
    "id": "84ef7c66487c",
    "label": "5 BD PASTEUR, Lodève",
    "lat": 43.730669,
    "lng": 3.316858,
    "transactions": [
      {
        "date": "2021-09-23",
        "priceEur": 68940,
        "typeLocal": "Appartement",
        "surfaceM2": 133,
        "isVefa": false
      },
      {
        "date": "2020-08-19",
        "priceEur": 35000,
        "typeLocal": "Appartement",
        "surfaceM2": 63,
        "isVefa": false
      }
    ]
  },
  "bbfb5c889716": {
    "id": "bbfb5c889716",
    "label": "560 RTE D OLMET, Lodève",
    "lat": 43.725218,
    "lng": 3.316234,
    "transactions": [
      {
        "date": "2020-09-14",
        "priceEur": 135000,
        "typeLocal": "Maison",
        "surfaceM2": 75,
        "isVefa": false
      }
    ]
  },
  "20def8f38f84": {
    "id": "20def8f38f84",
    "label": "139 CHE DU CASTELLAS, Lodève",
    "lat": 43.725296,
    "lng": 3.316277,
    "transactions": [
      {
        "date": "2020-09-14",
        "priceEur": 135000,
        "typeLocal": "Maison",
        "surfaceM2": 90,
        "isVefa": false
      }
    ]
  },
  "b95c33875835": {
    "id": "b95c33875835",
    "label": "21 RUE CAPISCOLAT, Lodève",
    "lat": 43.731226,
    "lng": 3.317239,
    "transactions": [
      {
        "date": "2020-10-01",
        "priceEur": 170000,
        "typeLocal": "Appartement",
        "surfaceM2": 45,
        "isVefa": false
      }
    ]
  },
  "94bf930596b3": {
    "id": "94bf930596b3",
    "label": "1 RUE MARTIN LAGARDE, Lodève",
    "lat": 43.7312,
    "lng": 3.316409,
    "transactions": [
      {
        "date": "2020-10-01",
        "priceEur": 170000,
        "typeLocal": "Maison",
        "surfaceM2": 75,
        "isVefa": false
      }
    ]
  },
  "639332f6d1c3": {
    "id": "639332f6d1c3",
    "label": "3 BD PASTEUR, Lodève",
    "lat": 43.730601,
    "lng": 3.317165,
    "transactions": [
      {
        "date": "2022-06-09",
        "priceEur": 31000,
        "typeLocal": "Appartement",
        "surfaceM2": 45,
        "isVefa": false
      },
      {
        "date": "2020-10-08",
        "priceEur": 28000,
        "typeLocal": "Appartement",
        "surfaceM2": 35,
        "isVefa": false
      },
      {
        "date": "2020-10-08",
        "priceEur": 28000,
        "typeLocal": "Appartement",
        "surfaceM2": 25,
        "isVefa": false
      },
      {
        "date": "2020-10-08",
        "priceEur": 28000,
        "typeLocal": "Appartement",
        "surfaceM2": 37,
        "isVefa": false
      }
    ]
  },
  "66341aacf276": {
    "id": "66341aacf276",
    "label": "21 RUE DU ROC, Lodève",
    "lat": 43.725318,
    "lng": 3.313318,
    "transactions": [
      {
        "date": "2020-10-06",
        "priceEur": 175705,
        "typeLocal": "Maison",
        "surfaceM2": 95,
        "isVefa": false
      }
    ]
  },
  "ec3e9f4ab70d": {
    "id": "ec3e9f4ab70d",
    "label": "16B QUAI MEGISSERIE, Lodève",
    "lat": 43.729626,
    "lng": 3.315119,
    "transactions": [
      {
        "date": "2022-06-22",
        "priceEur": 228000,
        "typeLocal": "Maison",
        "surfaceM2": 240,
        "isVefa": false
      },
      {
        "date": "2020-10-22",
        "priceEur": 100000,
        "typeLocal": "Maison",
        "surfaceM2": 71,
        "isVefa": false
      }
    ]
  },
  "77034367fd0a": {
    "id": "77034367fd0a",
    "label": "5T IMP PALOC, Lodève",
    "lat": 43.730516,
    "lng": 3.316559,
    "transactions": [
      {
        "date": "2023-11-14",
        "priceEur": 139425,
        "typeLocal": "Maison",
        "surfaceM2": 55,
        "isVefa": false
      },
      {
        "date": "2020-12-28",
        "priceEur": 136000,
        "typeLocal": "Maison",
        "surfaceM2": 55,
        "isVefa": false
      }
    ]
  },
  "54987ab9c9cc": {
    "id": "54987ab9c9cc",
    "label": "78 CHE DES CAUSSES, Lodève",
    "lat": 43.727165,
    "lng": 3.314534,
    "transactions": [
      {
        "date": "2021-01-29",
        "priceEur": 232000,
        "typeLocal": "Maison",
        "surfaceM2": 140,
        "isVefa": false
      }
    ]
  },
  "88814808fd22": {
    "id": "88814808fd22",
    "label": "6 QUAI MEGISSERIE, Lodève",
    "lat": 43.729634,
    "lng": 3.316909,
    "transactions": [
      {
        "date": "2021-05-27",
        "priceEur": 144800,
        "typeLocal": "Appartement",
        "surfaceM2": 85,
        "isVefa": false
      },
      {
        "date": "2021-02-05",
        "priceEur": 145000,
        "typeLocal": "Maison",
        "surfaceM2": 93,
        "isVefa": false
      }
    ]
  },
  "004a48774a0e": {
    "id": "004a48774a0e",
    "label": "85 CHE DU CASTELLAS, Lodève",
    "lat": 43.725091,
    "lng": 3.316382,
    "transactions": [
      {
        "date": "2021-02-25",
        "priceEur": 266498,
        "typeLocal": "Maison",
        "surfaceM2": 76,
        "isVefa": false
      }
    ]
  },
  "21d6c4c74c5a": {
    "id": "21d6c4c74c5a",
    "label": "1 RUE DES OLIVIERS, Lodève",
    "lat": 43.728012,
    "lng": 3.316418,
    "transactions": [
      {
        "date": "2021-03-01",
        "priceEur": 259914,
        "typeLocal": "Maison",
        "surfaceM2": 108,
        "isVefa": false
      }
    ]
  },
  "c84a9d5242fe": {
    "id": "c84a9d5242fe",
    "label": "7 IMP PALOC, Lodève",
    "lat": 43.73063,
    "lng": 3.31666,
    "transactions": [
      {
        "date": "2023-05-04",
        "priceEur": 60000,
        "typeLocal": "Appartement",
        "surfaceM2": 44,
        "isVefa": false
      },
      {
        "date": "2021-03-05",
        "priceEur": 30000,
        "typeLocal": "Appartement",
        "surfaceM2": 33,
        "isVefa": false
      }
    ]
  },
  "64500a0cd565": {
    "id": "64500a0cd565",
    "label": "3 RUE MARTIN LAGARDE, Lodève",
    "lat": 43.731307,
    "lng": 3.316335,
    "transactions": [
      {
        "date": "2021-03-22",
        "priceEur": 26000,
        "typeLocal": "Appartement",
        "surfaceM2": 45,
        "isVefa": false
      }
    ]
  },
  "57e1239ab168": {
    "id": "57e1239ab168",
    "label": "3B QUAI MEGISSERIE, Lodève",
    "lat": 43.729535,
    "lng": 3.317774,
    "transactions": [
      {
        "date": "2025-05-12",
        "priceEur": 115000,
        "typeLocal": "Appartement",
        "surfaceM2": 90,
        "isVefa": false
      },
      {
        "date": "2021-04-22",
        "priceEur": 85000,
        "typeLocal": "Appartement",
        "surfaceM2": 30,
        "isVefa": false
      },
      {
        "date": "2021-04-22",
        "priceEur": 85000,
        "typeLocal": "Appartement",
        "surfaceM2": 35,
        "isVefa": false
      },
      {
        "date": "2021-04-22",
        "priceEur": 85000,
        "typeLocal": "Appartement",
        "surfaceM2": 49,
        "isVefa": false
      }
    ]
  },
  "fa6cd6c055f0": {
    "id": "fa6cd6c055f0",
    "label": "4 BD PASTEUR, Lodève",
    "lat": 43.73084,
    "lng": 3.317265,
    "transactions": [
      {
        "date": "2021-05-27",
        "priceEur": 104000,
        "typeLocal": "Appartement",
        "surfaceM2": 70,
        "isVefa": false
      },
      {
        "date": "2021-05-27",
        "priceEur": 104000,
        "typeLocal": "Appartement",
        "surfaceM2": 54,
        "isVefa": false
      }
    ]
  },
  "757b7d27bc69": {
    "id": "757b7d27bc69",
    "label": "38 LOT LA PINEDE, Lodève",
    "lat": 43.727408,
    "lng": 3.309035,
    "transactions": [
      {
        "date": "2021-08-17",
        "priceEur": 272600,
        "typeLocal": "Maison",
        "surfaceM2": 114,
        "isVefa": false
      }
    ]
  },
  "81beb047b7ba": {
    "id": "81beb047b7ba",
    "label": "1A RUE GARIBALDI, Lodève",
    "lat": 43.730886,
    "lng": 3.317238,
    "transactions": [
      {
        "date": "2021-10-12",
        "priceEur": 49000,
        "typeLocal": "Appartement",
        "surfaceM2": 70,
        "isVefa": false
      }
    ]
  },
  "f9be749fe23d": {
    "id": "f9be749fe23d",
    "label": "16 RUE DU ROC, Lodève",
    "lat": 43.725385,
    "lng": 3.312766,
    "transactions": [
      {
        "date": "2021-11-30",
        "priceEur": 130000,
        "typeLocal": "Maison",
        "surfaceM2": 113,
        "isVefa": false
      }
    ]
  },
  "80365debc5f6": {
    "id": "80365debc5f6",
    "label": "2 RUE TISSON, Lodève",
    "lat": 43.730478,
    "lng": 3.317319,
    "transactions": [
      {
        "date": "2021-12-08",
        "priceEur": 41000,
        "typeLocal": "Appartement",
        "surfaceM2": 66,
        "isVefa": false
      }
    ]
  },
  "6d4fab925d56": {
    "id": "6d4fab925d56",
    "label": "72 RUE DU MICOCOULIER, Lodève",
    "lat": 43.7268,
    "lng": 3.316951,
    "transactions": [
      {
        "date": "2022-01-10",
        "priceEur": 280900,
        "typeLocal": "Maison",
        "surfaceM2": 145,
        "isVefa": false
      }
    ]
  },
  "31e9825b08bd": {
    "id": "31e9825b08bd",
    "label": "4B RUE GARIBALDI, Lodève",
    "lat": 43.730976,
    "lng": 3.317469,
    "transactions": [
      {
        "date": "2022-01-21",
        "priceEur": 90000,
        "typeLocal": "Maison",
        "surfaceM2": 42,
        "isVefa": false
      }
    ]
  },
  "872007e6b896": {
    "id": "872007e6b896",
    "label": "9 RUE DU ROC, Lodève",
    "lat": 43.725313,
    "lng": 3.313661,
    "transactions": [
      {
        "date": "2022-03-11",
        "priceEur": 145000,
        "typeLocal": "Maison",
        "surfaceM2": 95,
        "isVefa": false
      }
    ]
  },
  "a4b6419822f9": {
    "id": "a4b6419822f9",
    "label": "16 BD PASTEUR, Lodève",
    "lat": 43.73127,
    "lng": 3.31623,
    "transactions": [
      {
        "date": "2022-07-13",
        "priceEur": 50000,
        "typeLocal": "Appartement",
        "surfaceM2": 70,
        "isVefa": false
      }
    ]
  },
  "a984288eb1dd": {
    "id": "a984288eb1dd",
    "label": "9 IMP PALOC, Lodève",
    "lat": 43.730783,
    "lng": 3.316749,
    "transactions": [
      {
        "date": "2022-07-22",
        "priceEur": 53200,
        "typeLocal": "Appartement",
        "surfaceM2": 55,
        "isVefa": false
      }
    ]
  },
  "b309a1b13ea3": {
    "id": "b309a1b13ea3",
    "label": "2 BD PASTEUR, Lodève",
    "lat": 43.730846,
    "lng": 3.317339,
    "transactions": [
      {
        "date": "2022-08-26",
        "priceEur": 145000,
        "typeLocal": "Maison",
        "surfaceM2": 100,
        "isVefa": false
      }
    ]
  },
  "2abee40cd4e7": {
    "id": "2abee40cd4e7",
    "label": "4T RUE GARIBALDI, Lodève",
    "lat": 43.73092,
    "lng": 3.31743,
    "transactions": [
      {
        "date": "2022-08-26",
        "priceEur": 131000,
        "typeLocal": "Maison",
        "surfaceM2": 88,
        "isVefa": false
      }
    ]
  },
  "ba5296a1bd18": {
    "id": "ba5296a1bd18",
    "label": "20 IMP DU THYM, Lodève",
    "lat": 43.725153,
    "lng": 3.313149,
    "transactions": [
      {
        "date": "2022-09-09",
        "priceEur": 212000,
        "typeLocal": "Maison",
        "surfaceM2": 90,
        "isVefa": false
      }
    ]
  },
  "c98aeecbd32d": {
    "id": "c98aeecbd32d",
    "label": "2 RUE D ALBAN, Lodève",
    "lat": 43.730474,
    "lng": 3.317417,
    "transactions": [
      {
        "date": "2022-09-08",
        "priceEur": 148000,
        "typeLocal": "Appartement",
        "surfaceM2": 48,
        "isVefa": false
      }
    ]
  },
  "2446fd44ca70": {
    "id": "2446fd44ca70",
    "label": "5B IMP PALOC, Lodève",
    "lat": 43.730449,
    "lng": 3.316625,
    "transactions": [
      {
        "date": "2024-02-23",
        "priceEur": 52000,
        "typeLocal": "Appartement",
        "surfaceM2": 38,
        "isVefa": false
      },
      {
        "date": "2023-06-13",
        "priceEur": 30000,
        "typeLocal": "Appartement",
        "surfaceM2": 25,
        "isVefa": false
      },
      {
        "date": "2022-10-12",
        "priceEur": 36000,
        "typeLocal": "Appartement",
        "surfaceM2": 38,
        "isVefa": false
      }
    ]
  },
  "24c5187c0046": {
    "id": "24c5187c0046",
    "label": "19 IMP DU THYM, Lodève",
    "lat": 43.725206,
    "lng": 3.312954,
    "transactions": [
      {
        "date": "2022-10-11",
        "priceEur": 215000,
        "typeLocal": "Maison",
        "surfaceM2": 113,
        "isVefa": false
      }
    ]
  },
  "c02e0b670f02": {
    "id": "c02e0b670f02",
    "label": "6T RUE GARIBALDI, Lodève",
    "lat": 43.731037,
    "lng": 3.317193,
    "transactions": [
      {
        "date": "2022-10-28",
        "priceEur": 104650,
        "typeLocal": "Maison",
        "surfaceM2": 70,
        "isVefa": false
      }
    ]
  },
  "e64e80945246": {
    "id": "e64e80945246",
    "label": "9012 CHE DE LA ROCHE TROUEE, Lodève",
    "lat": 43.729779,
    "lng": 3.309491,
    "transactions": [
      {
        "date": "2022-11-17",
        "priceEur": 80000,
        "typeLocal": "Maison",
        "surfaceM2": 49,
        "isVefa": false
      }
    ]
  },
  "8f42f14dbcf6": {
    "id": "8f42f14dbcf6",
    "label": "7 PL DE LA BOUQUERIE, Lodève",
    "lat": 43.730499,
    "lng": 3.317719,
    "transactions": [
      {
        "date": "2023-01-20",
        "priceEur": 170000,
        "typeLocal": "Appartement",
        "surfaceM2": 48,
        "isVefa": false
      },
      {
        "date": "2023-01-20",
        "priceEur": 170000,
        "typeLocal": "Appartement",
        "surfaceM2": 30,
        "isVefa": false
      }
    ]
  },
  "17776c111b11": {
    "id": "17776c111b11",
    "label": "25 IMP DES IRIS, Lodève",
    "lat": 43.724985,
    "lng": 3.313433,
    "transactions": [
      {
        "date": "2023-03-16",
        "priceEur": 217000,
        "typeLocal": "Maison",
        "surfaceM2": 95,
        "isVefa": false
      }
    ]
  },
  "aac6b68a2f75": {
    "id": "aac6b68a2f75",
    "label": "943 RTE D OLMET, Lodève",
    "lat": 43.723901,
    "lng": 3.315778,
    "transactions": [
      {
        "date": "2023-03-21",
        "priceEur": 292700,
        "typeLocal": "Maison",
        "surfaceM2": 106,
        "isVefa": false
      }
    ]
  },
  "c2e578339f36": {
    "id": "c2e578339f36",
    "label": "1 RUE GARIBALDI, Lodève",
    "lat": 43.730903,
    "lng": 3.317178,
    "transactions": [
      {
        "date": "2023-03-21",
        "priceEur": 42000,
        "typeLocal": "Appartement",
        "surfaceM2": 28,
        "isVefa": false
      }
    ]
  },
  "abd6f9a8c178": {
    "id": "abd6f9a8c178",
    "label": "33 CHE DES TINES, Lodève",
    "lat": 43.730094,
    "lng": 3.312252,
    "transactions": [
      {
        "date": "2023-03-20",
        "priceEur": 399000,
        "typeLocal": "Maison",
        "surfaceM2": 119,
        "isVefa": false
      }
    ]
  },
  "9868c4c77a8a": {
    "id": "9868c4c77a8a",
    "label": "6 RUE DU ROC, Lodève",
    "lat": 43.725482,
    "lng": 3.313414,
    "transactions": [
      {
        "date": "2023-03-30",
        "priceEur": 230000,
        "typeLocal": "Maison",
        "surfaceM2": 113,
        "isVefa": false
      }
    ]
  },
  "74f2bfc915ad": {
    "id": "74f2bfc915ad",
    "label": "3 RUE GARIBALDI, Lodève",
    "lat": 43.730949,
    "lng": 3.31708,
    "transactions": [
      {
        "date": "2023-07-04",
        "priceEur": 58000,
        "typeLocal": "Appartement",
        "surfaceM2": 80,
        "isVefa": false
      }
    ]
  },
  "38813aa72e38": {
    "id": "38813aa72e38",
    "label": "9 BD PASTEUR, Lodève",
    "lat": 43.730787,
    "lng": 3.316605,
    "transactions": [
      {
        "date": "2023-07-21",
        "priceEur": 120000,
        "typeLocal": "Appartement",
        "surfaceM2": 55,
        "isVefa": false
      },
      {
        "date": "2023-07-21",
        "priceEur": 120000,
        "typeLocal": "Appartement",
        "surfaceM2": 1,
        "isVefa": false
      },
      {
        "date": "2023-07-21",
        "priceEur": 120000,
        "typeLocal": "Appartement",
        "surfaceM2": 40,
        "isVefa": false
      }
    ]
  },
  "2f5da8b20a0e": {
    "id": "2f5da8b20a0e",
    "label": "16B CHE DES TINES, Lodève",
    "lat": 43.729575,
    "lng": 3.315326,
    "transactions": [
      {
        "date": "2023-07-26",
        "priceEur": 145000,
        "typeLocal": "Maison",
        "surfaceM2": 104,
        "isVefa": false
      }
    ]
  },
  "55a61127a8fc": {
    "id": "55a61127a8fc",
    "label": "41 LOT LA PINEDE, Lodève",
    "lat": 43.72685,
    "lng": 3.310157,
    "transactions": [
      {
        "date": "2023-09-14",
        "priceEur": 230000,
        "typeLocal": "Maison",
        "surfaceM2": 88,
        "isVefa": false
      }
    ]
  },
  "2d18f177eb9e": {
    "id": "2d18f177eb9e",
    "label": "23 RUE DU ROC, Lodève",
    "lat": 43.725175,
    "lng": 3.313482,
    "transactions": [
      {
        "date": "2024-04-12",
        "priceEur": 170000,
        "typeLocal": "Maison",
        "surfaceM2": 96,
        "isVefa": false
      }
    ]
  },
  "d98f05dc1bdf": {
    "id": "d98f05dc1bdf",
    "label": "719 RUE DES OLIVIERS, Lodève",
    "lat": 43.72751,
    "lng": 3.315908,
    "transactions": [
      {
        "date": "2024-06-07",
        "priceEur": 406283,
        "typeLocal": "Maison",
        "surfaceM2": 146,
        "isVefa": false
      }
    ]
  },
  "c50cf5f5532a": {
    "id": "c50cf5f5532a",
    "label": "19 RUE CAPISCOLAT, Lodève",
    "lat": 43.731188,
    "lng": 3.317328,
    "transactions": [
      {
        "date": "2024-06-20",
        "priceEur": 35000,
        "typeLocal": "Appartement",
        "surfaceM2": 31,
        "isVefa": false
      }
    ]
  },
  "c2ee22eaab74": {
    "id": "c2ee22eaab74",
    "label": "6 PL DE LA BOUQUERIE, Lodève",
    "lat": 43.730831,
    "lng": 3.317439,
    "transactions": [
      {
        "date": "2024-08-13",
        "priceEur": 70000,
        "typeLocal": "Appartement",
        "surfaceM2": 50,
        "isVefa": false
      },
      {
        "date": "2024-08-13",
        "priceEur": 70000,
        "typeLocal": "Appartement",
        "surfaceM2": 1,
        "isVefa": false
      },
      {
        "date": "2024-08-13",
        "priceEur": 70000,
        "typeLocal": "Appartement",
        "surfaceM2": 89,
        "isVefa": false
      }
    ]
  },
  "5f78fb9c0f97": {
    "id": "5f78fb9c0f97",
    "label": "44 LOT LA PINEDE, Lodève",
    "lat": 43.726228,
    "lng": 3.310421,
    "transactions": [
      {
        "date": "2024-09-16",
        "priceEur": 257500,
        "typeLocal": "Maison",
        "surfaceM2": 90,
        "isVefa": false
      }
    ]
  },
  "dc13ec4cf6a9": {
    "id": "dc13ec4cf6a9",
    "label": "8 RUE GAMBETTA, Lodève",
    "lat": 43.731102,
    "lng": 3.317178,
    "transactions": [
      {
        "date": "2025-04-11",
        "priceEur": 58000,
        "typeLocal": "Appartement",
        "surfaceM2": 44,
        "isVefa": false
      },
      {
        "date": "2024-10-03",
        "priceEur": 105000,
        "typeLocal": "Appartement",
        "surfaceM2": 55,
        "isVefa": false
      },
      {
        "date": "2024-10-03",
        "priceEur": 105000,
        "typeLocal": "Appartement",
        "surfaceM2": 48,
        "isVefa": false
      },
      {
        "date": "2024-10-03",
        "priceEur": 105000,
        "typeLocal": "Appartement",
        "surfaceM2": 1,
        "isVefa": false
      }
    ]
  },
  "2b2010ced655": {
    "id": "2b2010ced655",
    "label": "7 RUE GARIBALDI, Lodève",
    "lat": 43.73097,
    "lng": 3.31687,
    "transactions": [
      {
        "date": "2024-12-30",
        "priceEur": 100000,
        "typeLocal": "Appartement",
        "surfaceM2": 72,
        "isVefa": false
      }
    ]
  },
  "dfdf88cee10a": {
    "id": "dfdf88cee10a",
    "label": "5 RUE D ALBAN, Lodève",
    "lat": 43.730355,
    "lng": 3.316999,
    "transactions": [
      {
        "date": "2024-12-20",
        "priceEur": 70000,
        "typeLocal": "Appartement",
        "surfaceM2": 30,
        "isVefa": false
      }
    ]
  },
  "0d7d3cc40659": {
    "id": "0d7d3cc40659",
    "label": "3 RUE D ALBAN, Lodève",
    "lat": 43.730348,
    "lng": 3.317093,
    "transactions": [
      {
        "date": "2024-12-20",
        "priceEur": 70000,
        "typeLocal": "Appartement",
        "surfaceM2": 44,
        "isVefa": false
      }
    ]
  },
  "4accd0ecf68b": {
    "id": "4accd0ecf68b",
    "label": "17 IMP DU THYM, Lodève",
    "lat": 43.725428,
    "lng": 3.313042,
    "transactions": [
      {
        "date": "2025-06-23",
        "priceEur": 274700,
        "typeLocal": "Maison",
        "surfaceM2": 110,
        "isVefa": false
      }
    ]
  }
}