{
  "0d78a47b3995": {
    "id": "0d78a47b3995",
    "label": "89 RUE JEAN JAURES, Mons-en-Barœul",
    "lat": 50.641148,
    "lng": 3.104766,
    "transactions": [
      {
        "date": "2020-07-27",
        "priceEur": 304000,
        "typeLocal": "Maison",
        "surfaceM2": 145,
        "isVefa": false
      }
    ]
  },
  "3932be87f95b": {
    "id": "3932be87f95b",
    "label": "43 RUE DU MARECHAL LYAUTEY, Mons-en-Barœul",
    "lat": 50.641713,
    "lng": 3.107479,
    "transactions": [
      {
        "date": "2025-04-30",
        "priceEur": 139000,
        "typeLocal": "Appartement",
        "surfaceM2": 82,
        "isVefa": false
      },
      {
        "date": "2025-04-29",
        "priceEur": 127500,
        "typeLocal": "Appartement",
        "surfaceM2": 82,
        "isVefa": false
      },
      {
        "date": "2025-04-11",
        "priceEur": 115500,
        "typeLocal": "Appartement",
        "surfaceM2": 82,
        "isVefa": false
      },
      {
        "date": "2025-04-01",
        "priceEur": 92000,
        "typeLocal": "Appartement",
        "surfaceM2": 69,
        "isVefa": false
      },
      {
        "date": "2025-03-14",
        "priceEur": 90000,
        "typeLocal": "Appartement",
        "surfaceM2": 63,
        "isVefa": false
      },
      {
        "date": "2025-01-30",
        "priceEur": 102000,
        "typeLocal": "Appartement",
        "surfaceM2": 82,
        "isVefa": false
      },
      {
        "date": "2025-01-16",
        "priceEur": 76000,
        "typeLocal": "Appartement",
        "surfaceM2": 61,
        "isVefa": false
      },
      {
        "date": "2024-12-27",
        "priceEur": 75000,
        "typeLocal": "Appartement",
        "surfaceM2": 82,
        "isVefa": false
      },
      {
        "date": "2024-12-05",
        "priceEur": 102600,
        "typeLocal": "Appartement",
        "surfaceM2": 63,
        "isVefa": false
      },
      {
        "date": "2024-10-29",
        "priceEur": 106000,
        "typeLocal": "Appartement",
        "surfaceM2": 63,
        "isVefa": false
      },
      {
        "date": "2024-10-07",
        "priceEur": 100000,
        "typeLocal": "Appartement",
        "surfaceM2": 69,
        "isVefa": false
      },
      {
        "date": "2024-06-13",
        "priceEur": 134400,
        "typeLocal": "Appartement",
        "surfaceM2": 82,
        "isVefa": false
      },
      {
        "date": "2024-01-10",
        "priceEur": 106000,
        "typeLocal": "Appartement",
        "surfaceM2": 63,
        "isVefa": false
      },
      {
        "date": "2023-12-27",
        "priceEur": 105700,
        "typeLocal": "Appartement",
        "surfaceM2": 69,
        "isVefa": false
      },
      {
        "date": "2023-08-25",
        "priceEur": 108000,
        "typeLocal": "Appartement",
        "surfaceM2": 63,
        "isVefa": false
      },
      {
        "date": "2023-07-25",
        "priceEur": 113800,
        "typeLocal": "Appartement",
        "surfaceM2": 63,
        "isVefa": false
      },
      {
        "date": "2023-07-07",
        "priceEur": 100000,
        "typeLocal": "Appartement",
        "surfaceM2": 82,
        "isVefa": false
      },
      {
        "date": "2023-04-18",
        "priceEur": 111000,
        "typeLocal": "Appartement",
        "surfaceM2": 63,
        "isVefa": false
      },
      {
        "date": "2023-01-19",
        "priceEur": 149000,
        "typeLocal": "Appartement",
        "surfaceM2": 82,
        "isVefa": false
      },
      {
        "date": "2023-01-18",
        "priceEur": 99650,
        "typeLocal": "Appartement",
        "surfaceM2": 63,
        "isVefa": false
      },
      {
        "date": "2023-01-11",
        "priceEur": 66080,
        "typeLocal": "Appartement",
        "surfaceM2": 82,
        "isVefa": false
      },
      {
        "date": "2022-12-27",
        "priceEur": 100000,
        "typeLocal": "Appartement",
        "surfaceM2": 82,
        "isVefa": false
      },
      {
        "date": "2022-07-01",
        "priceEur": 113000,
        "typeLocal": "Appartement",
        "surfaceM2": 63,
        "isVefa": false
      },
      {
        "date": "2022-06-03",
        "priceEur": 104750,
        "typeLocal": "Appartement",
        "surfaceM2": 63,
        "isVefa": false
      },
      {
        "date": "2022-06-01",
        "priceEur": 104000,
        "typeLocal": "Appartement",
        "surfaceM2": 69,
        "isVefa": false
      },
      {
        "date": "2022-05-06",
        "priceEur": 115000,
        "typeLocal": "Appartement",
        "surfaceM2": 63,
        "isVefa": false
      },
      {
        "date": "2022-02-23",
        "priceEur": 106000,
        "typeLocal": "Appartement",
        "surfaceM2": 82,
        "isVefa": false
      },
      {
        "date": "2021-09-03",
        "priceEur": 124000,
        "typeLocal": "Appartement",
        "surfaceM2": 82,
        "isVefa": false
      },
      {
        "date": "2021-09-01",
        "priceEur": 110000,
        "typeLocal": "Appartement",
        "surfaceM2": 63,
        "isVefa": false
      },
      {
        "date": "2021-08-24",
        "priceEur": 134000,
        "typeLocal": "Appartement",
        "surfaceM2": 82,
        "isVefa": false
      },
      {
        "date": "2021-06-15",
        "priceEur": 120000,
        "typeLocal": "Appartement",
        "surfaceM2": 82,
        "isVefa": false
      },
      {
        "date": "2021-01-14",
        "priceEur": 95000,
        "typeLocal": "Appartement",
        "surfaceM2": 63,
        "isVefa": false
      },
      {
        "date": "2020-07-30",
        "priceEur": 84600,
        "typeLocal": "Appartement",
        "surfaceM2": 69,
        "isVefa": false
      }
    ]
  },
  "ed25eca43cee": {
    "id": "ed25eca43cee",
    "label": "154 RUE DU GENERAL DE GAULLE, Mons-en-Barœul",
    "lat": 50.645623,
    "lng": 3.103783,
    "transactions": [
      {
        "date": "2020-07-23",
        "priceEur": 434500,
        "typeLocal": "Maison",
        "surfaceM2": 125,
        "isVefa": false
      }
    ]
  },
  "5b1cda2da1fa": {
    "id": "5b1cda2da1fa",
    "label": "128 RUE PARMENTIER, Mons-en-Barœul",
    "lat": 50.643913,
    "lng": 3.108932,
    "transactions": [
      {
        "date": "2020-08-07",
        "priceEur": 230000,
        "typeLocal": "Maison",
        "surfaceM2": 85,
        "isVefa": false
      }
    ]
  },
  "62f31c8dd1e6": {
    "id": "62f31c8dd1e6",
    "label": "8 RUE FLORIMOND DELEMER, Mons-en-Barœul",
    "lat": 50.645241,
    "lng": 3.103204,
    "transactions": [
      {
        "date": "2020-07-30",
        "priceEur": 246200,
        "typeLocal": "Maison",
        "surfaceM2": 70,
        "isVefa": false
      }
    ]
  },
  "62c082d15840": {
    "id": "62c082d15840",
    "label": "102 RUE MARCEL PINCHON, Mons-en-Barœul",
    "lat": 50.639517,
    "lng": 3.102101,
    "transactions": [
      {
        "date": "2020-08-21",
        "priceEur": 194590,
        "typeLocal": "Maison",
        "surfaceM2": 68,
        "isVefa": false
      }
    ]
  },
  "90dbe41d495d": {
    "id": "90dbe41d495d",
    "label": "27 RUE DU MARECHAL LYAUTEY, Mons-en-Barœul",
    "lat": 50.641713,
    "lng": 3.107479,
    "transactions": [
      {
        "date": "2025-02-28",
        "priceEur": 118450,
        "typeLocal": "Appartement",
        "surfaceM2": 63,
        "isVefa": false
      },
      {
        "date": "2024-12-10",
        "priceEur": 110800,
        "typeLocal": "Appartement",
        "surfaceM2": 69,
        "isVefa": false
      },
      {
        "date": "2024-11-08",
        "priceEur": 84000,
        "typeLocal": "Appartement",
        "surfaceM2": 63,
        "isVefa": false
      },
      {
        "date": "2024-09-09",
        "priceEur": 127600,
        "typeLocal": "Appartement",
        "surfaceM2": 82,
        "isVefa": false
      },
      {
        "date": "2023-12-21",
        "priceEur": 98000,
        "typeLocal": "Appartement",
        "surfaceM2": 82,
        "isVefa": false
      },
      {
        "date": "2023-10-20",
        "priceEur": 106000,
        "typeLocal": "Appartement",
        "surfaceM2": 63,
        "isVefa": false
      },
      {
        "date": "2023-07-13",
        "priceEur": 115000,
        "typeLocal": "Appartement",
        "surfaceM2": 82,
        "isVefa": false
      },
      {
        "date": "2023-04-27",
        "priceEur": 125000,
        "typeLocal": "Appartement",
        "surfaceM2": 82,
        "isVefa": false
      },
      {
        "date": "2023-03-21",
        "priceEur": 126300,
        "typeLocal": "Appartement",
        "surfaceM2": 82,
        "isVefa": false
      },
      {
        "date": "2022-05-24",
        "priceEur": 116500,
        "typeLocal": "Appartement",
        "surfaceM2": 69,
        "isVefa": false
      },
      {
        "date": "2022-05-18",
        "priceEur": 120630,
        "typeLocal": "Appartement",
        "surfaceM2": 69,
        "isVefa": false
      },
      {
        "date": "2022-04-15",
        "priceEur": 112950,
        "typeLocal": "Appartement",
        "surfaceM2": 69,
        "isVefa": false
      },
      {
        "date": "2022-03-18",
        "priceEur": 122000,
        "typeLocal": "Appartement",
        "surfaceM2": 63,
        "isVefa": false
      },
      {
        "date": "2021-10-29",
        "priceEur": 133000,
        "typeLocal": "Appartement",
        "surfaceM2": 82,
        "isVefa": false
      },
      {
        "date": "2021-10-29",
        "priceEur": 120000,
        "typeLocal": "Appartement",
        "surfaceM2": 69,
        "isVefa": false
      },
      {
        "date": "2021-10-25",
        "priceEur": 134250,
        "typeLocal": "Appartement",
        "surfaceM2": 69,
        "isVefa": false
      },
      {
        "date": "2021-07-09",
        "priceEur": 114000,
        "typeLocal": "Appartement",
        "surfaceM2": 63,
        "isVefa": false
      },
      {
        "date": "2021-06-15",
        "priceEur": 136500,
        "typeLocal": "Appartement",
        "surfaceM2": 63,
        "isVefa": false
      },
      {
        "date": "2021-06-03",
        "priceEur": 133000,
        "typeLocal": "Appartement",
        "surfaceM2": 82,
        "isVefa": false
      },
      {
        "date": "2021-04-26",
        "priceEur": 154900,
        "typeLocal": "Appartement",
        "surfaceM2": 82,
        "isVefa": false
      },
      {
        "date": "2020-11-20",
        "priceEur": 113000,
        "typeLocal": "Appartement",
        "surfaceM2": 63,
        "isVefa": false
      },
      {
        "date": "2020-10-23",
        "priceEur": 130000,
        "typeLocal": "Appartement",
        "surfaceM2": 82,
        "isVefa": false
      },
      {
        "date": "2020-09-15",
        "priceEur": 102240,
        "typeLocal": "Appartement",
        "surfaceM2": 63,
        "isVefa": false
      },
      {
        "date": "2020-07-31",
        "priceEur": 113500,
        "typeLocal": "Appartement",
        "surfaceM2": 82,
        "isVefa": false
      }
    ]
  },
  "21437587520a": {
    "id": "21437587520a",
    "label": "53 RUE DU MARECHAL LYAUTEY, Mons-en-Barœul",
    "lat": 50.641713,
    "lng": 3.107479,
    "transactions": [
      {
        "date": "2024-02-14",
        "priceEur": 117000,
        "typeLocal": "Appartement",
        "surfaceM2": 82,
        "isVefa": false
      },
      {
        "date": "2023-07-07",
        "priceEur": 98000,
        "typeLocal": "Appartement",
        "surfaceM2": 63,
        "isVefa": false
      },
      {
        "date": "2023-04-03",
        "priceEur": 124950,
        "typeLocal": "Appartement",
        "surfaceM2": 82,
        "isVefa": false
      },
      {
        "date": "2022-12-29",
        "priceEur": 108480,
        "typeLocal": "Appartement",
        "surfaceM2": 69,
        "isVefa": false
      },
      {
        "date": "2022-09-21",
        "priceEur": 94620,
        "typeLocal": "Appartement",
        "surfaceM2": 63,
        "isVefa": false
      },
      {
        "date": "2022-05-06",
        "priceEur": 140000,
        "typeLocal": "Appartement",
        "surfaceM2": 82,
        "isVefa": false
      },
      {
        "date": "2022-03-11",
        "priceEur": 120000,
        "typeLocal": "Appartement",
        "surfaceM2": 82,
        "isVefa": false
      },
      {
        "date": "2022-02-18",
        "priceEur": 100000,
        "typeLocal": "Appartement",
        "surfaceM2": 63,
        "isVefa": false
      },
      {
        "date": "2021-11-26",
        "priceEur": 139500,
        "typeLocal": "Appartement",
        "surfaceM2": 82,
        "isVefa": false
      },
      {
        "date": "2021-10-14",
        "priceEur": 135000,
        "typeLocal": "Appartement",
        "surfaceM2": 82,
        "isVefa": false
      },
      {
        "date": "2021-08-05",
        "priceEur": 113000,
        "typeLocal": "Appartement",
        "surfaceM2": 82,
        "isVefa": false
      },
      {
        "date": "2021-07-28",
        "priceEur": 123000,
        "typeLocal": "Appartement",
        "surfaceM2": 63,
        "isVefa": false
      },
      {
        "date": "2021-06-21",
        "priceEur": 110200,
        "typeLocal": "Appartement",
        "surfaceM2": 82,
        "isVefa": false
      },
      {
        "date": "2021-06-16",
        "priceEur": 115000,
        "typeLocal": "Appartement",
        "surfaceM2": 63,
        "isVefa": false
      },
      {
        "date": "2021-04-13",
        "priceEur": 95000,
        "typeLocal": "Appartement",
        "surfaceM2": 63,
        "isVefa": false
      },
      {
        "date": "2021-01-20",
        "priceEur": 116500,
        "typeLocal": "Appartement",
        "surfaceM2": 63,
        "isVefa": false
      },
      {
        "date": "2020-12-18",
        "priceEur": 105000,
        "typeLocal": "Appartement",
        "surfaceM2": 69,
        "isVefa": false
      },
      {
        "date": "2020-07-31",
        "priceEur": 106000,
        "typeLocal": "Appartement",
        "surfaceM2": 69,
        "isVefa": false
      }
    ]
  },
  "cd153022cdc5": {
    "id": "cd153022cdc5",
    "label": "145 RUE JEAN JAURES, Mons-en-Barœul",
    "lat": 50.639512,
    "lng": 3.105844,
    "transactions": [
      {
        "date": "2020-09-10",
        "priceEur": 231000,
        "typeLocal": "Maison",
        "surfaceM2": 92,
        "isVefa": false
      }
    ]
  },
  "a7b17bf2a360": {
    "id": "a7b17bf2a360",
    "label": "47 RUE HECTOR BERLIOZ, Mons-en-Barœul",
    "lat": 50.640915,
    "lng": 3.103737,
    "transactions": [
      {
        "date": "2020-09-15",
        "priceEur": 201690,
        "typeLocal": "Maison",
        "surfaceM2": 78,
        "isVefa": false
      }
    ]
  },
  "93d75ddab4ec": {
    "id": "93d75ddab4ec",
    "label": "104 RUE PARMENTIER, Mons-en-Barœul",
    "lat": 50.643853,
    "lng": 3.107876,
    "transactions": [
      {
        "date": "2020-08-27",
        "priceEur": 185000,
        "typeLocal": "Maison",
        "surfaceM2": 85,
        "isVefa": false
      }
    ]
  },
  "eaec6e397ffe": {
    "id": "eaec6e397ffe",
    "label": "13 RUE DU MARECHAL LYAUTEY, Mons-en-Barœul",
    "lat": 50.641713,
    "lng": 3.107479,
    "transactions": [
      {
        "date": "2024-12-16",
        "priceEur": 95000,
        "typeLocal": "Appartement",
        "surfaceM2": 63,
        "isVefa": false
      },
      {
        "date": "2024-06-19",
        "priceEur": 103000,
        "typeLocal": "Appartement",
        "surfaceM2": 82,
        "isVefa": false
      },
      {
        "date": "2024-05-14",
        "priceEur": 92850,
        "typeLocal": "Appartement",
        "surfaceM2": 82,
        "isVefa": false
      },
      {
        "date": "2023-07-27",
        "priceEur": 130000,
        "typeLocal": "Appartement",
        "surfaceM2": 82,
        "isVefa": false
      },
      {
        "date": "2023-04-04",
        "priceEur": 134500,
        "typeLocal": "Appartement",
        "surfaceM2": 82,
        "isVefa": false
      },
      {
        "date": "2023-01-26",
        "priceEur": 140000,
        "typeLocal": "Appartement",
        "surfaceM2": 63,
        "isVefa": false
      },
      {
        "date": "2022-11-04",
        "priceEur": 98500,
        "typeLocal": "Appartement",
        "surfaceM2": 63,
        "isVefa": false
      },
      {
        "date": "2022-09-01",
        "priceEur": 128000,
        "typeLocal": "Appartement",
        "surfaceM2": 69,
        "isVefa": false
      },
      {
        "date": "2022-08-19",
        "priceEur": 109000,
        "typeLocal": "Appartement",
        "surfaceM2": 69,
        "isVefa": false
      },
      {
        "date": "2022-08-16",
        "priceEur": 115000,
        "typeLocal": "Appartement",
        "surfaceM2": 82,
        "isVefa": false
      },
      {
        "date": "2022-08-04",
        "priceEur": 81000,
        "typeLocal": "Appartement",
        "surfaceM2": 69,
        "isVefa": false
      },
      {
        "date": "2022-08-04",
        "priceEur": 81000,
        "typeLocal": "Appartement",
        "surfaceM2": 63,
        "isVefa": false
      },
      {
        "date": "2022-07-27",
        "priceEur": 124000,
        "typeLocal": "Appartement",
        "surfaceM2": 69,
        "isVefa": false
      },
      {
        "date": "2022-05-23",
        "priceEur": 126000,
        "typeLocal": "Appartement",
        "surfaceM2": 63,
        "isVefa": false
      },
      {
        "date": "2022-03-11",
        "priceEur": 125000,
        "typeLocal": "Appartement",
        "surfaceM2": 69,
        "isVefa": false
      },
      {
        "date": "2021-12-08",
        "priceEur": 137000,
        "typeLocal": "Appartement",
        "surfaceM2": 63,
        "isVefa": false
      },
      {
        "date": "2021-11-17",
        "priceEur": 133000,
        "typeLocal": "Appartement",
        "surfaceM2": 82,
        "isVefa": false
      },
      {
        "date": "2021-11-05",
        "priceEur": 155000,
        "typeLocal": "Appartement",
        "surfaceM2": 82,
        "isVefa": false
      },
      {
        "date": "2021-10-01",
        "priceEur": 105000,
        "typeLocal": "Appartement",
        "surfaceM2": 63,
        "isVefa": false
      },
      {
        "date": "2021-09-30",
        "priceEur": 132480,
        "typeLocal": "Appartement",
        "surfaceM2": 82,
        "isVefa": false
      },
      {
        "date": "2021-09-30",
        "priceEur": 120000,
        "typeLocal": "Appartement",
        "surfaceM2": 69,
        "isVefa": false
      },
      {
        "date": "2021-04-16",
        "priceEur": 123500,
        "typeLocal": "Appartement",
        "surfaceM2": 69,
        "isVefa": false
      },
      {
        "date": "2021-01-26",
        "priceEur": 124700,
        "typeLocal": "Appartement",
        "surfaceM2": 63,
        "isVefa": false
      },
      {
        "date": "2020-10-14",
        "priceEur": 110000,
        "typeLocal": "Appartement",
        "surfaceM2": 82,
        "isVefa": false
      },
      {
        "date": "2020-10-14",
        "priceEur": 79000,
        "typeLocal": "Appartement",
        "surfaceM2": 63,
        "isVefa": false
      },
      {
        "date": "2020-09-24",
        "priceEur": 115000,
        "typeLocal": "Appartement",
        "surfaceM2": 82,
        "isVefa": false
      }
    ]
  },
  "af13fa35440b": {
    "id": "af13fa35440b",
    "label": "11 ALL CHARLES PEGUY, Mons-en-Barœul",
    "lat": 50.640078,
    "lng": 3.099265,
    "transactions": [
      {
        "date": "2023-07-10",
        "priceEur": 261000,
        "typeLocal": "Maison",
        "surfaceM2": 70,
        "isVefa": false
      },
      {
        "date": "2020-09-28",
        "priceEur": 221900,
        "typeLocal": "Maison",
        "surfaceM2": 70,
        "isVefa": false
      }
    ]
  },
  "fc1caa0b288b": {
    "id": "fc1caa0b288b",
    "label": "54 RUE HECTOR BERLIOZ, Mons-en-Barœul",
    "lat": 50.640536,
    "lng": 3.103308,
    "transactions": [
      {
        "date": "2020-09-18",
        "priceEur": 230000,
        "typeLocal": "Maison",
        "surfaceM2": 76,
        "isVefa": false
      }
    ]
  },
  "4c0fcd0792b6": {
    "id": "4c0fcd0792b6",
    "label": "28 AV ROBERT SCHUMAN, Mons-en-Barœul",
    "lat": 50.641713,
    "lng": 3.107479,
    "transactions": [
      {
        "date": "2025-03-14",
        "priceEur": 140000,
        "typeLocal": "Appartement",
        "surfaceM2": 88,
        "isVefa": false
      },
      {
        "date": "2024-05-21",
        "priceEur": 110500,
        "typeLocal": "Appartement",
        "surfaceM2": 88,
        "isVefa": false
      },
      {
        "date": "2023-12-19",
        "priceEur": 119000,
        "typeLocal": "Appartement",
        "surfaceM2": 72,
        "isVefa": false
      },
      {
        "date": "2022-12-07",
        "priceEur": 81600,
        "typeLocal": "Appartement",
        "surfaceM2": 48,
        "isVefa": false
      },
      {
        "date": "2022-05-16",
        "priceEur": 125000,
        "typeLocal": "Appartement",
        "surfaceM2": 72,
        "isVefa": false
      },
      {
        "date": "2021-04-13",
        "priceEur": 118700,
        "typeLocal": "Appartement",
        "surfaceM2": 72,
        "isVefa": false
      },
      {
        "date": "2020-10-08",
        "priceEur": 108000,
        "typeLocal": "Appartement",
        "surfaceM2": 72,
        "isVefa": false
      }
    ]
  },
  "18de6c7d36a7": {
    "id": "18de6c7d36a7",
    "label": "1 RUE JEAN JAURES, Mons-en-Barœul",
    "lat": 50.64315,
    "lng": 3.103007,
    "transactions": [
      {
        "date": "2020-10-20",
        "priceEur": 156900,
        "typeLocal": "Maison",
        "surfaceM2": 64,
        "isVefa": false
      }
    ]
  },
  "15a1bff290de": {
    "id": "15a1bff290de",
    "label": "1 AV DE LA LIBERTE, Mons-en-Barœul",
    "lat": 50.643483,
    "lng": 3.104642,
    "transactions": [
      {
        "date": "2024-10-07",
        "priceEur": 475000,
        "typeLocal": "Maison",
        "surfaceM2": 109,
        "isVefa": false
      },
      {
        "date": "2020-10-15",
        "priceEur": 431500,
        "typeLocal": "Maison",
        "surfaceM2": 109,
        "isVefa": false
      }
    ]
  },
  "18aaef8b8919": {
    "id": "18aaef8b8919",
    "label": "127 RUE PARMENTIER, Mons-en-Barœul",
    "lat": 50.644249,
    "lng": 3.108598,
    "transactions": [
      {
        "date": "2020-10-14",
        "priceEur": 288000,
        "typeLocal": "Maison",
        "surfaceM2": 85,
        "isVefa": false
      }
    ]
  },
  "e360b6273ae0": {
    "id": "e360b6273ae0",
    "label": "103 RUE JEAN JAURES, Mons-en-Barœul",
    "lat": 50.641028,
    "lng": 3.104759,
    "transactions": [
      {
        "date": "2025-04-16",
        "priceEur": 136000,
        "typeLocal": "Appartement",
        "surfaceM2": 45,
        "isVefa": false
      },
      {
        "date": "2025-02-24",
        "priceEur": 133800,
        "typeLocal": "Appartement",
        "surfaceM2": 42,
        "isVefa": false
      },
      {
        "date": "2023-09-15",
        "priceEur": 136000,
        "typeLocal": "Appartement",
        "surfaceM2": 44,
        "isVefa": false
      },
      {
        "date": "2023-01-31",
        "priceEur": 182000,
        "typeLocal": "Appartement",
        "surfaceM2": 57,
        "isVefa": false
      },
      {
        "date": "2020-10-12",
        "priceEur": 135850,
        "typeLocal": "Appartement",
        "surfaceM2": 45,
        "isVefa": false
      }
    ]
  },
  "a2317209733b": {
    "id": "a2317209733b",
    "label": "83 RUE JEAN JACQUES ROUSSEAU, Mons-en-Barœul",
    "lat": 50.639936,
    "lng": 3.101263,
    "transactions": [
      {
        "date": "2020-10-15",
        "priceEur": 190000,
        "typeLocal": "Maison",
        "surfaceM2": 75,
        "isVefa": false
      }
    ]
  },
  "a869e1b66fb5": {
    "id": "a869e1b66fb5",
    "label": "28 RUE EDOUARD LALO, Mons-en-Barœul",
    "lat": 50.639566,
    "lng": 3.103395,
    "transactions": [
      {
        "date": "2020-10-15",
        "priceEur": 190700,
        "typeLocal": "Maison",
        "surfaceM2": 76,
        "isVefa": false
      }
    ]
  },
  "02cec3b6f3f3": {
    "id": "02cec3b6f3f3",
    "label": "1 RUE DU MARECHAL LYAUTEY, Mons-en-Barœul",
    "lat": 50.641713,
    "lng": 3.107479,
    "transactions": [
      {
        "date": "2024-12-19",
        "priceEur": 85000,
        "typeLocal": "Appartement",
        "surfaceM2": 48,
        "isVefa": false
      },
      {
        "date": "2024-10-31",
        "priceEur": 161800,
        "typeLocal": "Appartement",
        "surfaceM2": 88,
        "isVefa": false
      },
      {
        "date": "2023-02-17",
        "priceEur": 99000,
        "typeLocal": "Appartement",
        "surfaceM2": 48,
        "isVefa": false
      },
      {
        "date": "2022-12-22",
        "priceEur": 92000,
        "typeLocal": "Appartement",
        "surfaceM2": 48,
        "isVefa": false
      },
      {
        "date": "2022-07-11",
        "priceEur": 131500,
        "typeLocal": "Appartement",
        "surfaceM2": 72,
        "isVefa": false
      },
      {
        "date": "2021-06-18",
        "priceEur": 127000,
        "typeLocal": "Appartement",
        "surfaceM2": 72,
        "isVefa": false
      },
      {
        "date": "2020-10-23",
        "priceEur": 89000,
        "typeLocal": "Appartement",
        "surfaceM2": 48,
        "isVefa": false
      }
    ]
  },
  "7f5d5a33e2b9": {
    "id": "7f5d5a33e2b9",
    "label": "24 RUE MARCEL MONNIER, Mons-en-Barœul",
    "lat": 50.643622,
    "lng": 3.106189,
    "transactions": [
      {
        "date": "2020-10-16",
        "priceEur": 194000,
        "typeLocal": "Maison",
        "surfaceM2": 98,
        "isVefa": false
      }
    ]
  },
  "a2df08054a02": {
    "id": "a2df08054a02",
    "label": "124 RUE PARMENTIER, Mons-en-Barœul",
    "lat": 50.643913,
    "lng": 3.108752,
    "transactions": [
      {
        "date": "2020-10-26",
        "priceEur": 238500,
        "typeLocal": "Maison",
        "surfaceM2": 110,
        "isVefa": false
      }
    ]
  },
  "79446be115c9": {
    "id": "79446be115c9",
    "label": "162 RUE DU GENERAL DE GAULLE, Mons-en-Barœul",
    "lat": 50.645825,
    "lng": 3.104246,
    "transactions": [
      {
        "date": "2020-11-12",
        "priceEur": 498000,
        "typeLocal": "Maison",
        "surfaceM2": 150,
        "isVefa": false
      }
    ]
  },
  "8c4c82db4b0e": {
    "id": "8c4c82db4b0e",
    "label": "98 RUE MARCEL PINCHON, Mons-en-Barœul",
    "lat": 50.639605,
    "lng": 3.102074,
    "transactions": [
      {
        "date": "2022-12-01",
        "priceEur": 243000,
        "typeLocal": "Maison",
        "surfaceM2": 68,
        "isVefa": false
      },
      {
        "date": "2020-10-29",
        "priceEur": 193400,
        "typeLocal": "Maison",
        "surfaceM2": 68,
        "isVefa": false
      }
    ]
  },
  "fa7e7e15af4e": {
    "id": "fa7e7e15af4e",
    "label": "3 RUE HECTOR BERLIOZ, Mons-en-Barœul",
    "lat": 50.641922,
    "lng": 3.10293,
    "transactions": [
      {
        "date": "2020-11-13",
        "priceEur": 190500,
        "typeLocal": "Maison",
        "surfaceM2": 76,
        "isVefa": false
      }
    ]
  },
  "1e07e5b2d6f0": {
    "id": "1e07e5b2d6f0",
    "label": "18 AV DESROUSSEAUX, Mons-en-Barœul",
    "lat": 50.643874,
    "lng": 3.103156,
    "transactions": [
      {
        "date": "2020-11-02",
        "priceEur": 138000,
        "typeLocal": "Maison",
        "surfaceM2": 71,
        "isVefa": false
      }
    ]
  },
  "86183045403f": {
    "id": "86183045403f",
    "label": "22 AV DE LA LIBERTE, Mons-en-Barœul",
    "lat": 50.642812,
    "lng": 3.104346,
    "transactions": [
      {
        "date": "2020-11-27",
        "priceEur": 342000,
        "typeLocal": "Maison",
        "surfaceM2": 159,
        "isVefa": false
      }
    ]
  },
  "2ea7c44ad31f": {
    "id": "2ea7c44ad31f",
    "label": "46 AV ROBERT SCHUMAN, Mons-en-Barœul",
    "lat": 50.641713,
    "lng": 3.107479,
    "transactions": [
      {
        "date": "2022-03-30",
        "priceEur": 72900,
        "typeLocal": "Appartement",
        "surfaceM2": 48,
        "isVefa": false
      },
      {
        "date": "2020-12-04",
        "priceEur": 108350,
        "typeLocal": "Appartement",
        "surfaceM2": 48,
        "isVefa": false
      }
    ]
  },
  "4763d738adf6": {
    "id": "4763d738adf6",
    "label": "13 RUE HECTOR BERLIOZ, Mons-en-Barœul",
    "lat": 50.641689,
    "lng": 3.103133,
    "transactions": [
      {
        "date": "2020-12-15",
        "priceEur": 224500,
        "typeLocal": "Maison",
        "surfaceM2": 76,
        "isVefa": false
      }
    ]
  },
  "fe5719e907b8": {
    "id": "fe5719e907b8",
    "label": "82 RUE JEAN JAURES, Mons-en-Barœul",
    "lat": 50.641093,
    "lng": 3.10403,
    "transactions": [
      {
        "date": "2023-02-27",
        "priceEur": 286500,
        "typeLocal": "Maison",
        "surfaceM2": 92,
        "isVefa": false
      },
      {
        "date": "2020-12-16",
        "priceEur": 242900,
        "typeLocal": "Maison",
        "surfaceM2": 92,
        "isVefa": false
      }
    ]
  },
  "8262703d2b4c": {
    "id": "8262703d2b4c",
    "label": "33 RUE FLORIMOND DELEMER, Mons-en-Barœul",
    "lat": 50.644935,
    "lng": 3.103822,
    "transactions": [
      {
        "date": "2020-12-22",
        "priceEur": 364000,
        "typeLocal": "Maison",
        "surfaceM2": 102,
        "isVefa": false
      }
    ]
  },
  "78813a0820b5": {
    "id": "78813a0820b5",
    "label": "119 RUE HECTOR BERLIOZ, Mons-en-Barœul",
    "lat": 50.639208,
    "lng": 3.104762,
    "transactions": [
      {
        "date": "2023-03-09",
        "priceEur": 172000,
        "typeLocal": "Maison",
        "surfaceM2": 45,
        "isVefa": false
      },
      {
        "date": "2020-12-23",
        "priceEur": 158859,
        "typeLocal": "Maison",
        "surfaceM2": 45,
        "isVefa": false
      }
    ]
  },
  "8a0cfa6bd7ea": {
    "id": "8a0cfa6bd7ea",
    "label": "37 RUE FLORIMOND DELEMER, Mons-en-Barœul",
    "lat": 50.644826,
    "lng": 3.103838,
    "transactions": [
      {
        "date": "2021-01-04",
        "priceEur": 379600,
        "typeLocal": "Maison",
        "surfaceM2": 45,
        "isVefa": false
      }
    ]
  },
  "7a3a93ce6d15": {
    "id": "7a3a93ce6d15",
    "label": "6 RUE QUESNELET PAV BON AIR, Mons-en-Barœul",
    "lat": 50.644713,
    "lng": 3.108826,
    "transactions": [
      {
        "date": "2021-01-11",
        "priceEur": 160000,
        "typeLocal": "Maison",
        "surfaceM2": 72,
        "isVefa": false
      }
    ]
  },
  "cc7c8a287920": {
    "id": "cc7c8a287920",
    "label": "76 RUE MARCEL PINCHON, Mons-en-Barœul",
    "lat": 50.640117,
    "lng": 3.101719,
    "transactions": [
      {
        "date": "2024-07-12",
        "priceEur": 309000,
        "typeLocal": "Maison",
        "surfaceM2": 112,
        "isVefa": false
      },
      {
        "date": "2021-01-29",
        "priceEur": 251200,
        "typeLocal": "Maison",
        "surfaceM2": 68,
        "isVefa": false
      }
    ]
  },
  "fa30c202a237": {
    "id": "fa30c202a237",
    "label": "80 RUE JEAN JAURES, Mons-en-Barœul",
    "lat": 50.641132,
    "lng": 3.10401,
    "transactions": [
      {
        "date": "2021-02-01",
        "priceEur": 150000,
        "typeLocal": "Appartement",
        "surfaceM2": 31,
        "isVefa": false
      },
      {
        "date": "2021-02-01",
        "priceEur": 150000,
        "typeLocal": "Appartement",
        "surfaceM2": 27,
        "isVefa": false
      }
    ]
  },
  "18e048d8a959": {
    "id": "18e048d8a959",
    "label": "155 RUE JEAN JAURES, Mons-en-Barœul",
    "lat": 50.639261,
    "lng": 3.105911,
    "transactions": [
      {
        "date": "2021-02-09",
        "priceEur": 255800,
        "typeLocal": "Maison",
        "surfaceM2": 110,
        "isVefa": false
      }
    ]
  },
  "a686a38fb668": {
    "id": "a686a38fb668",
    "label": "13 RUE JEANNE D ARC, Mons-en-Barœul",
    "lat": 50.643781,
    "lng": 3.102753,
    "transactions": [
      {
        "date": "2021-02-10",
        "priceEur": 60000,
        "typeLocal": "Maison",
        "surfaceM2": 74,
        "isVefa": false
      }
    ]
  },
  "acd75025504c": {
    "id": "acd75025504c",
    "label": "2 RES FREGATE AV KENNEDY, Mons-en-Barœul",
    "lat": 50.643246,
    "lng": 3.108767,
    "transactions": [
      {
        "date": "2025-04-30",
        "priceEur": 82600,
        "typeLocal": "Appartement",
        "surfaceM2": 35,
        "isVefa": false
      },
      {
        "date": "2024-10-21",
        "priceEur": 79000,
        "typeLocal": "Appartement",
        "surfaceM2": 35,
        "isVefa": false
      },
      {
        "date": "2024-08-08",
        "priceEur": 65000,
        "typeLocal": "Appartement",
        "surfaceM2": 35,
        "isVefa": false
      },
      {
        "date": "2024-05-24",
        "priceEur": 118000,
        "typeLocal": "Appartement",
        "surfaceM2": 55,
        "isVefa": false
      },
      {
        "date": "2023-05-23",
        "priceEur": 70000,
        "typeLocal": "Appartement",
        "surfaceM2": 35,
        "isVefa": false
      },
      {
        "date": "2023-01-05",
        "priceEur": 91000,
        "typeLocal": "Appartement",
        "surfaceM2": 55,
        "isVefa": false
      },
      {
        "date": "2022-08-31",
        "priceEur": 121000,
        "typeLocal": "Appartement",
        "surfaceM2": 55,
        "isVefa": false
      },
      {
        "date": "2022-06-30",
        "priceEur": 129416,
        "typeLocal": "Appartement",
        "surfaceM2": 55,
        "isVefa": false
      },
      {
        "date": "2022-04-04",
        "priceEur": 65000,
        "typeLocal": "Appartement",
        "surfaceM2": 35,
        "isVefa": false
      },
      {
        "date": "2021-11-05",
        "priceEur": 149900,
        "typeLocal": "Appartement",
        "surfaceM2": 55,
        "isVefa": false
      },
      {
        "date": "2021-10-15",
        "priceEur": 85500,
        "typeLocal": "Appartement",
        "surfaceM2": 35,
        "isVefa": false
      },
      {
        "date": "2021-10-04",
        "priceEur": 98500,
        "typeLocal": "Appartement",
        "surfaceM2": 35,
        "isVefa": false
      },
      {
        "date": "2021-08-24",
        "priceEur": 78000,
        "typeLocal": "Appartement",
        "surfaceM2": 35,
        "isVefa": false
      },
      {
        "date": "2021-06-09",
        "priceEur": 129950,
        "typeLocal": "Appartement",
        "surfaceM2": 55,
        "isVefa": false
      },
      {
        "date": "2021-05-04",
        "priceEur": 146000,
        "typeLocal": "Appartement",
        "surfaceM2": 35,
        "isVefa": false
      },
      {
        "date": "2021-03-15",
        "priceEur": 70000,
        "typeLocal": "Appartement",
        "surfaceM2": 55,
        "isVefa": false
      },
      {
        "date": "2021-02-23",
        "priceEur": 99600,
        "typeLocal": "Appartement",
        "surfaceM2": 35,
        "isVefa": false
      }
    ]
  },
  "c9aa8ac463bc": {
    "id": "c9aa8ac463bc",
    "label": "13 AV ROBERT SCHUMAN, Mons-en-Barœul",
    "lat": 50.642541,
    "lng": 3.108552,
    "transactions": [
      {
        "date": "2024-01-16",
        "priceEur": 113500,
        "typeLocal": "Appartement",
        "surfaceM2": 62,
        "isVefa": false
      },
      {
        "date": "2023-08-22",
        "priceEur": 125000,
        "typeLocal": "Appartement",
        "surfaceM2": 97,
        "isVefa": false
      },
      {
        "date": "2023-08-09",
        "priceEur": 107000,
        "typeLocal": "Appartement",
        "surfaceM2": 64,
        "isVefa": false
      },
      {
        "date": "2023-01-31",
        "priceEur": 106200,
        "typeLocal": "Appartement",
        "surfaceM2": 64,
        "isVefa": false
      },
      {
        "date": "2022-11-16",
        "priceEur": 116000,
        "typeLocal": "Appartement",
        "surfaceM2": 97,
        "isVefa": false
      },
      {
        "date": "2022-03-11",
        "priceEur": 118000,
        "typeLocal": "Appartement",
        "surfaceM2": 65,
        "isVefa": false
      },
      {
        "date": "2021-12-01",
        "priceEur": 152000,
        "typeLocal": "Appartement",
        "surfaceM2": 97,
        "isVefa": false
      },
      {
        "date": "2021-08-11",
        "priceEur": 120000,
        "typeLocal": "Appartement",
        "surfaceM2": 97,
        "isVefa": false
      },
      {
        "date": "2021-03-10",
        "priceEur": 205000,
        "typeLocal": "Appartement",
        "surfaceM2": 116,
        "isVefa": false
      },
      {
        "date": "2021-02-25",
        "priceEur": 202500,
        "typeLocal": "Appartement",
        "surfaceM2": 97,
        "isVefa": false
      }
    ]
  },
  "debae3e03c6d": {
    "id": "debae3e03c6d",
    "label": "32 RUE ROLLIN, Mons-en-Barœul",
    "lat": 50.644532,
    "lng": 3.101829,
    "transactions": [
      {
        "date": "2024-09-03",
        "priceEur": 185100,
        "typeLocal": "Appartement",
        "surfaceM2": 60,
        "isVefa": false
      },
      {
        "date": "2023-08-31",
        "priceEur": 148000,
        "typeLocal": "Appartement",
        "surfaceM2": 60,
        "isVefa": false
      },
      {
        "date": "2021-02-19",
        "priceEur": 127000,
        "typeLocal": "Appartement",
        "surfaceM2": 45,
        "isVefa": false
      }
    ]
  },
  "9d02c0f2ac68": {
    "id": "9d02c0f2ac68",
    "label": "37 RUE JEAN JACQUES ROUSSEAU, Mons-en-Barœul",
    "lat": 50.640992,
    "lng": 3.100477,
    "transactions": [
      {
        "date": "2021-03-09",
        "priceEur": 229010,
        "typeLocal": "Maison",
        "surfaceM2": 72,
        "isVefa": false
      }
    ]
  },
  "76d21a2efa29": {
    "id": "76d21a2efa29",
    "label": "18 RUE HECTOR BERLIOZ, Mons-en-Barœul",
    "lat": 50.641593,
    "lng": 3.102569,
    "transactions": [
      {
        "date": "2021-03-10",
        "priceEur": 196000,
        "typeLocal": "Maison",
        "surfaceM2": 76,
        "isVefa": false
      }
    ]
  },
  "d759d166ca80": {
    "id": "d759d166ca80",
    "label": "8 RUE BOSSUET, Mons-en-Barœul",
    "lat": 50.6403,
    "lng": 3.108347,
    "transactions": [
      {
        "date": "2021-03-26",
        "priceEur": 320000,
        "typeLocal": "Maison",
        "surfaceM2": 93,
        "isVefa": false
      }
    ]
  },
  "758d1ff7e4d9": {
    "id": "758d1ff7e4d9",
    "label": "26 AV GEORGES CLEMENCEAU, Mons-en-Barœul",
    "lat": 50.640406,
    "lng": 3.098637,
    "transactions": [
      {
        "date": "2021-03-22",
        "priceEur": 125000,
        "typeLocal": "Maison",
        "surfaceM2": 76,
        "isVefa": false
      }
    ]
  },
  "debb037ad682": {
    "id": "debb037ad682",
    "label": "43 RUE MARCEL PINCHON, Mons-en-Barœul",
    "lat": 50.640145,
    "lng": 3.102378,
    "transactions": [
      {
        "date": "2021-04-08",
        "priceEur": 162000,
        "typeLocal": "Maison",
        "surfaceM2": 61,
        "isVefa": false
      }
    ]
  },
  "93071e3474d2": {
    "id": "93071e3474d2",
    "label": "14 AV DES ACACIAS, Mons-en-Barœul",
    "lat": 50.641939,
    "lng": 3.100732,
    "transactions": [
      {
        "date": "2021-04-12",
        "priceEur": 130000,
        "typeLocal": "Maison",
        "surfaceM2": 50,
        "isVefa": false
      }
    ]
  },
  "77755ee4307e": {
    "id": "77755ee4307e",
    "label": "88 RUE HECTOR BERLIOZ, Mons-en-Barœul",
    "lat": 50.639487,
    "lng": 3.104157,
    "transactions": [
      {
        "date": "2021-03-29",
        "priceEur": 171000,
        "typeLocal": "Maison",
        "surfaceM2": 76,
        "isVefa": false
      }
    ]
  },
  "37e7d1f282ea": {
    "id": "37e7d1f282ea",
    "label": "11 AV DES ACACIAS, Mons-en-Barœul",
    "lat": 50.642284,
    "lng": 3.101356,
    "transactions": [
      {
        "date": "2021-04-28",
        "priceEur": 172800,
        "typeLocal": "Maison",
        "surfaceM2": 50,
        "isVefa": false
      }
    ]
  },
  "9ef78845f2bc": {
    "id": "9ef78845f2bc",
    "label": "110 RUE PARMENTIER, Mons-en-Barœul",
    "lat": 50.643917,
    "lng": 3.108137,
    "transactions": [
      {
        "date": "2021-04-22",
        "priceEur": 181500,
        "typeLocal": "Maison",
        "surfaceM2": 85,
        "isVefa": false
      }
    ]
  },
  "62e47d76d318": {
    "id": "62e47d76d318",
    "label": "1 RUE MONTESQUIEU, Mons-en-Barœul",
    "lat": 50.644916,
    "lng": 3.10811,
    "transactions": [
      {
        "date": "2023-03-22",
        "priceEur": 142000,
        "typeLocal": "Appartement",
        "surfaceM2": 36,
        "isVefa": false
      },
      {
        "date": "2022-12-29",
        "priceEur": 137500,
        "typeLocal": "Appartement",
        "surfaceM2": 42,
        "isVefa": false
      },
      {
        "date": "2021-04-30",
        "priceEur": 161200,
        "typeLocal": "Appartement",
        "surfaceM2": 43,
        "isVefa": false
      }
    ]
  },
  "599050bebc11": {
    "id": "599050bebc11",
    "label": "99 RUE JEAN JAURES, Mons-en-Barœul",
    "lat": 50.640878,
    "lng": 3.104713,
    "transactions": [
      {
        "date": "2021-05-17",
        "priceEur": 237500,
        "typeLocal": "Maison",
        "surfaceM2": 60,
        "isVefa": false
      }
    ]
  },
  "e812d5c9dd73": {
    "id": "e812d5c9dd73",
    "label": "149 RUE DU GENERAL DE GAULLE, Mons-en-Barœul",
    "lat": 50.645863,
    "lng": 3.102382,
    "transactions": [
      {
        "date": "2021-05-06",
        "priceEur": 302000,
        "typeLocal": "Appartement",
        "surfaceM2": 36,
        "isVefa": false
      },
      {
        "date": "2021-05-06",
        "priceEur": 302000,
        "typeLocal": "Appartement",
        "surfaceM2": 109,
        "isVefa": false
      }
    ]
  },
  "ea1a0c423d81": {
    "id": "ea1a0c423d81",
    "label": "125 RUE PARMENTIER, Mons-en-Barœul",
    "lat": 50.644288,
    "lng": 3.108523,
    "transactions": [
      {
        "date": "2021-05-26",
        "priceEur": 233000,
        "typeLocal": "Maison",
        "surfaceM2": 124,
        "isVefa": false
      }
    ]
  },
  "4025275c6e35": {
    "id": "4025275c6e35",
    "label": "14 AV DE LA LIBERTE, Mons-en-Barœul",
    "lat": 50.642996,
    "lng": 3.104289,
    "transactions": [
      {
        "date": "2021-05-17",
        "priceEur": 347145,
        "typeLocal": "Maison",
        "surfaceM2": 120,
        "isVefa": false
      }
    ]
  },
  "329e23231aa4": {
    "id": "329e23231aa4",
    "label": "5 RUE DU MARECHAL LYAUTEY, Mons-en-Barœul",
    "lat": 50.641713,
    "lng": 3.107479,
    "transactions": [
      {
        "date": "2025-01-22",
        "priceEur": 92000,
        "typeLocal": "Appartement",
        "surfaceM2": 72,
        "isVefa": false
      },
      {
        "date": "2024-04-09",
        "priceEur": 40000,
        "typeLocal": "Appartement",
        "surfaceM2": 25,
        "isVefa": false
      },
      {
        "date": "2021-11-17",
        "priceEur": 133000,
        "typeLocal": "Appartement",
        "surfaceM2": 88,
        "isVefa": false
      },
      {
        "date": "2021-05-12",
        "priceEur": 135000,
        "typeLocal": "Appartement",
        "surfaceM2": 88,
        "isVefa": false
      }
    ]
  },
  "01eb8549e208": {
    "id": "01eb8549e208",
    "label": "76 RUE DU GENERAL DE GAULLE, Mons-en-Barœul",
    "lat": 50.643467,
    "lng": 3.09857,
    "transactions": [
      {
        "date": "2025-03-20",
        "priceEur": 148500,
        "typeLocal": "Appartement",
        "surfaceM2": 60,
        "isVefa": false
      },
      {
        "date": "2024-06-19",
        "priceEur": 85500,
        "typeLocal": "Appartement",
        "surfaceM2": 43,
        "isVefa": false
      },
      {
        "date": "2022-06-22",
        "priceEur": 145000,
        "typeLocal": "Appartement",
        "surfaceM2": 73,
        "isVefa": false
      },
      {
        "date": "2021-10-27",
        "priceEur": 179800,
        "typeLocal": "Appartement",
        "surfaceM2": 60,
        "isVefa": false
      },
      {
        "date": "2021-05-18",
        "priceEur": 142000,
        "typeLocal": "Appartement",
        "surfaceM2": 74,
        "isVefa": false
      }
    ]
  },
  "ac947cc08da5": {
    "id": "ac947cc08da5",
    "label": "16 RUE BOSSUET, Mons-en-Barœul",
    "lat": 50.640052,
    "lng": 3.108287,
    "transactions": [
      {
        "date": "2021-06-04",
        "priceEur": 233000,
        "typeLocal": "Maison",
        "surfaceM2": 85,
        "isVefa": false
      }
    ]
  },
  "b601db63d0a1": {
    "id": "b601db63d0a1",
    "label": "68 AV ROBERT SCHUMAN, Mons-en-Barœul",
    "lat": 50.641713,
    "lng": 3.107479,
    "transactions": [
      {
        "date": "2024-08-13",
        "priceEur": 117000,
        "typeLocal": "Appartement",
        "surfaceM2": 88,
        "isVefa": false
      },
      {
        "date": "2024-07-01",
        "priceEur": 102000,
        "typeLocal": "Appartement",
        "surfaceM2": 72,
        "isVefa": false
      },
      {
        "date": "2023-03-27",
        "priceEur": 110000,
        "typeLocal": "Appartement",
        "surfaceM2": 88,
        "isVefa": false
      },
      {
        "date": "2022-11-08",
        "priceEur": 60000,
        "typeLocal": "Appartement",
        "surfaceM2": 48,
        "isVefa": false
      },
      {
        "date": "2021-09-21",
        "priceEur": 70000,
        "typeLocal": "Appartement",
        "surfaceM2": 48,
        "isVefa": false
      },
      {
        "date": "2021-06-14",
        "priceEur": 108000,
        "typeLocal": "Appartement",
        "surfaceM2": 72,
        "isVefa": false
      }
    ]
  },
  "c73c133a0709": {
    "id": "c73c133a0709",
    "label": "35 RUE DU MARECHAL LYAUTEY, Mons-en-Barœul",
    "lat": 50.641713,
    "lng": 3.107479,
    "transactions": [
      {
        "date": "2025-04-22",
        "priceEur": 98000,
        "typeLocal": "Appartement",
        "surfaceM2": 72,
        "isVefa": false
      },
      {
        "date": "2025-03-27",
        "priceEur": 61000,
        "typeLocal": "Appartement",
        "surfaceM2": 9,
        "isVefa": false
      },
      {
        "date": "2025-03-27",
        "priceEur": 61000,
        "typeLocal": "Appartement",
        "surfaceM2": 18,
        "isVefa": false
      },
      {
        "date": "2024-07-17",
        "priceEur": 110500,
        "typeLocal": "Appartement",
        "surfaceM2": 88,
        "isVefa": false
      },
      {
        "date": "2023-12-20",
        "priceEur": 110000,
        "typeLocal": "Appartement",
        "surfaceM2": 72,
        "isVefa": false
      },
      {
        "date": "2023-06-21",
        "priceEur": 79500,
        "typeLocal": "Appartement",
        "surfaceM2": 48,
        "isVefa": false
      },
      {
        "date": "2022-06-09",
        "priceEur": 112000,
        "typeLocal": "Appartement",
        "surfaceM2": 88,
        "isVefa": false
      },
      {
        "date": "2021-06-08",
        "priceEur": 132000,
        "typeLocal": "Appartement",
        "surfaceM2": 72,
        "isVefa": false
      }
    ]
  },
  "2496406530ac": {
    "id": "2496406530ac",
    "label": "23 RUE FLORIMOND DELEMER, Mons-en-Barœul",
    "lat": 50.645142,
    "lng": 3.103731,
    "transactions": [
      {
        "date": "2021-06-04",
        "priceEur": 185000,
        "typeLocal": "Maison",
        "surfaceM2": 100,
        "isVefa": false
      }
    ]
  },
  "0fb6271ea0b3": {
    "id": "0fb6271ea0b3",
    "label": "100 RUE DU GENERAL DE GAULLE, Mons-en-Barœul",
    "lat": 50.645106,
    "lng": 3.10119,
    "transactions": [
      {
        "date": "2021-06-18",
        "priceEur": 401000,
        "typeLocal": "Appartement",
        "surfaceM2": 120,
        "isVefa": false
      }
    ]
  },
  "eaf9fa9be0d4": {
    "id": "eaf9fa9be0d4",
    "label": "23 RUE DU MARECHAL LYAUTEY, Mons-en-Barœul",
    "lat": 50.641713,
    "lng": 3.107479,
    "transactions": [
      {
        "date": "2025-03-27",
        "priceEur": 131000,
        "typeLocal": "Appartement",
        "surfaceM2": 88,
        "isVefa": false
      },
      {
        "date": "2024-09-18",
        "priceEur": 87800,
        "typeLocal": "Appartement",
        "surfaceM2": 48,
        "isVefa": false
      },
      {
        "date": "2023-05-10",
        "priceEur": 128850,
        "typeLocal": "Appartement",
        "surfaceM2": 72,
        "isVefa": false
      },
      {
        "date": "2022-10-19",
        "priceEur": 131000,
        "typeLocal": "Appartement",
        "surfaceM2": 72,
        "isVefa": false
      },
      {
        "date": "2021-06-30",
        "priceEur": 95500,
        "typeLocal": "Appartement",
        "surfaceM2": 48,
        "isVefa": false
      }
    ]
  },
  "5f6c3cc01214": {
    "id": "5f6c3cc01214",
    "label": "57 RUE JEAN JACQUES ROUSSEAU, Mons-en-Barœul",
    "lat": 50.640524,
    "lng": 3.100789,
    "transactions": [
      {
        "date": "2021-07-05",
        "priceEur": 189000,
        "typeLocal": "Maison",
        "surfaceM2": 72,
        "isVefa": false
      }
    ]
  },
  "63c07ba690ba": {
    "id": "63c07ba690ba",
    "label": "13 AV DU PRESIDENT KENNEDY, Mons-en-Barœul",
    "lat": 50.643552,
    "lng": 3.10761,
    "transactions": [
      {
        "date": "2021-07-13",
        "priceEur": 270150,
        "typeLocal": "Maison",
        "surfaceM2": 122,
        "isVefa": false
      }
    ]
  },
  "99e3dc103b39": {
    "id": "99e3dc103b39",
    "label": "36 RUE DES PREVOYANTS, Mons-en-Barœul",
    "lat": 50.640441,
    "lng": 3.106372,
    "transactions": [
      {
        "date": "2021-07-15",
        "priceEur": 200000,
        "typeLocal": "Maison",
        "surfaceM2": 72,
        "isVefa": false
      }
    ]
  },
  "9d1ac401caa0": {
    "id": "9d1ac401caa0",
    "label": "69 RUE JEAN JACQUES ROUSSEAU, Mons-en-Barœul",
    "lat": 50.640258,
    "lng": 3.101011,
    "transactions": [
      {
        "date": "2021-07-22",
        "priceEur": 200000,
        "typeLocal": "Maison",
        "surfaceM2": 72,
        "isVefa": false
      }
    ]
  },
  "35cb394a17a6": {
    "id": "35cb394a17a6",
    "label": "10 RUE DU CHALET, Mons-en-Barœul",
    "lat": 50.642674,
    "lng": 3.102079,
    "transactions": [
      {
        "date": "2021-07-20",
        "priceEur": 85500,
        "typeLocal": "Maison",
        "surfaceM2": 70,
        "isVefa": false
      }
    ]
  },
  "633ad23e32f1": {
    "id": "633ad23e32f1",
    "label": "50 RUE JEAN JAURES, Mons-en-Barœul",
    "lat": 50.641903,
    "lng": 3.103389,
    "transactions": [
      {
        "date": "2021-07-13",
        "priceEur": 244800,
        "typeLocal": "Maison",
        "surfaceM2": 106,
        "isVefa": false
      }
    ]
  },
  "e5c73d8d97fb": {
    "id": "e5c73d8d97fb",
    "label": "31 RUE FLORIMOND DELEMER, Mons-en-Barœul",
    "lat": 50.64499,
    "lng": 3.103791,
    "transactions": [
      {
        "date": "2021-07-29",
        "priceEur": 329000,
        "typeLocal": "Maison",
        "surfaceM2": 83,
        "isVefa": false
      }
    ]
  },
  "181cc23ad48b": {
    "id": "181cc23ad48b",
    "label": "36 RUE EDOUARD LALO, Mons-en-Barœul",
    "lat": 50.639387,
    "lng": 3.103409,
    "transactions": [
      {
        "date": "2021-07-23",
        "priceEur": 190000,
        "typeLocal": "Maison",
        "surfaceM2": 76,
        "isVefa": false
      }
    ]
  },
  "05bc67df7fde": {
    "id": "05bc67df7fde",
    "label": "91 RUE JEAN JACQUES ROUSSEAU, Mons-en-Barœul",
    "lat": 50.639754,
    "lng": 3.101517,
    "transactions": [
      {
        "date": "2021-07-19",
        "priceEur": 155000,
        "typeLocal": "Maison",
        "surfaceM2": 72,
        "isVefa": false
      }
    ]
  },
  "17ae62c717ec": {
    "id": "17ae62c717ec",
    "label": "9 ALL CHARLES PEGUY, Mons-en-Barœul",
    "lat": 50.640103,
    "lng": 3.099353,
    "transactions": [
      {
        "date": "2021-08-30",
        "priceEur": 250000,
        "typeLocal": "Maison",
        "surfaceM2": 70,
        "isVefa": false
      }
    ]
  },
  "2df13c030104": {
    "id": "2df13c030104",
    "label": "156 RUE DU GENERAL DE GAULLE, Mons-en-Barœul",
    "lat": 50.645759,
    "lng": 3.103906,
    "transactions": [
      {
        "date": "2024-01-29",
        "priceEur": 92000,
        "typeLocal": "Appartement",
        "surfaceM2": 50,
        "isVefa": false
      },
      {
        "date": "2023-03-24",
        "priceEur": 60000,
        "typeLocal": "Appartement",
        "surfaceM2": 32,
        "isVefa": false
      },
      {
        "date": "2021-09-08",
        "priceEur": 85000,
        "typeLocal": "Appartement",
        "surfaceM2": 38,
        "isVefa": false
      }
    ]
  },
  "08014f9bf347": {
    "id": "08014f9bf347",
    "label": "34 RUE EDOUARD LALO, Mons-en-Barœul",
    "lat": 50.639432,
    "lng": 3.103357,
    "transactions": [
      {
        "date": "2021-08-17",
        "priceEur": 184150,
        "typeLocal": "Maison",
        "surfaceM2": 76,
        "isVefa": false
      }
    ]
  },
  "8d54eca123ea": {
    "id": "8d54eca123ea",
    "label": "57 RUE DU GENERAL DE GAULLE, Mons-en-Barœul",
    "lat": 50.643847,
    "lng": 3.098512,
    "transactions": [
      {
        "date": "2021-09-13",
        "priceEur": 82000,
        "typeLocal": "Appartement",
        "surfaceM2": 30,
        "isVefa": false
      }
    ]
  },
  "52646fb5ea68": {
    "id": "52646fb5ea68",
    "label": "52 RUE MARCEL PINCHON, Mons-en-Barœul",
    "lat": 50.640667,
    "lng": 3.101293,
    "transactions": [
      {
        "date": "2021-09-20",
        "priceEur": 216000,
        "typeLocal": "Maison",
        "surfaceM2": 60,
        "isVefa": false
      }
    ]
  },
  "9d323320cb07": {
    "id": "9d323320cb07",
    "label": "81 RUE HECTOR BERLIOZ, Mons-en-Barœul",
    "lat": 50.640131,
    "lng": 3.104331,
    "transactions": [
      {
        "date": "2021-10-07",
        "priceEur": 259500,
        "typeLocal": "Maison",
        "surfaceM2": 76,
        "isVefa": false
      }
    ]
  },
  "0ce4483fcd84": {
    "id": "0ce4483fcd84",
    "label": "1 RUE MARCEL MONNIER, Mons-en-Barœul",
    "lat": 50.642363,
    "lng": 3.105995,
    "transactions": [
      {
        "date": "2021-09-27",
        "priceEur": 225500,
        "typeLocal": "Maison",
        "surfaceM2": 86,
        "isVefa": false
      }
    ]
  },
  "1badcfa6bca9": {
    "id": "1badcfa6bca9",
    "label": "88 RUE PARMENTIER, Mons-en-Barœul",
    "lat": 50.643823,
    "lng": 3.107163,
    "transactions": [
      {
        "date": "2021-10-18",
        "priceEur": 218050,
        "typeLocal": "Maison",
        "surfaceM2": 85,
        "isVefa": false
      }
    ]
  },
  "580eba3bc313": {
    "id": "580eba3bc313",
    "label": "32 RUE MONTESQUIEU, Mons-en-Barœul",
    "lat": 50.644421,
    "lng": 3.105542,
    "transactions": [
      {
        "date": "2023-02-16",
        "priceEur": 270000,
        "typeLocal": "Maison",
        "surfaceM2": 70,
        "isVefa": false
      },
      {
        "date": "2021-10-21",
        "priceEur": 230000,
        "typeLocal": "Maison",
        "surfaceM2": 70,
        "isVefa": false
      }
    ]
  },
  "0c0236e51286": {
    "id": "0c0236e51286",
    "label": "40 RUE MONTESQUIEU, Mons-en-Barœul",
    "lat": 50.644206,
    "lng": 3.105589,
    "transactions": [
      {
        "date": "2021-10-20",
        "priceEur": 210000,
        "typeLocal": "Maison",
        "surfaceM2": 68,
        "isVefa": false
      }
    ]
  },
  "6a2ec1c707ca": {
    "id": "6a2ec1c707ca",
    "label": "137 RUE DU GENERAL DE GAULLE, Mons-en-Barœul",
    "lat": 50.645735,
    "lng": 3.101728,
    "transactions": [
      {
        "date": "2021-11-04",
        "priceEur": 520000,
        "typeLocal": "Maison",
        "surfaceM2": 132,
        "isVefa": false
      }
    ]
  },
  "9671de74dcbc": {
    "id": "9671de74dcbc",
    "label": "39 AV DE LA LIBERTE, Mons-en-Barœul",
    "lat": 50.642558,
    "lng": 3.105426,
    "transactions": [
      {
        "date": "2021-10-28",
        "priceEur": 225000,
        "typeLocal": "Maison",
        "surfaceM2": 110,
        "isVefa": false
      }
    ]
  },
  "6d1dc6c0c94e": {
    "id": "6d1dc6c0c94e",
    "label": "10 RUE BOSSUET, Mons-en-Barœul",
    "lat": 50.640231,
    "lng": 3.108261,
    "transactions": [
      {
        "date": "2021-10-16",
        "priceEur": 195000,
        "typeLocal": "Maison",
        "surfaceM2": 85,
        "isVefa": false
      }
    ]
  },
  "666a27f75301": {
    "id": "666a27f75301",
    "label": "46 RUE JEAN JAURES, Mons-en-Barœul",
    "lat": 50.641993,
    "lng": 3.103333,
    "transactions": [
      {
        "date": "2021-11-18",
        "priceEur": 229000,
        "typeLocal": "Maison",
        "surfaceM2": 101,
        "isVefa": false
      }
    ]
  },
  "d298d4d7c3b5": {
    "id": "d298d4d7c3b5",
    "label": "103 RUE PARMENTIER, Mons-en-Barœul",
    "lat": 50.644404,
    "lng": 3.107723,
    "transactions": [
      {
        "date": "2021-11-02",
        "priceEur": 310320,
        "typeLocal": "Maison",
        "surfaceM2": 101,
        "isVefa": false
      }
    ]
  },
  "2a30c98ce3a3": {
    "id": "2a30c98ce3a3",
    "label": "97 RUE JEAN JACQUES ROUSSEAU, Mons-en-Barœul",
    "lat": 50.639616,
    "lng": 3.101627,
    "transactions": [
      {
        "date": "2021-12-17",
        "priceEur": 165000,
        "typeLocal": "Maison",
        "surfaceM2": 72,
        "isVefa": false
      }
    ]
  },
  "40db94590504": {
    "id": "40db94590504",
    "label": "116 RUE MARCEL PINCHON, Mons-en-Barœul",
    "lat": 50.639206,
    "lng": 3.102292,
    "transactions": [
      {
        "date": "2021-12-29",
        "priceEur": 193000,
        "typeLocal": "Maison",
        "surfaceM2": 83,
        "isVefa": false
      }
    ]
  },
  "4d9ac9d6825e": {
    "id": "4d9ac9d6825e",
    "label": "4 RUE LACORDAIRE, Mons-en-Barœul",
    "lat": 50.641079,
    "lng": 3.106558,
    "transactions": [
      {
        "date": "2021-12-16",
        "priceEur": 183400,
        "typeLocal": "Maison",
        "surfaceM2": 98,
        "isVefa": false
      }
    ]
  },
  "48bc93c7d4ed": {
    "id": "48bc93c7d4ed",
    "label": "136 RUE JEAN JAURES, Mons-en-Barœul",
    "lat": 50.639879,
    "lng": 3.104921,
    "transactions": [
      {
        "date": "2021-12-22",
        "priceEur": 285250,
        "typeLocal": "Maison",
        "surfaceM2": 102,
        "isVefa": false
      }
    ]
  },
  "838bcb5eb1f4": {
    "id": "838bcb5eb1f4",
    "label": "66 RUE PARMENTIER, Mons-en-Barœul",
    "lat": 50.643734,
    "lng": 3.106123,
    "transactions": [
      {
        "date": "2022-01-26",
        "priceEur": 220000,
        "typeLocal": "Maison",
        "surfaceM2": 97,
        "isVefa": false
      }
    ]
  },
  "934b4c5e71c4": {
    "id": "934b4c5e71c4",
    "label": "28 RUE HECTOR BERLIOZ, Mons-en-Barœul",
    "lat": 50.641369,
    "lng": 3.102615,
    "transactions": [
      {
        "date": "2022-01-18",
        "priceEur": 264000,
        "typeLocal": "Maison",
        "surfaceM2": 117,
        "isVefa": false
      }
    ]
  },
  "18d772d022cf": {
    "id": "18d772d022cf",
    "label": "87 RUE HECTOR BERLIOZ, Mons-en-Barœul",
    "lat": 50.639992,
    "lng": 3.104385,
    "transactions": [
      {
        "date": "2022-02-09",
        "priceEur": 192000,
        "typeLocal": "Maison",
        "surfaceM2": 76,
        "isVefa": false
      }
    ]
  },
  "cd0502064f6c": {
    "id": "cd0502064f6c",
    "label": "15 AV ROBERT SCHUMAN, Mons-en-Barœul",
    "lat": 50.642541,
    "lng": 3.108552,
    "transactions": [
      {
        "date": "2024-09-23",
        "priceEur": 100500,
        "typeLocal": "Appartement",
        "surfaceM2": 51,
        "isVefa": false
      },
      {
        "date": "2024-06-03",
        "priceEur": 177500,
        "typeLocal": "Appartement",
        "surfaceM2": 100,
        "isVefa": false
      },
      {
        "date": "2023-12-18",
        "priceEur": 150000,
        "typeLocal": "Appartement",
        "surfaceM2": 100,
        "isVefa": false
      },
      {
        "date": "2022-07-01",
        "priceEur": 158050,
        "typeLocal": "Appartement",
        "surfaceM2": 100,
        "isVefa": false
      },
      {
        "date": "2022-03-02",
        "priceEur": 155740,
        "typeLocal": "Appartement",
        "surfaceM2": 71,
        "isVefa": false
      },
      {
        "date": "2022-02-25",
        "priceEur": 111500,
        "typeLocal": "Appartement",
        "surfaceM2": 51,
        "isVefa": false
      },
      {
        "date": "2022-02-04",
        "priceEur": 146000,
        "typeLocal": "Appartement",
        "surfaceM2": 100,
        "isVefa": false
      }
    ]
  },
  "7a4e8581da8b": {
    "id": "7a4e8581da8b",
    "label": "10 RUE DES PREVOYANTS, Mons-en-Barœul",
    "lat": 50.640388,
    "lng": 3.105408,
    "transactions": [
      {
        "date": "2022-02-11",
        "priceEur": 349000,
        "typeLocal": "Maison",
        "surfaceM2": 128,
        "isVefa": false
      }
    ]
  },
  "fe6c7051948f": {
    "id": "fe6c7051948f",
    "label": "37 RUE MARCEL PINCHON, Mons-en-Barœul",
    "lat": 50.640396,
    "lng": 3.101985,
    "transactions": [
      {
        "date": "2022-02-14",
        "priceEur": 274500,
        "typeLocal": "Maison",
        "surfaceM2": 75,
        "isVefa": false
      }
    ]
  },
  "ae703c689fcd": {
    "id": "ae703c689fcd",
    "label": "105 RUE PARMENTIER, Mons-en-Barœul",
    "lat": 50.644395,
    "lng": 3.107781,
    "transactions": [
      {
        "date": "2022-02-08",
        "priceEur": 272700,
        "typeLocal": "Maison",
        "surfaceM2": 102,
        "isVefa": false
      }
    ]
  },
  "acd4be3cc3bb": {
    "id": "acd4be3cc3bb",
    "label": "31 RUE JEAN JACQUES ROUSSEAU, Mons-en-Barœul",
    "lat": 50.641121,
    "lng": 3.100304,
    "transactions": [
      {
        "date": "2022-02-16",
        "priceEur": 160000,
        "typeLocal": "Maison",
        "surfaceM2": 72,
        "isVefa": false
      }
    ]
  },
  "2202c67a7607": {
    "id": "2202c67a7607",
    "label": "19 RUE JEAN JAURES, Mons-en-Barœul",
    "lat": 50.642838,
    "lng": 3.103226,
    "transactions": [
      {
        "date": "2022-03-01",
        "priceEur": 223700,
        "typeLocal": "Maison",
        "surfaceM2": 66,
        "isVefa": false
      }
    ]
  },
  "64571a89abc4": {
    "id": "64571a89abc4",
    "label": "34 AV ROBERT SCHUMAN, Mons-en-Barœul",
    "lat": 50.641713,
    "lng": 3.107479,
    "transactions": [
      {
        "date": "2024-02-08",
        "priceEur": 37500,
        "typeLocal": "Appartement",
        "surfaceM2": 93,
        "isVefa": false
      },
      {
        "date": "2022-02-25",
        "priceEur": 64000,
        "typeLocal": "Appartement",
        "surfaceM2": 93,
        "isVefa": false
      }
    ]
  },
  "01c4009cb5c1": {
    "id": "01c4009cb5c1",
    "label": "52 RUE PARMENTIER, Mons-en-Barœul",
    "lat": 50.643408,
    "lng": 3.105316,
    "transactions": [
      {
        "date": "2023-05-03",
        "priceEur": 319680,
        "typeLocal": "Maison",
        "surfaceM2": 90,
        "isVefa": false
      },
      {
        "date": "2022-02-23",
        "priceEur": 160000,
        "typeLocal": "Maison",
        "surfaceM2": 90,
        "isVefa": false
      }
    ]
  },
  "221b56825445": {
    "id": "221b56825445",
    "label": "16 RUE MARCEL PINCHON, Mons-en-Barœul",
    "lat": 50.641496,
    "lng": 3.100602,
    "transactions": [
      {
        "date": "2022-02-28",
        "priceEur": 212000,
        "typeLocal": "Maison",
        "surfaceM2": 68,
        "isVefa": false
      }
    ]
  },
  "bf2b901626ce": {
    "id": "bf2b901626ce",
    "label": "113 RUE JEAN JACQUES ROUSSEAU, Mons-en-Barœul",
    "lat": 50.639242,
    "lng": 3.101669,
    "transactions": [
      {
        "date": "2022-02-28",
        "priceEur": 140000,
        "typeLocal": "Maison",
        "surfaceM2": 72,
        "isVefa": false
      }
    ]
  },
  "393bef55a66d": {
    "id": "393bef55a66d",
    "label": "1 RUE MIRABEAU, Mons-en-Barœul",
    "lat": 50.643467,
    "lng": 3.09857,
    "transactions": [
      {
        "date": "2025-02-11",
        "priceEur": 127450,
        "typeLocal": "Appartement",
        "surfaceM2": 58,
        "isVefa": false
      },
      {
        "date": "2023-12-04",
        "priceEur": 145000,
        "typeLocal": "Appartement",
        "surfaceM2": 60,
        "isVefa": false
      },
      {
        "date": "2023-01-31",
        "priceEur": 212800,
        "typeLocal": "Appartement",
        "surfaceM2": 106,
        "isVefa": false
      },
      {
        "date": "2022-02-25",
        "priceEur": 135500,
        "typeLocal": "Appartement",
        "surfaceM2": 58,
        "isVefa": false
      }
    ]
  },
  "202e382c91fb": {
    "id": "202e382c91fb",
    "label": "1B SEN MALLET, Mons-en-Barœul",
    "lat": 50.642847,
    "lng": 3.103664,
    "transactions": [
      {
        "date": "2022-04-11",
        "priceEur": 120000,
        "typeLocal": "Maison",
        "surfaceM2": 34,
        "isVefa": false
      }
    ]
  },
  "8ea667a2a9a4": {
    "id": "8ea667a2a9a4",
    "label": "63 RUE DU GENERAL DE GAULLE, Mons-en-Barœul",
    "lat": 50.644093,
    "lng": 3.09883,
    "transactions": [
      {
        "date": "2022-03-30",
        "priceEur": 153345,
        "typeLocal": "Appartement",
        "surfaceM2": 50,
        "isVefa": false
      }
    ]
  },
  "0fcf4291403f": {
    "id": "0fcf4291403f",
    "label": "17 AV DESROUSSEAUX, Mons-en-Barœul",
    "lat": 50.6442,
    "lng": 3.103015,
    "transactions": [
      {
        "date": "2022-04-25",
        "priceEur": 329000,
        "typeLocal": "Maison",
        "surfaceM2": 88,
        "isVefa": false
      }
    ]
  },
  "6fb93e7add55": {
    "id": "6fb93e7add55",
    "label": "45 RUE PARMENTIER, Mons-en-Barœul",
    "lat": 50.64369,
    "lng": 3.10374,
    "transactions": [
      {
        "date": "2022-04-25",
        "priceEur": 417000,
        "typeLocal": "Maison",
        "surfaceM2": 151,
        "isVefa": false
      }
    ]
  },
  "c925266d5404": {
    "id": "c925266d5404",
    "label": "6 RUE BOSSUET, Mons-en-Barœul",
    "lat": 50.640369,
    "lng": 3.108325,
    "transactions": [
      {
        "date": "2022-05-02",
        "priceEur": 305297.44,
        "typeLocal": "Maison",
        "surfaceM2": 93,
        "isVefa": false
      },
      {
        "date": "2022-04-28",
        "priceEur": 243800,
        "typeLocal": "Maison",
        "surfaceM2": 93,
        "isVefa": false
      }
    ]
  },
  "e5ba840ded8e": {
    "id": "e5ba840ded8e",
    "label": "5 RUE EDOUARD LALO, Mons-en-Barœul",
    "lat": 50.640024,
    "lng": 3.103765,
    "transactions": [
      {
        "date": "2022-05-06",
        "priceEur": 159000,
        "typeLocal": "Maison",
        "surfaceM2": 52,
        "isVefa": false
      }
    ]
  },
  "60ad9ff2c3c1": {
    "id": "60ad9ff2c3c1",
    "label": "29 RUE MARCEL MONNIER, Mons-en-Barœul",
    "lat": 50.643193,
    "lng": 3.105662,
    "transactions": [
      {
        "date": "2022-06-07",
        "priceEur": 225000,
        "typeLocal": "Maison",
        "surfaceM2": 86,
        "isVefa": false
      }
    ]
  },
  "434803d41cdb": {
    "id": "434803d41cdb",
    "label": "13 RUE EDOUARD LALO, Mons-en-Barœul",
    "lat": 50.639468,
    "lng": 3.103801,
    "transactions": [
      {
        "date": "2022-05-30",
        "priceEur": 152500,
        "typeLocal": "Maison",
        "surfaceM2": 78,
        "isVefa": false
      }
    ]
  },
  "9e45b586a6b1": {
    "id": "9e45b586a6b1",
    "label": "102 RUE JEAN JAURES, Mons-en-Barœul",
    "lat": 50.640759,
    "lng": 3.104283,
    "transactions": [
      {
        "date": "2022-05-31",
        "priceEur": 248500,
        "typeLocal": "Maison",
        "surfaceM2": 83,
        "isVefa": false
      }
    ]
  },
  "7d79872ca905": {
    "id": "7d79872ca905",
    "label": "42 RUE MARCEL PINCHON, Mons-en-Barœul",
    "lat": 50.640899,
    "lng": 3.101067,
    "transactions": [
      {
        "date": "2022-06-09",
        "priceEur": 175000,
        "typeLocal": "Maison",
        "surfaceM2": 68,
        "isVefa": false
      }
    ]
  },
  "bb4a32e27eef": {
    "id": "bb4a32e27eef",
    "label": "43 AV DE LA LIBERTE, Mons-en-Barœul",
    "lat": 50.642475,
    "lng": 3.105463,
    "transactions": [
      {
        "date": "2022-06-29",
        "priceEur": 263800,
        "typeLocal": "Maison",
        "surfaceM2": 117,
        "isVefa": false
      }
    ]
  },
  "3479289a87bc": {
    "id": "3479289a87bc",
    "label": "84 RUE JEAN JAURES, Mons-en-Barœul",
    "lat": 50.641065,
    "lng": 3.104057,
    "transactions": [
      {
        "date": "2022-07-20",
        "priceEur": 243000,
        "typeLocal": "Maison",
        "surfaceM2": 91,
        "isVefa": false
      }
    ]
  },
  "0c4e54476c3c": {
    "id": "0c4e54476c3c",
    "label": "21 RUE FRANKLIN, Mons-en-Barœul",
    "lat": 50.645925,
    "lng": 3.100302,
    "transactions": [
      {
        "date": "2022-07-11",
        "priceEur": 345000,
        "typeLocal": "Maison",
        "surfaceM2": 120,
        "isVefa": false
      }
    ]
  },
  "96516151d0ba": {
    "id": "96516151d0ba",
    "label": "59 RUE HENRI POISSONNIER, Mons-en-Barœul",
    "lat": 50.643842,
    "lng": 3.105159,
    "transactions": [
      {
        "date": "2022-07-18",
        "priceEur": 410700,
        "typeLocal": "Maison",
        "surfaceM2": 98,
        "isVefa": false
      }
    ]
  },
  "e6fc2dbde059": {
    "id": "e6fc2dbde059",
    "label": "92 RUE MARCEL PINCHON, Mons-en-Barœul",
    "lat": 50.639754,
    "lng": 3.101896,
    "transactions": [
      {
        "date": "2022-07-18",
        "priceEur": 170000,
        "typeLocal": "Maison",
        "surfaceM2": 65,
        "isVefa": false
      }
    ]
  },
  "563358a80d4c": {
    "id": "563358a80d4c",
    "label": "23 RUE MARCEL PINCHON, Mons-en-Barœul",
    "lat": 50.640953,
    "lng": 3.101541,
    "transactions": [
      {
        "date": "2022-08-31",
        "priceEur": 150000,
        "typeLocal": "Maison",
        "surfaceM2": 53,
        "isVefa": false
      }
    ]
  },
  "85dca3d1db12": {
    "id": "85dca3d1db12",
    "label": "36 RUE HENRI POISSONNIER, Mons-en-Barœul",
    "lat": 50.644864,
    "lng": 3.104385,
    "transactions": [
      {
        "date": "2022-08-23",
        "priceEur": 530000,
        "typeLocal": "Maison",
        "surfaceM2": 100,
        "isVefa": false
      }
    ]
  },
  "5401746f45e9": {
    "id": "5401746f45e9",
    "label": "16 RUE LACORDAIRE, Mons-en-Barœul",
    "lat": 50.640706,
    "lng": 3.106643,
    "transactions": [
      {
        "date": "2022-09-12",
        "priceEur": 285000,
        "typeLocal": "Maison",
        "surfaceM2": 98,
        "isVefa": false
      }
    ]
  },
  "cbfc4e547216": {
    "id": "cbfc4e547216",
    "label": "116 RUE PARMENTIER, Mons-en-Barœul",
    "lat": 50.643922,
    "lng": 3.108402,
    "transactions": [
      {
        "date": "2022-09-09",
        "priceEur": 235000,
        "typeLocal": "Maison",
        "surfaceM2": 85,
        "isVefa": false
      }
    ]
  },
  "dd66be9c6107": {
    "id": "dd66be9c6107",
    "label": "100 RUE MARCEL PINCHON, Mons-en-Barœul",
    "lat": 50.639565,
    "lng": 3.102098,
    "transactions": [
      {
        "date": "2022-09-16",
        "priceEur": 140000,
        "typeLocal": "Maison",
        "surfaceM2": 68,
        "isVefa": false
      }
    ]
  },
  "bcfbf5366a4a": {
    "id": "bcfbf5366a4a",
    "label": "19 RUE MONTESQUIEU, Mons-en-Barœul",
    "lat": 50.644614,
    "lng": 3.106126,
    "transactions": [
      {
        "date": "2022-09-26",
        "priceEur": 340500,
        "typeLocal": "Maison",
        "surfaceM2": 87,
        "isVefa": false
      }
    ]
  },
  "2c502d8e5cba": {
    "id": "2c502d8e5cba",
    "label": "109 RUE JEAN JACQUES ROUSSEAU, Mons-en-Barœul",
    "lat": 50.639337,
    "lng": 3.101705,
    "transactions": [
      {
        "date": "2023-07-27",
        "priceEur": 252000,
        "typeLocal": "Maison",
        "surfaceM2": 72,
        "isVefa": false
      },
      {
        "date": "2022-09-26",
        "priceEur": 245000,
        "typeLocal": "Maison",
        "surfaceM2": 72,
        "isVefa": false
      }
    ]
  },
  "38d17eb0d892": {
    "id": "38d17eb0d892",
    "label": "130 RUE JEAN JAURES, Mons-en-Barœul",
    "lat": 50.640006,
    "lng": 3.104826,
    "transactions": [
      {
        "date": "2022-09-21",
        "priceEur": 257000,
        "typeLocal": "Maison",
        "surfaceM2": 80,
        "isVefa": false
      }
    ]
  },
  "7dff3dbfc373": {
    "id": "7dff3dbfc373",
    "label": "23 RUE DES BAS JARDINS, Mons-en-Barœul",
    "lat": 50.643504,
    "lng": 3.106615,
    "transactions": [
      {
        "date": "2022-09-23",
        "priceEur": 192000,
        "typeLocal": "Maison",
        "surfaceM2": 76,
        "isVefa": false
      }
    ]
  },
  "86360328814f": {
    "id": "86360328814f",
    "label": "15 AV DESROUSSEAUX, Mons-en-Barœul",
    "lat": 50.644178,
    "lng": 3.102934,
    "transactions": [
      {
        "date": "2022-09-30",
        "priceEur": 344900,
        "typeLocal": "Maison",
        "surfaceM2": 88,
        "isVefa": false
      }
    ]
  },
  "99ab59c88762": {
    "id": "99ab59c88762",
    "label": "49 RUE DU MARECHAL LYAUTEY, Mons-en-Barœul",
    "lat": 50.641713,
    "lng": 3.107479,
    "transactions": [
      {
        "date": "2024-07-12",
        "priceEur": 98000,
        "typeLocal": "Appartement",
        "surfaceM2": 72,
        "isVefa": false
      },
      {
        "date": "2022-10-04",
        "priceEur": 88000,
        "typeLocal": "Appartement",
        "surfaceM2": 48,
        "isVefa": false
      }
    ]
  },
  "19e676f0ca52": {
    "id": "19e676f0ca52",
    "label": "21 RUE DU CAP MICHEL, Mons-en-Barœul",
    "lat": 50.644766,
    "lng": 3.098732,
    "transactions": [
      {
        "date": "2022-10-17",
        "priceEur": 425000,
        "typeLocal": "Maison",
        "surfaceM2": 95,
        "isVefa": false
      }
    ]
  },
  "068895a761b6": {
    "id": "068895a761b6",
    "label": "5 ALL DU PARC, Mons-en-Barœul",
    "lat": 50.640991,
    "lng": 3.102504,
    "transactions": [
      {
        "date": "2022-10-24",
        "priceEur": 257000,
        "typeLocal": "Maison",
        "surfaceM2": 52,
        "isVefa": false
      }
    ]
  },
  "270aef749cb8": {
    "id": "270aef749cb8",
    "label": "176 RUE DU GENERAL DE GAULLE, Mons-en-Barœul",
    "lat": 50.645915,
    "lng": 3.104973,
    "transactions": [
      {
        "date": "2025-04-29",
        "priceEur": 481000,
        "typeLocal": "Maison",
        "surfaceM2": 130,
        "isVefa": false
      },
      {
        "date": "2022-12-15",
        "priceEur": 465500,
        "typeLocal": "Maison",
        "surfaceM2": 130,
        "isVefa": false
      }
    ]
  },
  "ba87241445a6": {
    "id": "ba87241445a6",
    "label": "20 RUE DU MARECHAL LYAUTEY, Mons-en-Barœul",
    "lat": 50.641011,
    "lng": 3.106267,
    "transactions": [
      {
        "date": "2024-08-21",
        "priceEur": 133500,
        "typeLocal": "Maison",
        "surfaceM2": 107,
        "isVefa": false
      },
      {
        "date": "2022-12-20",
        "priceEur": 263500,
        "typeLocal": "Maison",
        "surfaceM2": 107,
        "isVefa": false
      }
    ]
  },
  "8ee71ace3a73": {
    "id": "8ee71ace3a73",
    "label": "30 RUE PARMENTIER, Mons-en-Barœul",
    "lat": 50.643195,
    "lng": 3.10323,
    "transactions": [
      {
        "date": "2024-06-14",
        "priceEur": 238000,
        "typeLocal": "Appartement",
        "surfaceM2": 73,
        "isVefa": false
      },
      {
        "date": "2024-06-10",
        "priceEur": 158000,
        "typeLocal": "Appartement",
        "surfaceM2": 48,
        "isVefa": false
      },
      {
        "date": "2022-10-16",
        "priceEur": 156000,
        "typeLocal": "Appartement",
        "surfaceM2": 43,
        "isVefa": false
      }
    ]
  },
  "9932ccdaf75c": {
    "id": "9932ccdaf75c",
    "label": "34 AV DE LA LIBERTE, Mons-en-Barœul",
    "lat": 50.642612,
    "lng": 3.104726,
    "transactions": [
      {
        "date": "2023-01-19",
        "priceEur": 199750,
        "typeLocal": "Maison",
        "surfaceM2": 80,
        "isVefa": false
      }
    ]
  },
  "743d0511316b": {
    "id": "743d0511316b",
    "label": "14 RUE FLORIMOND DELEMER, Mons-en-Barœul",
    "lat": 50.645129,
    "lng": 3.103252,
    "transactions": [
      {
        "date": "2023-02-01",
        "priceEur": 290000,
        "typeLocal": "Maison",
        "surfaceM2": 64,
        "isVefa": false
      }
    ]
  },
  "edd666622a63": {
    "id": "edd666622a63",
    "label": "49 RUE MARCEL PINCHON, Mons-en-Barœul",
    "lat": 50.639921,
    "lng": 3.102368,
    "transactions": [
      {
        "date": "2023-02-02",
        "priceEur": 183750,
        "typeLocal": "Maison",
        "surfaceM2": 55,
        "isVefa": false
      }
    ]
  },
  "d2d03c6505ad": {
    "id": "d2d03c6505ad",
    "label": "21 RUE DES BAS JARDINS, Mons-en-Barœul",
    "lat": 50.643456,
    "lng": 3.106651,
    "transactions": [
      {
        "date": "2023-02-09",
        "priceEur": 255000,
        "typeLocal": "Maison",
        "surfaceM2": 102,
        "isVefa": false
      }
    ]
  },
  "4aad6db5ce10": {
    "id": "4aad6db5ce10",
    "label": "140 RUE DU GENERAL DE GAULLE, Mons-en-Barœul",
    "lat": 50.645516,
    "lng": 3.103091,
    "transactions": [
      {
        "date": "2023-01-31",
        "priceEur": 552000,
        "typeLocal": "Maison",
        "surfaceM2": 142,
        "isVefa": false
      }
    ]
  },
  "95ba25b78cac": {
    "id": "95ba25b78cac",
    "label": "1 RUE EDOUARD LALO, Mons-en-Barœul",
    "lat": 50.64019,
    "lng": 3.103704,
    "transactions": [
      {
        "date": "2023-01-30",
        "priceEur": 169000,
        "typeLocal": "Maison",
        "surfaceM2": 52,
        "isVefa": false
      }
    ]
  },
  "5c593e3571f5": {
    "id": "5c593e3571f5",
    "label": "52 RUE HENRI POISSONNIER, Mons-en-Barœul",
    "lat": 50.644454,
    "lng": 3.104536,
    "transactions": [
      {
        "date": "2023-03-17",
        "priceEur": 354400,
        "typeLocal": "Maison",
        "surfaceM2": 112,
        "isVefa": false
      }
    ]
  },
  "3ed8be52f5be": {
    "id": "3ed8be52f5be",
    "label": "122 RUE JEAN JAURES, Mons-en-Barœul",
    "lat": 50.640166,
    "lng": 3.104716,
    "transactions": [
      {
        "date": "2023-03-28",
        "priceEur": 292000,
        "typeLocal": "Maison",
        "surfaceM2": 151,
        "isVefa": false
      }
    ]
  },
  "50c2475103d2": {
    "id": "50c2475103d2",
    "label": "5 RUE MARCEL PINCHON, Mons-en-Barœul",
    "lat": 50.641648,
    "lng": 3.101095,
    "transactions": [
      {
        "date": "2023-03-24",
        "priceEur": 116000,
        "typeLocal": "Maison",
        "surfaceM2": 55,
        "isVefa": false
      }
    ]
  },
  "51645063da80": {
    "id": "51645063da80",
    "label": "110 RUE DU GENERAL DE GAULLE, Mons-en-Barœul",
    "lat": 50.645198,
    "lng": 3.10181,
    "transactions": [
      {
        "date": "2023-04-17",
        "priceEur": 170000,
        "typeLocal": "Appartement",
        "surfaceM2": 70,
        "isVefa": false
      }
    ]
  },
  "b485e5d449fa": {
    "id": "b485e5d449fa",
    "label": "151 RUE JEAN JAURES, Mons-en-Barœul",
    "lat": 50.639362,
    "lng": 3.10589,
    "transactions": [
      {
        "date": "2023-04-28",
        "priceEur": 222000,
        "typeLocal": "Maison",
        "surfaceM2": 79,
        "isVefa": false
      }
    ]
  },
  "74529b07dcfb": {
    "id": "74529b07dcfb",
    "label": "57 RUE HECTOR BERLIOZ, Mons-en-Barœul",
    "lat": 50.640692,
    "lng": 3.10392,
    "transactions": [
      {
        "date": "2023-05-23",
        "priceEur": 237500,
        "typeLocal": "Maison",
        "surfaceM2": 76,
        "isVefa": false
      }
    ]
  },
  "e06eb9218ff0": {
    "id": "e06eb9218ff0",
    "label": "23 RUE DES PREVOYANTS, Mons-en-Barœul",
    "lat": 50.64077,
    "lng": 3.10575,
    "transactions": [
      {
        "date": "2023-05-24",
        "priceEur": 140000,
        "typeLocal": "Maison",
        "surfaceM2": 45,
        "isVefa": false
      }
    ]
  },
  "16002520b1d4": {
    "id": "16002520b1d4",
    "label": "25 RUE DES PREVOYANTS, Mons-en-Barœul",
    "lat": 50.640719,
    "lng": 3.105827,
    "transactions": [
      {
        "date": "2023-05-24",
        "priceEur": 155000,
        "typeLocal": "Maison",
        "surfaceM2": 72,
        "isVefa": false
      }
    ]
  },
  "a1795817130e": {
    "id": "a1795817130e",
    "label": "30B RUE DES PREVOYANTS, Mons-en-Barœul",
    "lat": 50.640428,
    "lng": 3.106155,
    "transactions": [
      {
        "date": "2023-05-12",
        "priceEur": 159000,
        "typeLocal": "Maison",
        "surfaceM2": 61,
        "isVefa": false
      }
    ]
  },
  "29e821df8c16": {
    "id": "29e821df8c16",
    "label": "26 RUE JEAN JAURES, Mons-en-Barœul",
    "lat": 50.642354,
    "lng": 3.103151,
    "transactions": [
      {
        "date": "2023-05-16",
        "priceEur": 217000,
        "typeLocal": "Maison",
        "surfaceM2": 70,
        "isVefa": false
      }
    ]
  },
  "7ac2cd2eebad": {
    "id": "7ac2cd2eebad",
    "label": "107 RUE PARMENTIER, Mons-en-Barœul",
    "lat": 50.644343,
    "lng": 3.107855,
    "transactions": [
      {
        "date": "2023-05-15",
        "priceEur": 185000,
        "typeLocal": "Maison",
        "surfaceM2": 83,
        "isVefa": false
      }
    ]
  },
  "83d9cd796d8f": {
    "id": "83d9cd796d8f",
    "label": "83 RUE DU GENERAL DE GAULLE, Mons-en-Barœul",
    "lat": 50.64449,
    "lng": 3.099412,
    "transactions": [
      {
        "date": "2023-06-02",
        "priceEur": 485850,
        "typeLocal": "Maison",
        "surfaceM2": 162,
        "isVefa": false
      }
    ]
  },
  "28dcc159dfb9": {
    "id": "28dcc159dfb9",
    "label": "34 RUE MONTESQUIEU, Mons-en-Barœul",
    "lat": 50.644326,
    "lng": 3.10561,
    "transactions": [
      {
        "date": "2023-06-15",
        "priceEur": 236850,
        "typeLocal": "Maison",
        "surfaceM2": 85,
        "isVefa": false
      }
    ]
  },
  "98c8f376918d": {
    "id": "98c8f376918d",
    "label": "24 RUE JEAN JAURES, Mons-en-Barœul",
    "lat": 50.642388,
    "lng": 3.103135,
    "transactions": [
      {
        "date": "2023-06-22",
        "priceEur": 194200,
        "typeLocal": "Maison",
        "surfaceM2": 64,
        "isVefa": false
      }
    ]
  },
  "12f41b5b496f": {
    "id": "12f41b5b496f",
    "label": "47 RUE PARMENTIER, Mons-en-Barœul",
    "lat": 50.643696,
    "lng": 3.104052,
    "transactions": [
      {
        "date": "2023-06-16",
        "priceEur": 711390,
        "typeLocal": "Maison",
        "surfaceM2": 117,
        "isVefa": false
      },
      {
        "date": "2023-06-16",
        "priceEur": 711390,
        "typeLocal": "Appartement",
        "surfaceM2": 23,
        "isVefa": false
      },
      {
        "date": "2023-06-16",
        "priceEur": 711390,
        "typeLocal": "Appartement",
        "surfaceM2": 24,
        "isVefa": false
      }
    ]
  },
  "4023e64e6cb3": {
    "id": "4023e64e6cb3",
    "label": "129 RUE JEAN JAURES, Mons-en-Barœul",
    "lat": 50.640063,
    "lng": 3.105396,
    "transactions": [
      {
        "date": "2023-06-21",
        "priceEur": 286000,
        "typeLocal": "Maison",
        "surfaceM2": 95,
        "isVefa": false
      }
    ]
  },
  "70339bf882e3": {
    "id": "70339bf882e3",
    "label": "119 RUE JEAN JAURES, Mons-en-Barœul",
    "lat": 50.640262,
    "lng": 3.105212,
    "transactions": [
      {
        "date": "2023-06-29",
        "priceEur": 375102,
        "typeLocal": "Maison",
        "surfaceM2": 100,
        "isVefa": false
      }
    ]
  },
  "3fe98b05a7d8": {
    "id": "3fe98b05a7d8",
    "label": "26 RUE EDOUARD LALO, Mons-en-Barœul",
    "lat": 50.639612,
    "lng": 3.103361,
    "transactions": [
      {
        "date": "2023-06-23",
        "priceEur": 108000,
        "typeLocal": "Maison",
        "surfaceM2": 76,
        "isVefa": false
      }
    ]
  },
  "c4b21aec692b": {
    "id": "c4b21aec692b",
    "label": "24 RUE PARMENTIER, Mons-en-Barœul",
    "lat": 50.643102,
    "lng": 3.102617,
    "transactions": [
      {
        "date": "2023-07-04",
        "priceEur": 138000,
        "typeLocal": "Maison",
        "surfaceM2": 45,
        "isVefa": false
      }
    ]
  },
  "9e2c0779ea55": {
    "id": "9e2c0779ea55",
    "label": "13 RUE JEAN JAURES, Mons-en-Barœul",
    "lat": 50.642958,
    "lng": 3.103164,
    "transactions": [
      {
        "date": "2023-07-24",
        "priceEur": 226000,
        "typeLocal": "Maison",
        "surfaceM2": 70,
        "isVefa": false
      }
    ]
  },
  "3fc48088563b": {
    "id": "3fc48088563b",
    "label": "115 RUE JEAN JAURES, Mons-en-Barœul",
    "lat": 50.640327,
    "lng": 3.105137,
    "transactions": [
      {
        "date": "2023-08-17",
        "priceEur": 207000,
        "typeLocal": "Maison",
        "surfaceM2": 61,
        "isVefa": false
      }
    ]
  },
  "1c8379895387": {
    "id": "1c8379895387",
    "label": "14 RUE DES PREVOYANTS, Mons-en-Barœul",
    "lat": 50.640419,
    "lng": 3.105637,
    "transactions": [
      {
        "date": "2023-08-31",
        "priceEur": 474950,
        "typeLocal": "Maison",
        "surfaceM2": 99,
        "isVefa": false
      }
    ]
  },
  "45f35a5ed514": {
    "id": "45f35a5ed514",
    "label": "78 RUE DU GENERAL DE GAULLE, Mons-en-Barœul",
    "lat": 50.643467,
    "lng": 3.09857,
    "transactions": [
      {
        "date": "2023-09-08",
        "priceEur": 67500,
        "typeLocal": "Appartement",
        "surfaceM2": 29,
        "isVefa": false
      }
    ]
  },
  "69eddaa25291": {
    "id": "69eddaa25291",
    "label": "29 RUE MARCEL PINCHON, Mons-en-Barœul",
    "lat": 50.640698,
    "lng": 3.101898,
    "transactions": [
      {
        "date": "2023-09-12",
        "priceEur": 144000,
        "typeLocal": "Maison",
        "surfaceM2": 45,
        "isVefa": false
      }
    ]
  },
  "a68ddc7efb83": {
    "id": "a68ddc7efb83",
    "label": "97 RUE HECTOR BERLIOZ, Mons-en-Barœul",
    "lat": 50.639772,
    "lng": 3.104608,
    "transactions": [
      {
        "date": "2023-10-02",
        "priceEur": 227000,
        "typeLocal": "Maison",
        "surfaceM2": 76,
        "isVefa": false
      }
    ]
  },
  "f48ad2360aab": {
    "id": "f48ad2360aab",
    "label": "13 RUE MONTESQUIEU, Mons-en-Barœul",
    "lat": 50.645203,
    "lng": 3.106324,
    "transactions": [
      {
        "date": "2023-09-22",
        "priceEur": 448430,
        "typeLocal": "Appartement",
        "surfaceM2": 130,
        "isVefa": false
      }
    ]
  },
  "752107f6d998": {
    "id": "752107f6d998",
    "label": "121 RUE PARMENTIER, Mons-en-Barœul",
    "lat": 50.64425,
    "lng": 3.108379,
    "transactions": [
      {
        "date": "2023-10-11",
        "priceEur": 223000,
        "typeLocal": "Maison",
        "surfaceM2": 76,
        "isVefa": false
      }
    ]
  },
  "e1d53ac1923f": {
    "id": "e1d53ac1923f",
    "label": "100 RUE JEAN JAURES, Mons-en-Barœul",
    "lat": 50.640796,
    "lng": 3.104283,
    "transactions": [
      {
        "date": "2023-10-25",
        "priceEur": 161400,
        "typeLocal": "Maison",
        "surfaceM2": 86,
        "isVefa": false
      }
    ]
  },
  "ce7d948f1641": {
    "id": "ce7d948f1641",
    "label": "17 RUE DU CAP MICHEL, Mons-en-Barœul",
    "lat": 50.644928,
    "lng": 3.098778,
    "transactions": [
      {
        "date": "2023-10-02",
        "priceEur": 350000,
        "typeLocal": "Maison",
        "surfaceM2": 95,
        "isVefa": false
      }
    ]
  },
  "5357a931818f": {
    "id": "5357a931818f",
    "label": "21 RUE PARMENTIER, Mons-en-Barœul",
    "lat": 50.643476,
    "lng": 3.102939,
    "transactions": [
      {
        "date": "2023-10-16",
        "priceEur": 258000,
        "typeLocal": "Maison",
        "surfaceM2": 67,
        "isVefa": false
      }
    ]
  },
  "f155a62ba467": {
    "id": "f155a62ba467",
    "label": "24 RUE ROLLIN, Mons-en-Barœul",
    "lat": 50.644549,
    "lng": 3.101581,
    "transactions": [
      {
        "date": "2023-10-30",
        "priceEur": 578000,
        "typeLocal": "Maison",
        "surfaceM2": 144,
        "isVefa": false
      }
    ]
  },
  "7d29601bd39c": {
    "id": "7d29601bd39c",
    "label": "20 AV GEORGES CLEMENCEAU, Mons-en-Barœul",
    "lat": 50.640595,
    "lng": 3.098731,
    "transactions": [
      {
        "date": "2023-11-13",
        "priceEur": 280000,
        "typeLocal": "Maison",
        "surfaceM2": 89,
        "isVefa": false
      }
    ]
  },
  "4ab6848d26f2": {
    "id": "4ab6848d26f2",
    "label": "11 AV DU TROCADERO, Mons-en-Barœul",
    "lat": 50.645245,
    "lng": 3.108334,
    "transactions": [
      {
        "date": "2023-11-16",
        "priceEur": 938380,
        "typeLocal": "Maison",
        "surfaceM2": 229,
        "isVefa": false
      }
    ]
  },
  "da01f608f22a": {
    "id": "da01f608f22a",
    "label": "20 RUE DES PREVOYANTS, Mons-en-Barœul",
    "lat": 50.640416,
    "lng": 3.105849,
    "transactions": [
      {
        "date": "2023-12-15",
        "priceEur": 230000,
        "typeLocal": "Maison",
        "surfaceM2": 88,
        "isVefa": false
      }
    ]
  },
  "518be65a8124": {
    "id": "518be65a8124",
    "label": "18 RUE MONTESQUIEU, Mons-en-Barœul",
    "lat": 50.645072,
    "lng": 3.105648,
    "transactions": [
      {
        "date": "2023-12-29",
        "priceEur": 270000,
        "typeLocal": "Maison",
        "surfaceM2": 75,
        "isVefa": false
      }
    ]
  },
  "cd8313524720": {
    "id": "cd8313524720",
    "label": "1T AV ROBERT SCHUMAN, Mons-en-Barœul",
    "lat": 50.642537,
    "lng": 3.10401,
    "transactions": [
      {
        "date": "2024-01-22",
        "priceEur": 223000,
        "typeLocal": "Maison",
        "surfaceM2": 97,
        "isVefa": false
      }
    ]
  },
  "e54a43dc90b5": {
    "id": "e54a43dc90b5",
    "label": "15 RUE JEANNE D ARC, Mons-en-Barœul",
    "lat": 50.643716,
    "lng": 3.102741,
    "transactions": [
      {
        "date": "2024-01-11",
        "priceEur": 613600,
        "typeLocal": "Maison",
        "surfaceM2": 148,
        "isVefa": false
      }
    ]
  },
  "71e747a1e29e": {
    "id": "71e747a1e29e",
    "label": "97 RUE DU GENERAL DE GAULLE, Mons-en-Barœul",
    "lat": 50.644891,
    "lng": 3.099962,
    "transactions": [
      {
        "date": "2024-02-20",
        "priceEur": 635040,
        "typeLocal": "Maison",
        "surfaceM2": 162,
        "isVefa": false
      }
    ]
  },
  "38da79fd02f9": {
    "id": "38da79fd02f9",
    "label": "3 AV DE LA LIBERTE, Mons-en-Barœul",
    "lat": 50.643331,
    "lng": 3.104978,
    "transactions": [
      {
        "date": "2024-02-28",
        "priceEur": 378000,
        "typeLocal": "Maison",
        "surfaceM2": 124,
        "isVefa": false
      }
    ]
  },
  "d01ca778552a": {
    "id": "d01ca778552a",
    "label": "33 RUE MARCEL PINCHON, Mons-en-Barœul",
    "lat": 50.640551,
    "lng": 3.101933,
    "transactions": [
      {
        "date": "2024-03-20",
        "priceEur": 197500,
        "typeLocal": "Maison",
        "surfaceM2": 53,
        "isVefa": false
      }
    ]
  },
  "45ae94b6136a": {
    "id": "45ae94b6136a",
    "label": "41 RUE MARCEL MONNIER, Mons-en-Barœul",
    "lat": 50.643532,
    "lng": 3.105656,
    "transactions": [
      {
        "date": "2024-03-18",
        "priceEur": 176000,
        "typeLocal": "Maison",
        "surfaceM2": 86,
        "isVefa": false
      }
    ]
  },
  "953cd4005ce4": {
    "id": "953cd4005ce4",
    "label": "34 RUE JEAN JACQUES ROUSSEAU, Mons-en-Barœul",
    "lat": 50.640156,
    "lng": 3.100409,
    "transactions": [
      {
        "date": "2024-03-29",
        "priceEur": 400000,
        "typeLocal": "Maison",
        "surfaceM2": 163,
        "isVefa": false
      }
    ]
  },
  "6894331806ab": {
    "id": "6894331806ab",
    "label": "17 ALL CHARLES PEGUY, Mons-en-Barœul",
    "lat": 50.639969,
    "lng": 3.09903,
    "transactions": [
      {
        "date": "2024-03-25",
        "priceEur": 149500,
        "typeLocal": "Maison",
        "surfaceM2": 70,
        "isVefa": false
      }
    ]
  },
  "106cc1b010dc": {
    "id": "106cc1b010dc",
    "label": "85 RUE DU GENERAL DE GAULLE, Mons-en-Barœul",
    "lat": 50.644747,
    "lng": 3.09923,
    "transactions": [
      {
        "date": "2024-04-22",
        "priceEur": 650000,
        "typeLocal": "Maison",
        "surfaceM2": 140,
        "isVefa": false
      }
    ]
  },
  "3805c071c1e3": {
    "id": "3805c071c1e3",
    "label": "1B AV DE LA LIBERTE, Mons-en-Barœul",
    "lat": 50.643401,
    "lng": 3.104829,
    "transactions": [
      {
        "date": "2024-05-13",
        "priceEur": 375000,
        "typeLocal": "Maison",
        "surfaceM2": 103,
        "isVefa": false
      }
    ]
  },
  "a6f839003324": {
    "id": "a6f839003324",
    "label": "37 RUE HENRI POISSONNIER, Mons-en-Barœul",
    "lat": 50.644665,
    "lng": 3.105061,
    "transactions": [
      {
        "date": "2024-04-30",
        "priceEur": 610000,
        "typeLocal": "Maison",
        "surfaceM2": 168,
        "isVefa": false
      }
    ]
  },
  "d2c3bf8ab9c4": {
    "id": "d2c3bf8ab9c4",
    "label": "22 RUE DU CHALET, Mons-en-Barœul",
    "lat": 50.64254,
    "lng": 3.102624,
    "transactions": [
      {
        "date": "2024-05-06",
        "priceEur": 225300,
        "typeLocal": "Maison",
        "surfaceM2": 79,
        "isVefa": false
      }
    ]
  },
  "ff16a88fd12a": {
    "id": "ff16a88fd12a",
    "label": "7 RUE DU CHALET, Mons-en-Barœul",
    "lat": 50.642784,
    "lng": 3.102373,
    "transactions": [
      {
        "date": "2024-05-28",
        "priceEur": 208500,
        "typeLocal": "Maison",
        "surfaceM2": 70,
        "isVefa": false
      }
    ]
  },
  "f057351153f1": {
    "id": "f057351153f1",
    "label": "96 RUE MARCEL PINCHON, Mons-en-Barœul",
    "lat": 50.639672,
    "lng": 3.101907,
    "transactions": [
      {
        "date": "2024-06-27",
        "priceEur": 225000,
        "typeLocal": "Maison",
        "surfaceM2": 24,
        "isVefa": false
      }
    ]
  },
  "11037208456f": {
    "id": "11037208456f",
    "label": "30 RUE JEAN JAURES, Mons-en-Barœul",
    "lat": 50.642288,
    "lng": 3.103196,
    "transactions": [
      {
        "date": "2024-06-19",
        "priceEur": 154000,
        "typeLocal": "Maison",
        "surfaceM2": 46,
        "isVefa": false
      }
    ]
  },
  "9eb09f87f37a": {
    "id": "9eb09f87f37a",
    "label": "15 RUE DU CAP MICHEL, Mons-en-Barœul",
    "lat": 50.645019,
    "lng": 3.098667,
    "transactions": [
      {
        "date": "2024-06-21",
        "priceEur": 357200,
        "typeLocal": "Maison",
        "surfaceM2": 113,
        "isVefa": false
      }
    ]
  },
  "d006a933d97f": {
    "id": "d006a933d97f",
    "label": "37 RUE MARCEL MONNIER, Mons-en-Barœul",
    "lat": 50.64342,
    "lng": 3.105634,
    "transactions": [
      {
        "date": "2024-07-12",
        "priceEur": 389000,
        "typeLocal": "Maison",
        "surfaceM2": 86,
        "isVefa": false
      }
    ]
  },
  "9abd6bf0da83": {
    "id": "9abd6bf0da83",
    "label": "26 RUE HENRI POISSONNIER, Mons-en-Barœul",
    "lat": 50.645118,
    "lng": 3.104269,
    "transactions": [
      {
        "date": "2024-07-05",
        "priceEur": 246000,
        "typeLocal": "Maison",
        "surfaceM2": 114,
        "isVefa": false
      }
    ]
  },
  "1514ea0ff9d8": {
    "id": "1514ea0ff9d8",
    "label": "64 RUE HENRI POISSONNIER, Mons-en-Barœul",
    "lat": 50.644082,
    "lng": 3.104602,
    "transactions": [
      {
        "date": "2024-07-05",
        "priceEur": 565000,
        "typeLocal": "Maison",
        "surfaceM2": 83,
        "isVefa": false
      }
    ]
  },
  "556bfb949987": {
    "id": "556bfb949987",
    "label": "38 RUE PARMENTIER, Mons-en-Barœul",
    "lat": 50.643272,
    "lng": 3.103968,
    "transactions": [
      {
        "date": "2024-06-21",
        "priceEur": 850000,
        "typeLocal": "Appartement",
        "surfaceM2": 36,
        "isVefa": false
      }
    ]
  },
  "2f7a5beb9b0e": {
    "id": "2f7a5beb9b0e",
    "label": "14 AV GEORGES CLEMENCEAU, Mons-en-Barœul",
    "lat": 50.640768,
    "lng": 3.098845,
    "transactions": [
      {
        "date": "2024-08-02",
        "priceEur": 250000,
        "typeLocal": "Maison",
        "surfaceM2": 76,
        "isVefa": false
      }
    ]
  },
  "83a6d42b05ac": {
    "id": "83a6d42b05ac",
    "label": "22 RUE HENRI POISSONNIER, Mons-en-Barœul",
    "lat": 50.645218,
    "lng": 3.104263,
    "transactions": [
      {
        "date": "2024-08-02",
        "priceEur": 442000,
        "typeLocal": "Maison",
        "surfaceM2": 120,
        "isVefa": false
      }
    ]
  },
  "1d5e0eb64597": {
    "id": "1d5e0eb64597",
    "label": "65 RUE HECTOR BERLIOZ, Mons-en-Barœul",
    "lat": 50.640512,
    "lng": 3.104033,
    "transactions": [
      {
        "date": "2024-07-19",
        "priceEur": 295000,
        "typeLocal": "Maison",
        "surfaceM2": 76,
        "isVefa": false
      }
    ]
  },
  "92b9a4369d33": {
    "id": "92b9a4369d33",
    "label": "11 RUE PIERRE DE COUBERTIN, Mons-en-Barœul",
    "lat": 50.640393,
    "lng": 3.107613,
    "transactions": [
      {
        "date": "2024-08-30",
        "priceEur": 210000,
        "typeLocal": "Maison",
        "surfaceM2": 93,
        "isVefa": false
      },
      {
        "date": "2024-08-30",
        "priceEur": 273921.66,
        "typeLocal": "Maison",
        "surfaceM2": 93,
        "isVefa": false
      }
    ]
  },
  "323902f19ff4": {
    "id": "323902f19ff4",
    "label": "17 RUE MARCEL MONNIER, Mons-en-Barœul",
    "lat": 50.642863,
    "lng": 3.105824,
    "transactions": [
      {
        "date": "2024-09-02",
        "priceEur": 225000,
        "typeLocal": "Maison",
        "surfaceM2": 86,
        "isVefa": false
      }
    ]
  },
  "f5d7346a7f5c": {
    "id": "f5d7346a7f5c",
    "label": "59 RUE PARMENTIER, Mons-en-Barœul",
    "lat": 50.643961,
    "lng": 3.105339,
    "transactions": [
      {
        "date": "2024-08-29",
        "priceEur": 206000,
        "typeLocal": "Maison",
        "surfaceM2": 80,
        "isVefa": false
      }
    ]
  },
  "5477abbda083": {
    "id": "5477abbda083",
    "label": "7 AV DES ACACIAS, Mons-en-Barœul",
    "lat": 50.642274,
    "lng": 3.101031,
    "transactions": [
      {
        "date": "2024-09-11",
        "priceEur": 140000,
        "typeLocal": "Maison",
        "surfaceM2": 50,
        "isVefa": false
      }
    ]
  },