{
  "bce9d40f0251": {
    "id": "bce9d40f0251",
    "label": "180 ALL DES GRANDS PRES, Mérignies",
    "lat": 50.510521,
    "lng": 3.108906,
    "transactions": [
      {
        "date": "2022-01-20",
        "priceEur": 632000,
        "typeLocal": "Maison",
        "surfaceM2": 170,
        "isVefa": false
      }
    ]
  },
  "46dae763204f": {
    "id": "46dae763204f",
    "label": "157 RUE DE LA ROSEE, Mérignies",
    "lat": 50.508438,
    "lng": 3.1055,
    "transactions": [
      {
        "date": "2022-03-16",
        "priceEur": 437000,
        "typeLocal": "Maison",
        "surfaceM2": 162,
        "isVefa": false
      }
    ]
  },
  "9752c0638e61": {
    "id": "9752c0638e61",
    "label": "86 RUE DE LA ROSEE, Mérignies",
    "lat": 50.508095,
    "lng": 3.107149,
    "transactions": [
      {
        "date": "2022-08-24",
        "priceEur": 285000,
        "typeLocal": "Maison",
        "surfaceM2": 140,
        "isVefa": false
      }
    ]
  },
  "2f787adca26d": {
    "id": "2f787adca26d",
    "label": "161 RUE DE LA ROSEE, Mérignies",
    "lat": 50.508613,
    "lng": 3.105443,
    "transactions": [
      {
        "date": "2023-05-24",
        "priceEur": 408700,
        "typeLocal": "Maison",
        "surfaceM2": 133,
        "isVefa": false
      }
    ]
  },
  "1135719d431b": {
    "id": "1135719d431b",
    "label": "122 RUE D ATTICHES, Mérignies",
    "lat": 50.507151,
    "lng": 3.108814,
    "transactions": [
      {
        "date": "2023-06-15",
        "priceEur": 320000,
        "typeLocal": "Maison",
        "surfaceM2": 71,
        "isVefa": false
      }
    ]
  },
  "4a4aeab1388b": {
    "id": "4a4aeab1388b",
    "label": "40 RUE DE LA ROSEE, Mérignies",
    "lat": 50.507591,
    "lng": 3.106745,
    "transactions": [
      {
        "date": "2023-08-11",
        "priceEur": 213650,
        "typeLocal": "Maison",
        "surfaceM2": 100,
        "isVefa": false
      }
    ]
  },
  "69acf4b1c49a": {
    "id": "69acf4b1c49a",
    "label": "263 ALL DES PEUPLIERS, Mérignies",
    "lat": 50.513237,
    "lng": 3.10908,
    "transactions": [
      {
        "date": "2024-05-31",
        "priceEur": 775460,
        "typeLocal": "Maison",
        "surfaceM2": 210,
        "isVefa": false
      }
    ]
  },
  "d415d3f1a29e": {
    "id": "d415d3f1a29e",
    "label": "233 RUE DU ROSSIGNOL, Mérignies",
    "lat": 50.506635,
    "lng": 3.107706,
    "transactions": [
      {
        "date": "2024-06-27",
        "priceEur": 178880,
        "typeLocal": "Maison",
        "surfaceM2": 80,
        "isVefa": false
      }
    ]
  },
  "97961f7eeadf": {
    "id": "97961f7eeadf",
    "label": "202 RUE DE LA ROSEE, Mérignies",
    "lat": 50.509075,
    "lng": 3.106522,
    "transactions": [
      {
        "date": "2024-10-23",
        "priceEur": 200000,
        "typeLocal": "Maison",
        "surfaceM2": 85,
        "isVefa": false
      }
    ]
  }
}