{
  "e249ccf7fa4f": {
    "id": "e249ccf7fa4f",
    "label": "451 RUE PIERRE BROSSOLETTE, Roost-Warendin",
    "lat": 50.418643,
    "lng": 3.105035,
    "transactions": [
      {
        "date": "2021-06-22",
        "priceEur": 82400,
        "typeLocal": "Maison",
        "surfaceM2": 83,
        "isVefa": false
      }
    ]
  },
  "6cc105e64343": {
    "id": "6cc105e64343",
    "label": "96 RUE DENIS PAPIN, Roost-Warendin",
    "lat": 50.415867,
    "lng": 3.100417,
    "transactions": [
      {
        "date": "2021-07-01",
        "priceEur": 396510,
        "typeLocal": "Maison",
        "surfaceM2": 242,
        "isVefa": false
      }
    ]
  },
  "446d26830ed1": {
    "id": "446d26830ed1",
    "label": "260 RUE JEAN JAURES, Roost-Warendin",
    "lat": 50.42031,
    "lng": 3.10843,
    "transactions": [
      {
        "date": "2021-10-22",
        "priceEur": 90000,
        "typeLocal": "Maison",
        "surfaceM2": 60,
        "isVefa": false
      },
      {
        "date": "2021-10-22",
        "priceEur": 90000,
        "typeLocal": "Maison",
        "surfaceM2": 90,
        "isVefa": false
      }
    ]
  },
  "567c538fbd0e": {
    "id": "567c538fbd0e",
    "label": "40 RUE LEONARD DE VINCI, Roost-Warendin",
    "lat": 50.415699,
    "lng": 3.106764,
    "transactions": [
      {
        "date": "2021-12-08",
        "priceEur": 52000,
        "typeLocal": "Maison",
        "surfaceM2": 191,
        "isVefa": false
      }
    ]
  },
  "0448aec2c237": {
    "id": "0448aec2c237",
    "label": "87A RUE JEAN JAURES, Roost-Warendin",
    "lat": 50.419389,
    "lng": 3.106467,
    "transactions": [
      {
        "date": "2021-02-09",
        "priceEur": 27000,
        "typeLocal": "Appartement",
        "surfaceM2": 45,
        "isVefa": false
      }
    ]
  },
  "935dd464a97a": {
    "id": "935dd464a97a",
    "label": "421 RUE PIERRE BROSSOLETTE, Roost-Warendin",
    "lat": 50.418465,
    "lng": 3.104695,
    "transactions": [
      {
        "date": "2021-03-24",
        "priceEur": 400000,
        "typeLocal": "Maison",
        "surfaceM2": 197,
        "isVefa": false
      }
    ]
  },
  "890a982295a9": {
    "id": "890a982295a9",
    "label": "12B RUE DE LUBERSAC, Roost-Warendin",
    "lat": 50.422205,
    "lng": 3.106737,
    "transactions": [
      {
        "date": "2022-01-14",
        "priceEur": 133400,
        "typeLocal": "Maison",
        "surfaceM2": 71,
        "isVefa": false
      }
    ]
  },
  "11a6a2cf70b9": {
    "id": "11a6a2cf70b9",
    "label": "461 RUE GUSTAVE EIFFEL, Roost-Warendin",
    "lat": 50.415726,
    "lng": 3.101677,
    "transactions": [
      {
        "date": "2022-01-25",
        "priceEur": 293400,
        "typeLocal": "Maison",
        "surfaceM2": 125,
        "isVefa": false
      }
    ]
  },
  "dd4569edd437": {
    "id": "dd4569edd437",
    "label": "39 PL DE BRIVE, Roost-Warendin",
    "lat": 50.421993,
    "lng": 3.106288,
    "transactions": [
      {
        "date": "2022-04-06",
        "priceEur": 120600,
        "typeLocal": "Maison",
        "surfaceM2": 89,
        "isVefa": false
      }
    ]
  },
  "6a0827bda47d": {
    "id": "6a0827bda47d",
    "label": "3 RUE DE LUBERSAC, Roost-Warendin",
    "lat": 50.422276,
    "lng": 3.106221,
    "transactions": [
      {
        "date": "2022-04-07",
        "priceEur": 124380,
        "typeLocal": "Maison",
        "surfaceM2": 89,
        "isVefa": false
      }
    ]
  },
  "e046a2b2e785": {
    "id": "e046a2b2e785",
    "label": "267 RUE JEAN JAURES, Roost-Warendin",
    "lat": 50.420129,
    "lng": 3.108957,
    "transactions": [
      {
        "date": "2023-10-11",
        "priceEur": 41500,
        "typeLocal": "Appartement",
        "surfaceM2": 66,
        "isVefa": false
      },
      {
        "date": "2023-09-05",
        "priceEur": 90025,
        "typeLocal": "Appartement",
        "surfaceM2": 115,
        "isVefa": false
      },
      {
        "date": "2022-04-13",
        "priceEur": 83750,
        "typeLocal": "Appartement",
        "surfaceM2": 66,
        "isVefa": false
      }
    ]
  },
  "dd05b71ae3cb": {
    "id": "dd05b71ae3cb",
    "label": "4 RUE DE TULLE, Roost-Warendin",
    "lat": 50.420892,
    "lng": 3.106168,
    "transactions": [
      {
        "date": "2022-05-06",
        "priceEur": 103500,
        "typeLocal": "Maison",
        "surfaceM2": 71,
        "isVefa": false
      }
    ]
  },
  "040826abf86b": {
    "id": "040826abf86b",
    "label": "202 RUE JEAN JAURES, Roost-Warendin",
    "lat": 50.420272,
    "lng": 3.107743,
    "transactions": [
      {
        "date": "2022-06-29",
        "priceEur": 192000,
        "typeLocal": "Maison",
        "surfaceM2": 104,
        "isVefa": false
      }
    ]
  },
  "957ace6e130f": {
    "id": "957ace6e130f",
    "label": "20 RUE DU BOIS, Roost-Warendin",
    "lat": 50.421091,
    "lng": 3.100818,
    "transactions": [
      {
        "date": "2022-11-14",
        "priceEur": 119000,
        "typeLocal": "Maison",
        "surfaceM2": 81,
        "isVefa": false
      }
    ]
  },
  "7fab91a06333": {
    "id": "7fab91a06333",
    "label": "17 RUE DU BOIS, Roost-Warendin",
    "lat": 50.420944,
    "lng": 3.10122,
    "transactions": [
      {
        "date": "2022-12-22",
        "priceEur": 137100,
        "typeLocal": "Maison",
        "surfaceM2": 98,
        "isVefa": false
      }
    ]
  },
  "c550f9dccf48": {
    "id": "c550f9dccf48",
    "label": "280 RUE JEAN JAURES, Roost-Warendin",
    "lat": 50.42058,
    "lng": 3.108672,
    "transactions": [
      {
        "date": "2023-12-11",
        "priceEur": 118000,
        "typeLocal": "Maison",
        "surfaceM2": 99,
        "isVefa": false
      }
    ]
  },
  "015a138f1a87": {
    "id": "015a138f1a87",
    "label": "2 RUE DE DONZENAC, Roost-Warendin",
    "lat": 50.418459,
    "lng": 3.101279,
    "transactions": [
      {
        "date": "2023-12-28",
        "priceEur": 95000,
        "typeLocal": "Maison",
        "surfaceM2": 72,
        "isVefa": false
      }
    ]
  },
  "3306f170cd6e": {
    "id": "3306f170cd6e",
    "label": "369 RUE PIERRE BROSSOLETTE, Roost-Warendin",
    "lat": 50.41798,
    "lng": 3.104538,
    "transactions": [
      {
        "date": "2024-01-26",
        "priceEur": 57000,
        "typeLocal": "Maison",
        "surfaceM2": 79,
        "isVefa": false
      }
    ]
  },
  "00cdeda81bc7": {
    "id": "00cdeda81bc7",
    "label": "8 RUE D UZERCHE, Roost-Warendin",
    "lat": 50.419913,
    "lng": 3.102776,
    "transactions": [
      {
        "date": "2024-04-29",
        "priceEur": 65000,
        "typeLocal": "Maison",
        "surfaceM2": 53,
        "isVefa": false
      }
    ]
  },
  "fe9e806c5492": {
    "id": "fe9e806c5492",
    "label": "109 RUE JEAN JAURES, Roost-Warendin",
    "lat": 50.419363,
    "lng": 3.106897,
    "transactions": [
      {
        "date": "2024-06-18",
        "priceEur": 213000,
        "typeLocal": "Maison",
        "surfaceM2": 164,
        "isVefa": false
      }
    ]
  },
  "9ccaf72e6d78": {
    "id": "9ccaf72e6d78",
    "label": "21 RUE DU BOIS, Roost-Warendin",
    "lat": 50.420837,
    "lng": 3.101008,
    "transactions": [
      {
        "date": "2024-06-13",
        "priceEur": 130000,
        "typeLocal": "Maison",
        "surfaceM2": 81,
        "isVefa": false
      }
    ]
  },
  "e6355d3f8b86": {
    "id": "e6355d3f8b86",
    "label": "436 RUE ANATOLE FRANCE, Roost-Warendin",
    "lat": 50.417977,
    "lng": 3.09867,
    "transactions": [
      {
        "date": "2024-09-27",
        "priceEur": 130300,
        "typeLocal": "Maison",
        "surfaceM2": 99,
        "isVefa": false
      }
    ]
  },
  "e8553810e369": {
    "id": "e8553810e369",
    "label": "17 RUE DES ARCHELLES, Roost-Warendin",
    "lat": 50.42233,
    "lng": 3.107598,
    "transactions": [
      {
        "date": "2024-12-11",
        "priceEur": 124380,
        "typeLocal": "Maison",
        "surfaceM2": 89,
        "isVefa": false
      }
    ]
  },
  "f0011452a3d5": {
    "id": "f0011452a3d5",
    "label": "209 RUE EMILE ZOLA, Roost-Warendin",
    "lat": 50.41588,
    "lng": 3.098506,
    "transactions": [
      {
        "date": "2024-12-06",
        "priceEur": 135000,
        "typeLocal": "Maison",
        "surfaceM2": 102,
        "isVefa": false
      }
    ]
  },
  "63856c2187da": {
    "id": "63856c2187da",
    "label": "129 RUE JEAN JAURES, Roost-Warendin",
    "lat": 50.419459,
    "lng": 3.107116,
    "transactions": [
      {
        "date": "2025-01-27",
        "priceEur": 162000,
        "typeLocal": "Maison",
        "surfaceM2": 136,
        "isVefa": false
      }
    ]
  },
  "beb502032c75": {
    "id": "beb502032c75",
    "label": "12 RUE DE LUBERSAC, Roost-Warendin",
    "lat": 50.422095,
    "lng": 3.106732,
    "transactions": [
      {
        "date": "2025-03-27",
        "priceEur": 151400,
        "typeLocal": "Maison",
        "surfaceM2": 71,
        "isVefa": false
      }
    ]
  },
  "1a3cdb0bd39f": {
    "id": "1a3cdb0bd39f",
    "label": "160 RUE LOUIS BREGUET, Roost-Warendin",
    "lat": 50.415545,
    "lng": 3.101058,
    "transactions": [
      {
        "date": "2025-04-15",
        "priceEur": 276000,
        "typeLocal": "Maison",
        "surfaceM2": 124,
        "isVefa": false
      }
    ]
  }
}