{
  "0263f18dd932": {
    "id": "0263f18dd932",
    "label": "5001 PLAINE DE SAINT BARTHELEMY, Fontaine-la-Mallet",
    "lat": 49.554628,
    "lng": 0.137426,
    "transactions": [
      {
        "date": "2021-03-15",
        "priceEur": 509000,
        "typeLocal": "Maison",
        "surfaceM2": 179,
        "isVefa": false
      }
    ]
  },
  "4109a8f31a70": {
    "id": "4109a8f31a70",
    "label": "19 RTE DE SAINT BARTHELEMY, Octeville-sur-Mer",
    "lat": 49.558778,
    "lng": 0.136039,
    "transactions": [
      {
        "date": "2021-09-01",
        "priceEur": 658000,
        "typeLocal": "Maison",
        "surfaceM2": 181,
        "isVefa": false
      }
    ]
  },
  "c5f057033488": {
    "id": "c5f057033488",
    "label": "4 CLOS DE LA BIENVEILLANCE, Octeville-sur-Mer",
    "lat": 49.554662,
    "lng": 0.132707,
    "transactions": [
      {
        "date": "2021-09-24",
        "priceEur": 257900,
        "typeLocal": "Maison",
        "surfaceM2": 82,
        "isVefa": false
      }
    ]
  },
  "977a82fcb280": {
    "id": "977a82fcb280",
    "label": "2 CLOS DE LA BIENVEILLANCE, Octeville-sur-Mer",
    "lat": 49.554775,
    "lng": 0.132787,
    "transactions": [
      {
        "date": "2022-03-14",
        "priceEur": 1256000,
        "typeLocal": "Maison",
        "surfaceM2": 82,
        "isVefa": false
      }
    ]
  },
  "4b5e78d48e0a": {
    "id": "4b5e78d48e0a",
    "label": "6 CLOS DE LA BIENVEILLANCE, Octeville-sur-Mer",
    "lat": 49.554745,
    "lng": 0.13242,
    "transactions": [
      {
        "date": "2022-03-14",
        "priceEur": 1256000,
        "typeLocal": "Maison",
        "surfaceM2": 82,
        "isVefa": false
      }
    ]
  },
  "a16efd8cbf8b": {
    "id": "a16efd8cbf8b",
    "label": "12 CLOS DE LA BIENVEILLANCE, Octeville-sur-Mer",
    "lat": 49.554863,
    "lng": 0.132178,
    "transactions": [
      {
        "date": "2022-03-14",
        "priceEur": 1256000,
        "typeLocal": "Maison",
        "surfaceM2": 64,
        "isVefa": false
      }
    ]
  },
  "d81266b871de": {
    "id": "d81266b871de",
    "label": "16 CLOS DE LA BIENVEILLANCE, Octeville-sur-Mer",
    "lat": 49.554911,
    "lng": 0.131936,
    "transactions": [
      {
        "date": "2022-03-14",
        "priceEur": 1256000,
        "typeLocal": "Maison",
        "surfaceM2": 70,
        "isVefa": false
      }
    ]
  },
  "fd8e5f10723f": {
    "id": "fd8e5f10723f",
    "label": "5 CLOS DE LA BIENVEILLANCE, Octeville-sur-Mer",
    "lat": 49.554567,
    "lng": 0.132332,
    "transactions": [
      {
        "date": "2022-03-14",
        "priceEur": 1256000,
        "typeLocal": "Maison",
        "surfaceM2": 91,
        "isVefa": false
      }
    ]
  },
  "25c71526cdc8": {
    "id": "25c71526cdc8",
    "label": "8 IMP DES MARRONNIERS, Octeville-sur-Mer",
    "lat": 49.556348,
    "lng": 0.131898,
    "transactions": [
      {
        "date": "2022-07-18",
        "priceEur": 429000,
        "typeLocal": "Maison",
        "surfaceM2": 115,
        "isVefa": false
      }
    ]
  },
  "824517f417b6": {
    "id": "824517f417b6",
    "label": "19D RTE DE SAINT BARTHELEMY, Octeville-sur-Mer",
    "lat": 49.558386,
    "lng": 0.136547,
    "transactions": [
      {
        "date": "2023-02-10",
        "priceEur": 565000,
        "typeLocal": "Maison",
        "surfaceM2": 177,
        "isVefa": false
      }
    ]
  },
  "2922564300e8": {
    "id": "2922564300e8",
    "label": "1 IMP BARTHELEMY, Octeville-sur-Mer",
    "lat": 49.558009,
    "lng": 0.134919,
    "transactions": [
      {
        "date": "2023-07-26",
        "priceEur": 555000,
        "typeLocal": "Maison",
        "surfaceM2": 180,
        "isVefa": false
      }
    ]
  }
}