{
  "1a9c7a2eb311": {
    "id": "1a9c7a2eb311",
    "label": "27 RUE PIERRE DUMONT, Le Havre",
    "lat": 49.507024,
    "lng": 0.139609,
    "transactions": [
      {
        "date": "2023-11-02",
        "priceEur": 121250,
        "typeLocal": "Maison",
        "surfaceM2": 38,
        "isVefa": false
      },
      {
        "date": "2022-07-28",
        "priceEur": 35000,
        "typeLocal": "Maison",
        "surfaceM2": 44,
        "isVefa": false
      },
      {
        "date": "2022-03-30",
        "priceEur": 184000,
        "typeLocal": "Maison",
        "surfaceM2": 66,
        "isVefa": false
      },
      {
        "date": "2020-07-07",
        "priceEur": 128000,
        "typeLocal": "Maison",
        "surfaceM2": 69,
        "isVefa": false
      }
    ]
  },
  "e6ae46eb9fb4": {
    "id": "e6ae46eb9fb4",
    "label": "19 RUE DU BON AIR, Le Havre",
    "lat": 49.505468,
    "lng": 0.13589,
    "transactions": [
      {
        "date": "2020-07-15",
        "priceEur": 50000,
        "typeLocal": "Maison",
        "surfaceM2": 36,
        "isVefa": false
      }
    ]
  },
  "4e54cd0274ad": {
    "id": "4e54cd0274ad",
    "label": "14 RUE LEON ROUSSELIN, Le Havre",
    "lat": 49.50871,
    "lng": 0.13451,
    "transactions": [
      {
        "date": "2020-08-27",
        "priceEur": 239000,
        "typeLocal": "Maison",
        "surfaceM2": 107,
        "isVefa": false
      }
    ]
  },
  "6276e90189de": {
    "id": "6276e90189de",
    "label": "58 RUE JOSEPH MADEC, Le Havre",
    "lat": 49.506971,
    "lng": 0.140869,
    "transactions": [
      {
        "date": "2020-08-12",
        "priceEur": 170000,
        "typeLocal": "Maison",
        "surfaceM2": 61,
        "isVefa": false
      }
    ]
  },
  "7f8a38d5b5f3": {
    "id": "7f8a38d5b5f3",
    "label": "14 PAS COQUELIN AINE, Le Havre",
    "lat": 49.507826,
    "lng": 0.142073,
    "transactions": [
      {
        "date": "2020-09-08",
        "priceEur": 276000,
        "typeLocal": "Maison",
        "surfaceM2": 120,
        "isVefa": false
      }
    ]
  },
  "bca94279c347": {
    "id": "bca94279c347",
    "label": "33 RUE CHARLES GOUNOD, Le Havre",
    "lat": 49.51061,
    "lng": 0.135432,
    "transactions": [
      {
        "date": "2020-09-18",
        "priceEur": 136100,
        "typeLocal": "Maison",
        "surfaceM2": 72,
        "isVefa": false
      }
    ]
  },
  "0614d0709e16": {
    "id": "0614d0709e16",
    "label": "10 RUE CAMBRONNE, Le Havre",
    "lat": 49.507579,
    "lng": 0.140353,
    "transactions": [
      {
        "date": "2020-09-21",
        "priceEur": 132000,
        "typeLocal": "Maison",
        "surfaceM2": 63,
        "isVefa": false
      }
    ]
  },
  "300e1d34da1c": {
    "id": "300e1d34da1c",
    "label": "47 RUE DES SORBIERS, Le Havre",
    "lat": 49.509164,
    "lng": 0.141885,
    "transactions": [
      {
        "date": "2020-09-16",
        "priceEur": 147450,
        "typeLocal": "Maison",
        "surfaceM2": 62,
        "isVefa": false
      }
    ]
  },
  "c7f25eab8e3c": {
    "id": "c7f25eab8e3c",
    "label": "8 RUE RENE LE BIAN, Le Havre",
    "lat": 49.508309,
    "lng": 0.133204,
    "transactions": [
      {
        "date": "2020-09-04",
        "priceEur": 125000,
        "typeLocal": "Maison",
        "surfaceM2": 44,
        "isVefa": false
      }
    ]
  },
  "f57d6d3424be": {
    "id": "f57d6d3424be",
    "label": "13 IMP DE LA MUTUALITE, Le Havre",
    "lat": 49.503957,
    "lng": 0.141001,
    "transactions": [
      {
        "date": "2020-09-25",
        "priceEur": 195000,
        "typeLocal": "Maison",
        "surfaceM2": 70,
        "isVefa": false
      }
    ]
  },
  "f5c56f92e824": {
    "id": "f5c56f92e824",
    "label": "12 RUE SAMSON, Le Havre",
    "lat": 49.507061,
    "lng": 0.136772,
    "transactions": [
      {
        "date": "2024-11-18",
        "priceEur": 199400,
        "typeLocal": "Maison",
        "surfaceM2": 76,
        "isVefa": false
      },
      {
        "date": "2020-09-25",
        "priceEur": 174500,
        "typeLocal": "Maison",
        "surfaceM2": 76,
        "isVefa": false
      }
    ]
  },
  "48bcd9ff4a11": {
    "id": "48bcd9ff4a11",
    "label": "119 RUE DES ACACIAS, Le Havre",
    "lat": 49.508816,
    "lng": 0.139595,
    "transactions": [
      {
        "date": "2025-02-07",
        "priceEur": 274000,
        "typeLocal": "Maison",
        "surfaceM2": 81,
        "isVefa": false
      },
      {
        "date": "2020-10-06",
        "priceEur": 247000,
        "typeLocal": "Maison",
        "surfaceM2": 81,
        "isVefa": false
      }
    ]
  },
  "6261f4556d05": {
    "id": "6261f4556d05",
    "label": "33 AV ROUGET DE LISLE, Le Havre",
    "lat": 49.505443,
    "lng": 0.13908,
    "transactions": [
      {
        "date": "2022-09-02",
        "priceEur": 423300,
        "typeLocal": "Maison",
        "surfaceM2": 110,
        "isVefa": false
      },
      {
        "date": "2020-10-05",
        "priceEur": 222000,
        "typeLocal": "Maison",
        "surfaceM2": 110,
        "isVefa": false
      }
    ]
  },
  "f0fa6b302693": {
    "id": "f0fa6b302693",
    "label": "8 PL JENNER, Le Havre",
    "lat": 49.508568,
    "lng": 0.135799,
    "transactions": [
      {
        "date": "2020-10-02",
        "priceEur": 172000,
        "typeLocal": "Maison",
        "surfaceM2": 127,
        "isVefa": false
      }
    ]
  },
  "7d7f60dc35ad": {
    "id": "7d7f60dc35ad",
    "label": "46 AV ROUGET DE LISLE, Le Havre",
    "lat": 49.505163,
    "lng": 0.139964,
    "transactions": [
      {
        "date": "2020-10-23",
        "priceEur": 256000,
        "typeLocal": "Maison",
        "surfaceM2": 84,
        "isVefa": false
      }
    ]
  },
  "5251cc9dd8ce": {
    "id": "5251cc9dd8ce",
    "label": "160T RUE TROIS CENT VINGT NEUVIEME, Le Havre",
    "lat": 49.504155,
    "lng": 0.132205,
    "transactions": [
      {
        "date": "2021-11-15",
        "priceEur": 225000,
        "typeLocal": "Maison",
        "surfaceM2": 71,
        "isVefa": false
      },
      {
        "date": "2020-10-23",
        "priceEur": 200000,
        "typeLocal": "Maison",
        "surfaceM2": 71,
        "isVefa": false
      }
    ]
  },
  "35a2304c0c8e": {
    "id": "35a2304c0c8e",
    "label": "30 RUE CHARLES GOUNOD, Le Havre",
    "lat": 49.510314,
    "lng": 0.135209,
    "transactions": [
      {
        "date": "2020-11-03",
        "priceEur": 175000,
        "typeLocal": "Maison",
        "surfaceM2": 116,
        "isVefa": false
      }
    ]
  },
  "62d65ab4a770": {
    "id": "62d65ab4a770",
    "label": "11 RUE DE LA VOLONTE, Le Havre",
    "lat": 49.506728,
    "lng": 0.136343,
    "transactions": [
      {
        "date": "2020-10-27",
        "priceEur": 310000,
        "typeLocal": "Maison",
        "surfaceM2": 94,
        "isVefa": false
      }
    ]
  },
  "e17cb384db55": {
    "id": "e17cb384db55",
    "label": "30 RUE HOIZEY, Le Havre",
    "lat": 49.510038,
    "lng": 0.140071,
    "transactions": [
      {
        "date": "2020-11-13",
        "priceEur": 139000,
        "typeLocal": "Maison",
        "surfaceM2": 35,
        "isVefa": false
      }
    ]
  },
  "34a4184cf77a": {
    "id": "34a4184cf77a",
    "label": "21 RUE SALVADOR ALLENDE, Le Havre",
    "lat": 49.50463,
    "lng": 0.137498,
    "transactions": [
      {
        "date": "2020-11-09",
        "priceEur": 150000,
        "typeLocal": "Maison",
        "surfaceM2": 84,
        "isVefa": false
      }
    ]
  },
  "3e83a9844404": {
    "id": "3e83a9844404",
    "label": "52 RUE HOIZEY, Le Havre",
    "lat": 49.510363,
    "lng": 0.139016,
    "transactions": [
      {
        "date": "2020-10-30",
        "priceEur": 55000,
        "typeLocal": "Maison",
        "surfaceM2": 70,
        "isVefa": false
      }
    ]
  },
  "e468d4e50a2c": {
    "id": "e468d4e50a2c",
    "label": "6 RUE DES AJONCS, Le Havre",
    "lat": 49.504859,
    "lng": 0.140954,
    "transactions": [
      {
        "date": "2020-11-20",
        "priceEur": 80000,
        "typeLocal": "Maison",
        "surfaceM2": 76,
        "isVefa": false
      }
    ]
  },
  "6ca2cba9858e": {
    "id": "6ca2cba9858e",
    "label": "33 RUE DE SOISSONS, Le Havre",
    "lat": 49.508356,
    "lng": 0.133345,
    "transactions": [
      {
        "date": "2020-11-18",
        "priceEur": 111000,
        "typeLocal": "Maison",
        "surfaceM2": 40,
        "isVefa": false
      }
    ]
  },
  "9b7da2e1a501": {
    "id": "9b7da2e1a501",
    "label": "58 RUE HOIZEY, Le Havre",
    "lat": 49.510308,
    "lng": 0.138703,
    "transactions": [
      {
        "date": "2020-12-14",
        "priceEur": 275000,
        "typeLocal": "Maison",
        "surfaceM2": 110,
        "isVefa": false
      }
    ]
  },
  "cc9494c3e0cc": {
    "id": "cc9494c3e0cc",
    "label": "17 RUE DE LA VOLONTE, Le Havre",
    "lat": 49.506861,
    "lng": 0.136902,
    "transactions": [
      {
        "date": "2020-12-28",
        "priceEur": 266000,
        "typeLocal": "Maison",
        "surfaceM2": 79,
        "isVefa": false
      }
    ]
  },
  "a38011a6f46e": {
    "id": "a38011a6f46e",
    "label": "22 IMP DE LA MUTUALITE, Le Havre",
    "lat": 49.503995,
    "lng": 0.1402,
    "transactions": [
      {
        "date": "2020-12-23",
        "priceEur": 105000,
        "typeLocal": "Maison",
        "surfaceM2": 70,
        "isVefa": false
      }
    ]
  },
  "cd3dd6d90301": {
    "id": "cd3dd6d90301",
    "label": "5 RUE DE LA PAIX, Le Havre",
    "lat": 49.510311,
    "lng": 0.1328,
    "transactions": [
      {
        "date": "2020-12-22",
        "priceEur": 93000,
        "typeLocal": "Maison",
        "surfaceM2": 33,
        "isVefa": false
      }
    ]
  },
  "bb47750fa480": {
    "id": "bb47750fa480",
    "label": "25 RUE DU CHATEAU DE CARENCY, Le Havre",
    "lat": 49.508664,
    "lng": 0.131885,
    "transactions": [
      {
        "date": "2021-01-08",
        "priceEur": 185000,
        "typeLocal": "Maison",
        "surfaceM2": 106,
        "isVefa": false
      }
    ]
  },
  "f19ffb9720b5": {
    "id": "f19ffb9720b5",
    "label": "12 RUE LEON ROUSSELIN, Le Havre",
    "lat": 49.508648,
    "lng": 0.134613,
    "transactions": [
      {
        "date": "2021-01-14",
        "priceEur": 108000,
        "typeLocal": "Maison",
        "surfaceM2": 45,
        "isVefa": false
      }
    ]
  },
  "13dc1db859f8": {
    "id": "13dc1db859f8",
    "label": "33 RUE COQUELIN AINE, Le Havre",
    "lat": 49.508061,
    "lng": 0.140884,
    "transactions": [
      {
        "date": "2021-01-13",
        "priceEur": 246500,
        "typeLocal": "Maison",
        "surfaceM2": 118,
        "isVefa": false
      }
    ]
  },
  "e878f29942a2": {
    "id": "e878f29942a2",
    "label": "40 RUE COQUELIN AINE, Le Havre",
    "lat": 49.508284,
    "lng": 0.141341,
    "transactions": [
      {
        "date": "2021-01-15",
        "priceEur": 225000,
        "typeLocal": "Maison",
        "surfaceM2": 22,
        "isVefa": false
      },
      {
        "date": "2021-01-15",
        "priceEur": 225000,
        "typeLocal": "Maison",
        "surfaceM2": 64,
        "isVefa": false
      }
    ]
  },
  "7595bb964cdf": {
    "id": "7595bb964cdf",
    "label": "4 RUE STEINLEN, Le Havre",
    "lat": 49.510383,
    "lng": 0.132637,
    "transactions": [
      {
        "date": "2021-02-03",
        "priceEur": 175360,
        "typeLocal": "Maison",
        "surfaceM2": 67,
        "isVefa": false
      }
    ]
  },
  "2c97d54af7eb": {
    "id": "2c97d54af7eb",
    "label": "11B IMP KEPLER, Le Havre",
    "lat": 49.503846,
    "lng": 0.137807,
    "transactions": [
      {
        "date": "2022-08-11",
        "priceEur": 120000,
        "typeLocal": "Maison",
        "surfaceM2": 69,
        "isVefa": false
      },
      {
        "date": "2021-01-26",
        "priceEur": 100000,
        "typeLocal": "Maison",
        "surfaceM2": 69,
        "isVefa": false
      }
    ]
  },
  "3dcc08599fc0": {
    "id": "3dcc08599fc0",
    "label": "20 AV RENE DEHAYES, Le Havre",
    "lat": 49.509862,
    "lng": 0.138328,
    "transactions": [
      {
        "date": "2024-09-17",
        "priceEur": 77000,
        "typeLocal": "Appartement",
        "surfaceM2": 42,
        "isVefa": false
      },
      {
        "date": "2024-02-14",
        "priceEur": 85000,
        "typeLocal": "Appartement",
        "surfaceM2": 50,
        "isVefa": false
      },
      {
        "date": "2024-01-09",
        "priceEur": 73000,
        "typeLocal": "Appartement",
        "surfaceM2": 27,
        "isVefa": false
      },
      {
        "date": "2023-07-19",
        "priceEur": 70000,
        "typeLocal": "Appartement",
        "surfaceM2": 60,
        "isVefa": false
      },
      {
        "date": "2023-07-06",
        "priceEur": 98000,
        "typeLocal": "Appartement",
        "surfaceM2": 41,
        "isVefa": false
      },
      {
        "date": "2022-04-05",
        "priceEur": 54500,
        "typeLocal": "Appartement",
        "surfaceM2": 27,
        "isVefa": false
      },
      {
        "date": "2021-10-27",
        "priceEur": 66000,
        "typeLocal": "Appartement",
        "surfaceM2": 42,
        "isVefa": false
      },
      {
        "date": "2021-05-18",
        "priceEur": 36000,
        "typeLocal": "Appartement",
        "surfaceM2": 27,
        "isVefa": false
      },
      {
        "date": "2021-02-01",
        "priceEur": 88000,
        "typeLocal": "Appartement",
        "surfaceM2": 49,
        "isVefa": false
      }
    ]
  },
  "eda152e725ef": {
    "id": "eda152e725ef",
    "label": "24 RUE DES ACACIAS, Le Havre",
    "lat": 49.505689,
    "lng": 0.135794,
    "transactions": [
      {
        "date": "2021-02-01",
        "priceEur": 258000,
        "typeLocal": "Maison",
        "surfaceM2": 82,
        "isVefa": false
      }
    ]
  },
  "932526193fab": {
    "id": "932526193fab",
    "label": "16 RUE LEON ROUSSELIN, Le Havre",
    "lat": 49.508791,
    "lng": 0.134363,
    "transactions": [
      {
        "date": "2021-02-12",
        "priceEur": 299000,
        "typeLocal": "Maison",
        "surfaceM2": 69,
        "isVefa": false
      }
    ]
  },
  "aaf8c5fc118b": {
    "id": "aaf8c5fc118b",
    "label": "39 RUE DES SORBIERS, Le Havre",
    "lat": 49.508666,
    "lng": 0.141834,
    "transactions": [
      {
        "date": "2021-02-26",
        "priceEur": 260000,
        "typeLocal": "Maison",
        "surfaceM2": 69,
        "isVefa": false
      }
    ]
  },
  "17851f374ce7": {
    "id": "17851f374ce7",
    "label": "27 RUE DE LA PAIX, Le Havre",
    "lat": 49.510829,
    "lng": 0.133847,
    "transactions": [
      {
        "date": "2021-03-10",
        "priceEur": 110000,
        "typeLocal": "Maison",
        "surfaceM2": 47,
        "isVefa": false
      }
    ]
  },
  "346771ed44bb": {
    "id": "346771ed44bb",
    "label": "17 RUE LEON ROUSSELIN, Le Havre",
    "lat": 49.508907,
    "lng": 0.133605,
    "transactions": [
      {
        "date": "2024-02-21",
        "priceEur": 90000,
        "typeLocal": "Maison",
        "surfaceM2": 42,
        "isVefa": false
      },
      {
        "date": "2021-03-12",
        "priceEur": 110000,
        "typeLocal": "Maison",
        "surfaceM2": 42,
        "isVefa": false
      }
    ]
  },
  "ddbd38da5f3e": {
    "id": "ddbd38da5f3e",
    "label": "21 RUE COQUELIN AINE, Le Havre",
    "lat": 49.507449,
    "lng": 0.1408,
    "transactions": [
      {
        "date": "2021-03-12",
        "priceEur": 180000,
        "typeLocal": "Maison",
        "surfaceM2": 54,
        "isVefa": false
      }
    ]
  },
  "656efec04d29": {
    "id": "656efec04d29",
    "label": "108 RUE LOUIS BLANC, Le Havre",
    "lat": 49.508011,
    "lng": 0.134467,
    "transactions": [
      {
        "date": "2021-03-25",
        "priceEur": 80000,
        "typeLocal": "Maison",
        "surfaceM2": 48,
        "isVefa": false
      }
    ]
  },
  "f6fb76abc09f": {
    "id": "f6fb76abc09f",
    "label": "11 RUE STEINLEN, Le Havre",
    "lat": 49.51032,
    "lng": 0.131984,
    "transactions": [
      {
        "date": "2021-05-03",
        "priceEur": 205000,
        "typeLocal": "Maison",
        "surfaceM2": 120,
        "isVefa": false
      }
    ]
  },
  "b9d8a065615d": {
    "id": "b9d8a065615d",
    "label": "10 RUE MAURICE DONNAY, Le Havre",
    "lat": 49.509118,
    "lng": 0.138409,
    "transactions": [
      {
        "date": "2021-04-29",
        "priceEur": 135000,
        "typeLocal": "Maison",
        "surfaceM2": 55,
        "isVefa": false
      }
    ]
  },
  "5ebee9c59663": {
    "id": "5ebee9c59663",
    "label": "19T RUE PIERRE DUMONT, Le Havre",
    "lat": 49.506791,
    "lng": 0.139821,
    "transactions": [
      {
        "date": "2021-05-11",
        "priceEur": 169500,
        "typeLocal": "Maison",
        "surfaceM2": 52,
        "isVefa": false
      }
    ]
  },
  "36f7e6f13067": {
    "id": "36f7e6f13067",
    "label": "118 RUE DES ACACIAS, Le Havre",
    "lat": 49.508594,
    "lng": 0.139996,
    "transactions": [
      {
        "date": "2021-04-30",
        "priceEur": 158000,
        "typeLocal": "Maison",
        "surfaceM2": 85,
        "isVefa": false
      }
    ]
  },
  "286a4f4268e6": {
    "id": "286a4f4268e6",
    "label": "32 RUE DE LA PRAIRIE, Le Havre",
    "lat": 49.505612,
    "lng": 0.138597,
    "transactions": [
      {
        "date": "2021-05-07",
        "priceEur": 148000,
        "typeLocal": "Maison",
        "surfaceM2": 51,
        "isVefa": false
      }
    ]
  },
  "a5dd89c86f88": {
    "id": "a5dd89c86f88",
    "label": "63 RUE SALVADOR ALLENDE, Le Havre",
    "lat": 49.504786,
    "lng": 0.14169,
    "transactions": [
      {
        "date": "2021-04-30",
        "priceEur": 155000,
        "typeLocal": "Maison",
        "surfaceM2": 98,
        "isVefa": false
      }
    ]
  },
  "f100ae41e20e": {
    "id": "f100ae41e20e",
    "label": "80 RUE GEN ROUELLE, Le Havre",
    "lat": 49.504105,
    "lng": 0.1347,
    "transactions": [
      {
        "date": "2021-05-21",
        "priceEur": 287000,
        "typeLocal": "Maison",
        "surfaceM2": 100,
        "isVefa": false
      }
    ]
  },
  "bbfe4b1f50c6": {
    "id": "bbfe4b1f50c6",
    "label": "9 RUE DE LA PRAIRIE, Le Havre",
    "lat": 49.505967,
    "lng": 0.1363,
    "transactions": [
      {
        "date": "2021-05-28",
        "priceEur": 204000,
        "typeLocal": "Maison",
        "surfaceM2": 60,
        "isVefa": false
      }
    ]
  },
  "389eea1c9a16": {
    "id": "389eea1c9a16",
    "label": "33 PL JENNER, Le Havre",
    "lat": 49.508992,
    "lng": 0.137668,
    "transactions": [
      {
        "date": "2021-05-21",
        "priceEur": 185000,
        "typeLocal": "Appartement",
        "surfaceM2": 37,
        "isVefa": false
      }
    ]
  },
  "f98af123b239": {
    "id": "f98af123b239",
    "label": "112 RUE DU MONT JOLY, Le Havre",
    "lat": 49.504215,
    "lng": 0.141887,
    "transactions": [
      {
        "date": "2021-05-31",
        "priceEur": 156000,
        "typeLocal": "Appartement",
        "surfaceM2": 73,
        "isVefa": false
      }
    ]
  },
  "4cd187a76c8d": {
    "id": "4cd187a76c8d",
    "label": "21 RUE CHARLES GOUNOD, Le Havre",
    "lat": 49.510357,
    "lng": 0.134536,
    "transactions": [
      {
        "date": "2021-06-01",
        "priceEur": 290000,
        "typeLocal": "Maison",
        "surfaceM2": 117,
        "isVefa": false
      }
    ]
  },
  "89d82baa70ce": {
    "id": "89d82baa70ce",
    "label": "8 AV RENE DEHAYES, Le Havre",
    "lat": 49.509424,
    "lng": 0.137794,
    "transactions": [
      {
        "date": "2021-06-25",
        "priceEur": 106000,
        "typeLocal": "Maison",
        "surfaceM2": 70,
        "isVefa": false
      }
    ]
  },
  "4c2d5c6c7193": {
    "id": "4c2d5c6c7193",
    "label": "62 AV ROUGET DE LISLE, Le Havre",
    "lat": 49.505058,
    "lng": 0.141378,
    "transactions": [
      {
        "date": "2021-06-30",
        "priceEur": 125000,
        "typeLocal": "Maison",
        "surfaceM2": 75,
        "isVefa": false
      }
    ]
  },
  "d0edc5ecbf9f": {
    "id": "d0edc5ecbf9f",
    "label": "17 RUE DU FOYER HAVRAIS, Le Havre",
    "lat": 49.506192,
    "lng": 0.139892,
    "transactions": [
      {
        "date": "2021-06-11",
        "priceEur": 197000,
        "typeLocal": "Maison",
        "surfaceM2": 24,
        "isVefa": false
      },
      {
        "date": "2021-06-11",
        "priceEur": 197000,
        "typeLocal": "Maison",
        "surfaceM2": 56,
        "isVefa": false
      }
    ]
  },
  "282580742f9c": {
    "id": "282580742f9c",
    "label": "16 PAS COQUELIN AINE, Le Havre",
    "lat": 49.507936,
    "lng": 0.141941,
    "transactions": [
      {
        "date": "2021-06-17",
        "priceEur": 150000,
        "typeLocal": "Maison",
        "surfaceM2": 99,
        "isVefa": false
      }
    ]
  },
  "dc6e2988a26f": {
    "id": "dc6e2988a26f",
    "label": "38B AV ROUGET DE LISLE, Le Havre",
    "lat": 49.505107,
    "lng": 0.139275,
    "transactions": [
      {
        "date": "2021-07-13",
        "priceEur": 230000,
        "typeLocal": "Maison",
        "surfaceM2": 105,
        "isVefa": false
      }
    ]
  },
  "92dc51ae029a": {
    "id": "92dc51ae029a",
    "label": "22 RUE DES GENETS, Le Havre",
    "lat": 49.505764,
    "lng": 0.141722,
    "transactions": [
      {
        "date": "2021-07-07",
        "priceEur": 112000,
        "typeLocal": "Maison",
        "surfaceM2": 37,
        "isVefa": false
      }
    ]
  },
  "4c9d5aac7f6e": {
    "id": "4c9d5aac7f6e",
    "label": "60 RUE DES ACACIAS, Le Havre",
    "lat": 49.507646,
    "lng": 0.137597,
    "transactions": [
      {
        "date": "2024-02-06",
        "priceEur": 135000,
        "typeLocal": "Appartement",
        "surfaceM2": 80,
        "isVefa": false
      },
      {
        "date": "2023-11-23",
        "priceEur": 83000,
        "typeLocal": "Appartement",
        "surfaceM2": 32,
        "isVefa": false
      },
      {
        "date": "2023-06-09",
        "priceEur": 175000,
        "typeLocal": "Appartement",
        "surfaceM2": 80,
        "isVefa": false
      },
      {
        "date": "2023-06-09",
        "priceEur": 175000,
        "typeLocal": "Appartement",
        "surfaceM2": 50,
        "isVefa": false
      },
      {
        "date": "2022-12-22",
        "priceEur": 100000,
        "typeLocal": "Appartement",
        "surfaceM2": 50,
        "isVefa": false
      },
      {
        "date": "2022-03-17",
        "priceEur": 149000,
        "typeLocal": "Appartement",
        "surfaceM2": 50,
        "isVefa": false
      },
      {
        "date": "2021-12-10",
        "priceEur": 140000,
        "typeLocal": "Appartement",
        "surfaceM2": 50,
        "isVefa": false
      },
      {
        "date": "2021-07-23",
        "priceEur": 65000,
        "typeLocal": "Appartement",
        "surfaceM2": 40,
        "isVefa": false
      }
    ]
  },
  "6cd731d6cddd": {
    "id": "6cd731d6cddd",
    "label": "53 RUE JOSEPH MADEC, Le Havre",
    "lat": 49.506488,
    "lng": 0.140862,
    "transactions": [
      {
        "date": "2024-11-08",
        "priceEur": 248000,
        "typeLocal": "Maison",
        "surfaceM2": 97,
        "isVefa": false
      },
      {
        "date": "2022-02-24",
        "priceEur": 220000,
        "typeLocal": "Maison",
        "surfaceM2": 97,
        "isVefa": false
      },
      {
        "date": "2021-07-27",
        "priceEur": 80000,
        "typeLocal": "Maison",
        "surfaceM2": 49,
        "isVefa": false
      }
    ]
  },
  "b06887896841": {
    "id": "b06887896841",
    "label": "15 RUE DES ECOLES, Le Havre",
    "lat": 49.509119,
    "lng": 0.135466,
    "transactions": [
      {
        "date": "2021-08-06",
        "priceEur": 95000,
        "typeLocal": "Maison",
        "surfaceM2": 57,
        "isVefa": false
      }
    ]
  },
  "2d0ddb383dcc": {
    "id": "2d0ddb383dcc",
    "label": "179 RUE PIERRE MENDES FRANCE, Le Havre",
    "lat": 49.509339,
    "lng": 0.139921,
    "transactions": [
      {
        "date": "2021-08-25",
        "priceEur": 129000,
        "typeLocal": "Maison",
        "surfaceM2": 84,
        "isVefa": false
      }
    ]
  },
  "3c84f4449baa": {
    "id": "3c84f4449baa",
    "label": "7 RUE CHARLES GOUNOD, Le Havre",
    "lat": 49.509872,
    "lng": 0.133969,
    "transactions": [
      {
        "date": "2021-08-04",
        "priceEur": 177000,
        "typeLocal": "Maison",
        "surfaceM2": 50,
        "isVefa": false
      }
    ]
  },
  "fb5b48dcc6b2": {
    "id": "fb5b48dcc6b2",
    "label": "27 RUE SAMSON, Le Havre",
    "lat": 49.507583,
    "lng": 0.137987,
    "transactions": [
      {
        "date": "2021-09-01",
        "priceEur": 142000,
        "typeLocal": "Maison",
        "surfaceM2": 80,
        "isVefa": false
      }
    ]
  },
  "72b268a3238b": {
    "id": "72b268a3238b",
    "label": "114 RUE LOUIS BLANC, Le Havre",
    "lat": 49.508307,
    "lng": 0.13492,
    "transactions": [
      {
        "date": "2021-09-23",
        "priceEur": 125000,
        "typeLocal": "Maison",
        "surfaceM2": 39,
        "isVefa": false
      }
    ]
  },
  "d4369a98f248": {
    "id": "d4369a98f248",
    "label": "34 RUE LOUIS LO BASSO, Le Havre",
    "lat": 49.508675,
    "lng": 0.135569,
    "transactions": [
      {
        "date": "2021-09-23",
        "priceEur": 105000,
        "typeLocal": "Maison",
        "surfaceM2": 103,
        "isVefa": false
      }
    ]
  },
  "49beee094f6d": {
    "id": "49beee094f6d",
    "label": "116 RUE LOUIS BLANC, Le Havre",
    "lat": 49.50836,
    "lng": 0.134966,
    "transactions": [
      {
        "date": "2021-09-30",
        "priceEur": 135000,
        "typeLocal": "Maison",
        "surfaceM2": 40,
        "isVefa": false
      }
    ]
  },
  "5bac36c2ce16": {
    "id": "5bac36c2ce16",
    "label": "112 RUE SALVADOR ALLENDE, Le Havre",
    "lat": 49.504264,
    "lng": 0.137295,
    "transactions": [
      {
        "date": "2021-10-06",
        "priceEur": 295150,
        "typeLocal": "Maison",
        "surfaceM2": 101,
        "isVefa": false
      }
    ]
  },
  "7d5da27fa317": {
    "id": "7d5da27fa317",
    "label": "8 RUE CAMBRONNE, Le Havre",
    "lat": 49.507521,
    "lng": 0.140398,
    "transactions": [
      {
        "date": "2021-10-28",
        "priceEur": 181400,
        "typeLocal": "Maison",
        "surfaceM2": 52,
        "isVefa": false
      }
    ]
  },
  "0991158ed0cb": {
    "id": "0991158ed0cb",
    "label": "52T AV ROUGET DE LISLE, Le Havre",
    "lat": 49.505148,
    "lng": 0.140449,
    "transactions": [
      {
        "date": "2021-10-15",
        "priceEur": 181000,
        "typeLocal": "Maison",
        "surfaceM2": 84,
        "isVefa": false
      }
    ]
  },
  "dc729ec46036": {
    "id": "dc729ec46036",
    "label": "14 RUE DES ACACIAS, Le Havre",
    "lat": 49.505109,
    "lng": 0.135546,
    "transactions": [
      {
        "date": "2021-10-14",
        "priceEur": 265500,
        "typeLocal": "Maison",
        "surfaceM2": 104,
        "isVefa": false
      }
    ]
  },
  "6ffed7694528": {
    "id": "6ffed7694528",
    "label": "5B RUE DES AJONCS, Le Havre",
    "lat": 49.50488,
    "lng": 0.140596,
    "transactions": [
      {
        "date": "2021-11-05",
        "priceEur": 96000,
        "typeLocal": "Maison",
        "surfaceM2": 30,
        "isVefa": false
      }
    ]
  },
  "74df1df75c1d": {
    "id": "74df1df75c1d",
    "label": "12 RUE MONTYON, Le Havre",
    "lat": 49.506091,
    "lng": 0.136554,
    "transactions": [
      {
        "date": "2021-10-14",
        "priceEur": 125000,
        "typeLocal": "Maison",
        "surfaceM2": 43,
        "isVefa": false
      }
    ]
  },
  "7a79a081eaf3": {
    "id": "7a79a081eaf3",
    "label": "23 AV RENE DEHAYES, Le Havre",
    "lat": 49.51032,
    "lng": 0.137441,
    "transactions": [
      {
        "date": "2021-11-05",
        "priceEur": 172750,
        "typeLocal": "Maison",
        "surfaceM2": 70,
        "isVefa": false
      }
    ]
  },
  "7d4c545b1d0a": {
    "id": "7d4c545b1d0a",
    "label": "54B AV ROUGET DE LISLE, Le Havre",
    "lat": 49.50514,
    "lng": 0.140585,
    "transactions": [
      {
        "date": "2021-10-27",
        "priceEur": 224000,
        "typeLocal": "Maison",
        "surfaceM2": 113,
        "isVefa": false
      }
    ]
  },
  "e671c53ddd28": {
    "id": "e671c53ddd28",
    "label": "8 IMP DE LA MUTUALITE, Le Havre",
    "lat": 49.503884,
    "lng": 0.141142,
    "transactions": [
      {
        "date": "2021-12-01",
        "priceEur": 109000,
        "typeLocal": "Maison",
        "surfaceM2": 47,
        "isVefa": false
      }
    ]
  },
  "c7ec75f60b2d": {
    "id": "c7ec75f60b2d",
    "label": "12 RUE DE LA PAIX, Le Havre",
    "lat": 49.510296,
    "lng": 0.13324,
    "transactions": [
      {
        "date": "2021-12-09",
        "priceEur": 170000,
        "typeLocal": "Maison",
        "surfaceM2": 72,
        "isVefa": false
      }
    ]
  },
  "9a3214d5c52e": {
    "id": "9a3214d5c52e",
    "label": "11 RUE BOILEAU, Le Havre",
    "lat": 49.505896,
    "lng": 0.137422,
    "transactions": [
      {
        "date": "2021-12-09",
        "priceEur": 232000,
        "typeLocal": "Maison",
        "surfaceM2": 80,
        "isVefa": false
      }
    ]
  },
  "387d69d13e48": {
    "id": "387d69d13e48",
    "label": "1 RUE DES MERISIERS, Le Havre",
    "lat": 49.508279,
    "lng": 0.142603,
    "transactions": [
      {
        "date": "2021-12-22",
        "priceEur": 342000,
        "typeLocal": "Maison",
        "surfaceM2": 129,
        "isVefa": false
      }
    ]
  },
  "789bee5a8c28": {
    "id": "789bee5a8c28",
    "label": "18 RUE MARCEL PROUST, Le Havre",
    "lat": 49.509662,
    "lng": 0.138892,
    "transactions": [
      {
        "date": "2025-02-28",
        "priceEur": 62200,
        "typeLocal": "Appartement",
        "surfaceM2": 46,
        "isVefa": false
      },
      {
        "date": "2021-12-17",
        "priceEur": 62000,
        "typeLocal": "Appartement",
        "surfaceM2": 32,
        "isVefa": false
      }
    ]
  },
  "6c7101f16d84": {
    "id": "6c7101f16d84",
    "label": "4 RUE COQUELIN AINE, Le Havre",
    "lat": 49.506712,
    "lng": 0.141785,
    "transactions": [
      {
        "date": "2021-12-16",
        "priceEur": 277500,
        "typeLocal": "Maison",
        "surfaceM2": 80,
        "isVefa": false
      }
    ]
  },
  "dbd596190422": {
    "id": "dbd596190422",
    "label": "9 RUE LOUIS LO BASSO, Le Havre",
    "lat": 49.508169,
    "lng": 0.135172,
    "transactions": [
      {
        "date": "2022-01-05",
        "priceEur": 220000,
        "typeLocal": "Maison",
        "surfaceM2": 50,
        "isVefa": false
      }
    ]
  },
  "4f1fe3c4cf4e": {
    "id": "4f1fe3c4cf4e",
    "label": "104 RUE DES ACACIAS, Le Havre",
    "lat": 49.508378,
    "lng": 0.139613,
    "transactions": [
      {
        "date": "2022-01-10",
        "priceEur": 169668.64,
        "typeLocal": "Maison",
        "surfaceM2": 47,
        "isVefa": false
      }
    ]
  },
  "d476e2aa44af": {
    "id": "d476e2aa44af",
    "label": "21 RUE JOSEPH MADEC, Le Havre",
    "lat": 49.505643,
    "lng": 0.142632,
    "transactions": [
      {
        "date": "2022-01-13",
        "priceEur": 221000,
        "typeLocal": "Appartement",
        "surfaceM2": 83,
        "isVefa": false
      }
    ]
  },
  "72fa3a170006": {
    "id": "72fa3a170006",
    "label": "52 RUE DES ACACIAS, Le Havre",
    "lat": 49.507281,
    "lng": 0.13631,
    "transactions": [
      {
        "date": "2022-01-07",
        "priceEur": 129400,
        "typeLocal": "Maison",
        "surfaceM2": 50,
        "isVefa": false
      }
    ]
  },
  "f0ab69ea96aa": {
    "id": "f0ab69ea96aa",
    "label": "27 RUE DE LA PRAIRIE, Le Havre",
    "lat": 49.506057,
    "lng": 0.137924,
    "transactions": [
      {
        "date": "2022-02-07",
        "priceEur": 140000,
        "typeLocal": "Maison",
        "surfaceM2": 104,
        "isVefa": false
      }
    ]
  },
  "8f26a00a5115": {
    "id": "8f26a00a5115",
    "label": "31B AV ROUGET DE LISLE, Le Havre",
    "lat": 49.505402,
    "lng": 0.138769,
    "transactions": [
      {
        "date": "2022-01-20",
        "priceEur": 197000,
        "typeLocal": "Appartement",
        "surfaceM2": 41,
        "isVefa": false
      },
      {
        "date": "2022-01-20",
        "priceEur": 197000,
        "typeLocal": "Appartement",
        "surfaceM2": 46,
        "isVefa": false
      }
    ]
  },
  "92d2ceee39e2": {
    "id": "92d2ceee39e2",
    "label": "32 PAS CHAPELLE, Le Havre",
    "lat": 49.508441,
    "lng": 0.140501,
    "transactions": [
      {
        "date": "2022-02-14",
        "priceEur": 190000,
        "typeLocal": "Maison",
        "surfaceM2": 56,
        "isVefa": false
      }
    ]
  },
  "ee34605c63f4": {
    "id": "ee34605c63f4",
    "label": "34 RUE LUC OTTAVI, Le Havre",
    "lat": 49.510246,
    "lng": 0.137175,
    "transactions": [
      {
        "date": "2022-02-09",
        "priceEur": 134000,
        "typeLocal": "Maison",
        "surfaceM2": 60,
        "isVefa": false
      }
    ]
  },
  "4ac172a86516": {
    "id": "4ac172a86516",
    "label": "21 AV ROUGET DE LISLE, Le Havre",
    "lat": 49.505502,
    "lng": 0.137845,
    "transactions": [
      {
        "date": "2022-02-17",
        "priceEur": 250700,
        "typeLocal": "Maison",
        "surfaceM2": 72,
        "isVefa": false
      }
    ]
  },
  "fa183f712063": {
    "id": "fa183f712063",
    "label": "11 IMP COQUELIN AINE, Le Havre",
    "lat": 49.507373,
    "lng": 0.142427,
    "transactions": [
      {
        "date": "2022-03-10",
        "priceEur": 136000,
        "typeLocal": "Maison",
        "surfaceM2": 94,
        "isVefa": false
      }
    ]
  },
  "5e19eb8a74b7": {
    "id": "5e19eb8a74b7",
    "label": "72 RUE HOIZEY, Le Havre",
    "lat": 49.510919,
    "lng": 0.137646,
    "transactions": [
      {
        "date": "2022-03-07",
        "priceEur": 180000,
        "typeLocal": "Maison",
        "surfaceM2": 39,
        "isVefa": false
      }
    ]
  },
  "303f15c428a7": {
    "id": "303f15c428a7",
    "label": "10 RUE CHARLES GOUNOD, Le Havre",
    "lat": 49.509678,
    "lng": 0.134396,
    "transactions": [
      {
        "date": "2022-03-04",
        "priceEur": 100000,
        "typeLocal": "Maison",
        "surfaceM2": 77,
        "isVefa": false
      }
    ]
  },
  "7ed0d94be176": {
    "id": "7ed0d94be176",
    "label": "31 AV ROUGET DE LISLE, Le Havre",
    "lat": 49.50546,
    "lng": 0.138691,
    "transactions": [
      {
        "date": "2022-04-01",
        "priceEur": 157000,
        "typeLocal": "Maison",
        "surfaceM2": 59,
        "isVefa": false
      },
      {
        "date": "2022-04-01",
        "priceEur": 157000,
        "typeLocal": "Maison",
        "surfaceM2": 20,
        "isVefa": false
      }
    ]
  },
  "fbf22c8e551a": {
    "id": "fbf22c8e551a",
    "label": "27 RUE CAMBRONNE, Le Havre",
    "lat": 49.508564,
    "lng": 0.139823,
    "transactions": [
      {
        "date": "2022-04-01",
        "priceEur": 282000,
        "typeLocal": "Appartement",
        "surfaceM2": 41,
        "isVefa": false
      },
      {
        "date": "2022-04-01",
        "priceEur": 282000,
        "typeLocal": "Appartement",
        "surfaceM2": 48,
        "isVefa": false
      },
      {
        "date": "2022-04-01",
        "priceEur": 282000,
        "typeLocal": "Appartement",
        "surfaceM2": 31,
        "isVefa": false
      }
    ]
  },
  "29764dd073f3": {
    "id": "29764dd073f3",
    "label": "12 AV ROUGET DE LISLE, Le Havre",
    "lat": 49.504987,
    "lng": 0.137199,
    "transactions": [
      {
        "date": "2022-05-10",
        "priceEur": 111000,
        "typeLocal": "Maison",
        "surfaceM2": 32,
        "isVefa": false
      }
    ]
  },
  "e1bca4c56993": {
    "id": "e1bca4c56993",
    "label": "47B RUE SALVADOR ALLENDE, Le Havre",
    "lat": 49.504813,
    "lng": 0.140205,
    "transactions": [
      {
        "date": "2022-05-13",
        "priceEur": 243400,
        "typeLocal": "Maison",
        "surfaceM2": 170,
        "isVefa": false
      }
    ]
  },
  "2d387b4d6284": {
    "id": "2d387b4d6284",
    "label": "49 RUE DU CHATEAU DE CARENCY, Le Havre",
    "lat": 49.509528,
    "lng": 0.132958,
    "transactions": [
      {
        "date": "2022-06-01",
        "priceEur": 138000,
        "typeLocal": "Maison",
        "surfaceM2": 56,
        "isVefa": false
      }
    ]
  },
  "b69209974e50": {
    "id": "b69209974e50",
    "label": "22 RUE DU FOYER HAVRAIS, Le Havre",
    "lat": 49.505849,
    "lng": 0.140375,
    "transactions": [
      {
        "date": "2022-06-09",
        "priceEur": 192600,
        "typeLocal": "Maison",
        "surfaceM2": 78,
        "isVefa": false
      }
    ]
  },
  "871b5a2def69": {
    "id": "871b5a2def69",
    "label": "44 RUE DE LA VOLONTE, Le Havre",
    "lat": 49.506584,
    "lng": 0.138951,
    "transactions": [
      {
        "date": "2022-04-29",
        "priceEur": 208800,
        "typeLocal": "Maison",
        "surfaceM2": 59,
        "isVefa": false
      }
    ]
  },
  "e59b3caf5fa1": {
    "id": "e59b3caf5fa1",
    "label": "4B RUE PIERRE DUMONT, Le Havre",
    "lat": 49.505771,
    "lng": 0.140905,
    "transactions": [
      {
        "date": "2022-05-20",
        "priceEur": 171000,
        "typeLocal": "Maison",
        "surfaceM2": 83,
        "isVefa": false
      }
    ]
  },
  "facfc59f0a7d": {
    "id": "facfc59f0a7d",
    "label": "33 RUE DU CHATEAU DE CARENCY, Le Havre",
    "lat": 49.508983,
    "lng": 0.13224,
    "transactions": [
      {
        "date": "2022-06-09",
        "priceEur": 160000,
        "typeLocal": "Maison",
        "surfaceM2": 66,
        "isVefa": false
      }
    ]
  },
  "50052dce4041": {
    "id": "50052dce4041",
    "label": "46 RUE DU CHATEAU DE CARENCY, Le Havre",
    "lat": 49.509275,
    "lng": 0.133172,
    "transactions": [
      {
        "date": "2022-05-25",
        "priceEur": 140000,
        "typeLocal": "Maison",
        "surfaceM2": 57,
        "isVefa": false
      }
    ]
  },
  "fd5137ed1145": {
    "id": "fd5137ed1145",
    "label": "15 RUE DE LA VOLONTE, Le Havre",
    "lat": 49.506721,
    "lng": 0.136662,
    "transactions": [
      {
        "date": "2022-06-09",
        "priceEur": 200000,
        "typeLocal": "Maison",
        "surfaceM2": 90,
        "isVefa": false
      },
      {
        "date": "2022-06-09",
        "priceEur": 100000,
        "typeLocal": "Maison",
        "surfaceM2": 90,
        "isVefa": false
      }
    ]
  },
  "7159a305b1cc": {
    "id": "7159a305b1cc",
    "label": "59 AV ROUGET DE LISLE, Le Havre",
    "lat": 49.505348,
    "lng": 0.14169,
    "transactions": [
      {
        "date": "2022-06-24",
        "priceEur": 161620,
        "typeLocal": "Maison",
        "surfaceM2": 52,
        "isVefa": false
      }
    ]
  },
  "87b98d458193": {
    "id": "87b98d458193",
    "label": "41 RUE DE SOISSONS, Le Havre",
    "lat": 49.508467,
    "lng": 0.133954,
    "transactions": [
      {
        "date": "2022-06-16",
        "priceEur": 159000,
        "typeLocal": "Maison",
        "surfaceM2": 43,
        "isVefa": false
      }
    ]
  },
  "3107c5b30bd5": {
    "id": "3107c5b30bd5",
    "label": "25 AV RENE DEHAYES, Le Havre",
    "lat": 49.51043,
    "lng": 0.137605,
    "transactions": [
      {
        "date": "2022-06-23",
        "priceEur": 293400,
        "typeLocal": "Maison",
        "surfaceM2": 75,
        "isVefa": false
      }
    ]
  },
  "3f42cb665f3b": {
    "id": "3f42cb665f3b",
    "label": "43 RUE SALVADOR ALLENDE, Le Havre",
    "lat": 49.504824,
    "lng": 0.139804,
    "transactions": [
      {
        "date": "2022-07-08",
        "priceEur": 180000,
        "typeLocal": "Maison",
        "surfaceM2": 145,
        "isVefa": false
      }
    ]
  },
  "0f885d699837": {
    "id": "0f885d699837",
    "label": "26 RUE DU BEAU PANORAMA, Le Havre",
    "lat": 49.504093,
    "lng": 0.137345,
    "transactions": [
      {
        "date": "2022-07-25",
        "priceEur": 359000,
        "typeLocal": "Maison",
        "surfaceM2": 125,
        "isVefa": false
      }
    ]
  },
  "7edcef46bc44": {
    "id": "7edcef46bc44",
    "label": "15 RUE MARCEL NOUET, Le Havre",
    "lat": 49.50903,
    "lng": 0.133513,
    "transactions": [
      {
        "date": "2022-07-20",
        "priceEur": 280000,
        "typeLocal": "Maison",
        "surfaceM2": 94,
        "isVefa": false
      }
    ]
  },
  "5d45e3bdf0e9": {
    "id": "5d45e3bdf0e9",
    "label": "29 AV ROUGET DE LISLE, Le Havre",
    "lat": 49.505476,
    "lng": 0.138607,
    "transactions": [
      {
        "date": "2022-07-28",
        "priceEur": 175000,
        "typeLocal": "Maison",
        "surfaceM2": 70,
        "isVefa": false
      }
    ]
  },
  "08dadd5c48b4": {
    "id": "08dadd5c48b4",
    "label": "44 RUE DU FOYER HAVRAIS, Le Havre",
    "lat": 49.505667,
    "lng": 0.141913,
    "transactions": [
      {
        "date": "2022-07-28",
        "priceEur": 230000,
        "typeLocal": "Maison",
        "surfaceM2": 80,
        "isVefa": false
      }
    ]
  },
  "449768086433": {
    "id": "449768086433",
    "label": "28 RUE DU BEAU PANORAMA, Le Havre",
    "lat": 49.504104,
    "lng": 0.137546,
    "transactions": [
      {
        "date": "2022-08-18",
        "priceEur": 226000,
        "typeLocal": "Maison",
        "surfaceM2": 65,
        "isVefa": false
      }
    ]
  },
  "7fa0bce388c4": {
    "id": "7fa0bce388c4",
    "label": "44 RUE COQUELIN AINE, Le Havre",
    "lat": 49.508497,
    "lng": 0.141672,
    "transactions": [
      {
        "date": "2022-08-29",
        "priceEur": 190000,
        "typeLocal": "Maison",
        "surfaceM2": 78,
        "isVefa": false
      }
    ]
  },
  "357f07a403b8": {
    "id": "357f07a403b8",
    "label": "46 RUE DU FOYER HAVRAIS, Le Havre",
    "lat": 49.50581,
    "lng": 0.142064,
    "transactions": [
      {
        "date": "2022-08-30",
        "priceEur": 242000,
        "typeLocal": "Maison",
        "surfaceM2": 91,
        "isVefa": false
      }
    ]
  },
  "707758a795e6": {
    "id": "707758a795e6",
    "label": "24 RUE DE SOISSONS, Le Havre",
    "lat": 49.507988,
    "lng": 0.13239,
    "transactions": [
      {
        "date": "2022-08-29",
        "priceEur": 140000,
        "typeLocal": "Maison",
        "surfaceM2": 49,
        "isVefa": false
      }
    ]
  },
  "5e6120428256": {
    "id": "5e6120428256",
    "label": "45 RUE PIERRE DUMONT, Le Havre",
    "lat": 49.508057,
    "lng": 0.139294,
    "transactions": [
      {
        "date": "2022-09-12",
        "priceEur": 179500,
        "typeLocal": "Maison",
        "surfaceM2": 72,
        "isVefa": false
      }
    ]
  },
  "470f8b650808": {
    "id": "470f8b650808",
    "label": "3 RUE JEAN LEMARCIS, Le Havre",
    "lat": 49.504729,
    "lng": 0.136755,
    "transactions": [
      {
        "date": "2022-09-16",
        "priceEur": 288000,
        "typeLocal": "Maison",
        "surfaceM2": 95,
        "isVefa": false
      }
    ]
  },
  "578b5cd71d1e": {
    "id": "578b5cd71d1e",
    "label": "6 AV ROUGET DE LISLE, Le Havre",
    "lat": 49.504642,
    "lng": 0.136638,
    "transactions": [
      {
        "date": "2022-09-27",
        "priceEur": 232000,
        "typeLocal": "Maison",
        "surfaceM2": 85,
        "isVefa": false
      }
    ]
  },
  "bc1c000807fb": {
    "id": "bc1c000807fb",
    "label": "9 IMP KEPLER, Le Havre",
    "lat": 49.503823,
    "lng": 0.137691,
    "transactions": [
      {
        "date": "2022-09-30",
        "priceEur": 209000,
        "typeLocal": "Maison",
        "surfaceM2": 59,
        "isVefa": false
      }
    ]
  },
  "85b6b206f19c": {
    "id": "85b6b206f19c",
    "label": "6 RUE DE LA PRAIRIE, Le Havre",
    "lat": 49.505694,
    "lng": 0.136364,
    "transactions": [
      {
        "date": "2022-10-07",
        "priceEur": 212000,
        "typeLocal": "Maison",
        "surfaceM2": 78,
        "isVefa": false
      }
    ]
  },
  "8d55ba0c0c06": {
    "id": "8d55ba0c0c06",
    "label": "118 RUE DU MONT JOLY, Le Havre",
    "lat": 49.504323,
    "lng": 0.142045,
    "transactions": [
      {
        "date": "2022-09-28",
        "priceEur": 67000,
        "typeLocal": "Appartement",
        "surfaceM2": 31,
        "isVefa": false
      }
    ]
  },
  "fcbdce996654": {
    "id": "fcbdce996654",
    "label": "90 RUE SALVADOR ALLENDE, Le Havre",
    "lat": 49.50413,
    "lng": 0.135504,
    "transactions": [
      {
        "date": "2022-10-03",
        "priceEur": 150000,
        "typeLocal": "Maison",
        "surfaceM2": 90,
        "isVefa": false
      }
    ]
  },
  "5318680c25c0": {
    "id": "5318680c25c0",
    "label": "17 RUE SAMSON, Le Havre",
    "lat": 49.507427,
    "lng": 0.137445,
    "transactions": [
      {
        "date": "2022-10-26",
        "priceEur": 155000,
        "typeLocal": "Maison",
        "surfaceM2": 81,
        "isVefa": false
      }
    ]
  },
  "3eef2d4467ee": {
    "id": "3eef2d4467ee",
    "label": "5 RUE DU BON AIR, Le Havre",
    "lat": 49.504828,
    "lng": 0.135814,
    "transactions": [
      {
        "date": "2022-10-28",
        "priceEur": 280000,
        "typeLocal": "Maison",
        "surfaceM2": 86,
        "isVefa": false
      }
    ]
  },
  "84de2085a662": {
    "id": "84de2085a662",
    "label": "2 RUE DE TOUS VENTS, Le Havre",
    "lat": 49.505265,
    "lng": 0.136202,
    "transactions": [
      {
        "date": "2022-11-10",
        "priceEur": 162000,
        "typeLocal": "Maison",
        "surfaceM2": 72,
        "isVefa": false
      }
    ]
  },
  "8163d350c715": {
    "id": "8163d350c715",
    "label": "56 AV ROUGET DE LISLE, Le Havre",
    "lat": 49.505085,
    "lng": 0.14086,
    "transactions": [
      {
        "date": "2022-11-08",
        "priceEur": 415000,
        "typeLocal": "Maison",
        "surfaceM2": 170,
        "isVefa": false
      }
    ]
  },
  "7c78bc221f91": {
    "id": "7c78bc221f91",
    "label": "17 IMP DE LA MUTUALITE, Le Havre",
    "lat": 49.504009,
    "lng": 0.140855,
    "transactions": [
      {
        "date": "2022-11-28",
        "priceEur": 138000,
        "typeLocal": "Maison",
        "surfaceM2": 66,
        "isVefa": false
      }
    ]
  },
  "6479de4a7a14": {
    "id": "6479de4a7a14",
    "label": "14 RUE DU BEAU PANORAMA, Le Havre",
    "lat": 49.504046,
    "lng": 0.13623,
    "transactions": [
      {
        "date": "2024-02-13",
        "priceEur": 227000,
        "typeLocal": "Appartement",
        "surfaceM2": 57,
        "isVefa": false
      },
      {
        "date": "2024-02-13",
        "priceEur": 227000,
        "typeLocal": "Appartement",
        "surfaceM2": 45,
        "isVefa": false
      },
      {
        "date": "2022-12-07",
        "priceEur": 212000,
        "typeLocal": "Appartement",
        "surfaceM2": 45,
        "isVefa": false
      },
      {
        "date": "2022-12-07",
        "priceEur": 212000,
        "typeLocal": "Appartement",
        "surfaceM2": 57,
        "isVefa": false
      }
    ]
  },
  "3d075e61b839": {
    "id": "3d075e61b839",
    "label": "49 RUE COQUELIN AINE, Le Havre",
    "lat": 49.508575,
    "lng": 0.140774,
    "transactions": [
      {
        "date": "2022-12-14",
        "priceEur": 105000,
        "typeLocal": "Maison",
        "surfaceM2": 48,
        "isVefa": false
      }
    ]
  },
  "ac3ece4612a6": {
    "id": "ac3ece4612a6",
    "label": "6 RUE DU BON AIR, Le Havre",
    "lat": 49.504863,
    "lng": 0.136181,
    "transactions": [
      {
        "date": "2022-12-14",
        "priceEur": 296000,
        "typeLocal": "Maison",
        "surfaceM2": 128,
        "isVefa": false
      }
    ]
  },
  "d5b77d23f79f": {
    "id": "d5b77d23f79f",
    "label": "48 RUE DU CHATEAU DE CARENCY, Le Havre",
    "lat": 49.509396,
    "lng": 0.133181,
    "transactions": [
      {
        "date": "2022-12-21",
        "priceEur": 139000,
        "typeLocal": "Maison",
        "surfaceM2": 54,
        "isVefa": false
      }
    ]
  },
  "c81b58d7ca14": {
    "id": "c81b58d7ca14",
    "label": "99 RUE DE L EPARGNE, Le Havre",
    "lat": 49.504076,
    "lng": 0.136873,
    "transactions": [
      {
        "date": "2022-12-14",
        "priceEur": 252000,
        "typeLocal": "Maison",
        "surfaceM2": 99,
        "isVefa": false
      }
    ]
  },
  "65fb821f1cdb": {
    "id": "65fb821f1cdb",
    "label": "14 RUE SAMSON, Le Havre",
    "lat": 49.507091,
    "lng": 0.136952,
    "transactions": [
      {
        "date": "2022-12-13",
        "priceEur": 130000,
        "typeLocal": "Maison",
        "surfaceM2": 60,
        "isVefa": false
      }
    ]
  },
  "12e64bc6c6bf": {
    "id": "12e64bc6c6bf",
    "label": "11 RUE CHARLES GOUNOD, Le Havre",
    "lat": 49.509964,
    "lng": 0.134291,
    "transactions": [
      {
        "date": "2022-12-22",
        "priceEur": 143000,
        "typeLocal": "Maison",
        "surfaceM2": 70,
        "isVefa": false
      }
    ]
  },
  "6eec1f64e6b4": {
    "id": "6eec1f64e6b4",
    "label": "123 RUE DES ACACIAS, Le Havre",
    "lat": 49.508888,
    "lng": 0.139899,
    "transactions": [
      {
        "date": "2023-01-16",
        "priceEur": 105000,
        "typeLocal": "Maison",
        "surfaceM2": 66,
        "isVefa": false
      }
    ]
  },
  "d3f95b266ba3": {
    "id": "d3f95b266ba3",
    "label": "141 RUE DU BOIS AU COQ, Le Havre",
    "lat": 49.508947,
    "lng": 0.134636,
    "transactions": [
      {
        "date": "2023-01-23",
        "priceEur": 60500,
        "typeLocal": "Appartement",
        "surfaceM2": 82,
        "isVefa": false
      }
    ]
  },
  "9926d8b1f7ce": {
    "id": "9926d8b1f7ce",
    "label": "154 RUE DU BOIS AU COQ, Le Havre",
    "lat": 49.510081,
    "lng": 0.132878,
    "transactions": [
      {
        "date": "2023-01-13",
        "priceEur": 250000,
        "typeLocal": "Maison",
        "surfaceM2": 92,
        "isVefa": false
      }
    ]
  },
  "182713130ac6": {
    "id": "182713130ac6",
    "label": "33 RUE MONTYON, Le Havre",
    "lat": 49.506343,
    "lng": 0.138304,
    "transactions": [
      {
        "date": "2023-02-03",
        "priceEur": 298800,
        "typeLocal": "Maison",
        "surfaceM2": 94,
        "isVefa": false
      }
    ]
  },
  "28930609d23f": {
    "id": "28930609d23f",
    "label": "18 IMP DE LA MUTUALITE, Le Havre",
    "lat": 49.504039,
    "lng": 0.14069,
    "transactions": [
      {
        "date": "2023-02-03",
        "priceEur": 110000,
        "typeLocal": "Maison",
        "surfaceM2": 49,
        "isVefa": false
      }
    ]
  },
  "19677300d56e": {
    "id": "19677300d56e",
    "label": "96 RUE DU MONT JOLY, Le Havre",
    "lat": 49.503955,
    "lng": 0.142097,
    "transactions": [
      {
        "date": "2023-01-27",
        "priceEur": 35000,
        "typeLocal": "Maison",
        "surfaceM2": 43,
        "isVefa": false
      }
    ]
  },
  "8f729da40285": {
    "id": "8f729da40285",
    "label": "16 RUE CAMBRONNE, Le Havre",
    "lat": 49.507972,
    "lng": 0.140254,
    "transactions": [
      {
        "date": "2023-01-31",
        "priceEur": 210000,
        "typeLocal": "Maison",
        "surfaceM2": 87,
        "isVefa": false
      }
    ]
  },
  "acc173f70c9e": {
    "id": "acc173f70c9e",
    "label": "17 RUE CHARLES GOUNOD, Le Havre",
    "lat": 49.510263,
    "lng": 0.134308,
    "transactions": [
      {
        "date": "2023-02-14",
        "priceEur": 274000,
        "typeLocal": "Maison",
        "surfaceM2": 88,
        "isVefa": false
      }
    ]
  },
  "ddb37269b457": {
    "id": "ddb37269b457",
    "label": "49 RUE JOSEPH MADEC, Le Havre",
    "lat": 49.506325,
    "lng": 0.141356,
    "transactions": [
      {
        "date": "2023-02-28",
        "priceEur": 136000,
        "typeLocal": "Maison",
        "surfaceM2": 60,
        "isVefa": false
      }
    ]
  },
  "c9b9c6378e31": {
    "id": "c9b9c6378e31",
    "label": "24 RUE COQUELIN AINE, Le Havre",
    "lat": 49.507674,
    "lng": 0.141507,
    "transactions": [
      {
        "date": "2023-02-28",
        "priceEur": 105250,
        "typeLocal": "Maison",
        "surfaceM2": 58,
        "isVefa": false
      }
    ]
  },
  "7975b217ea19": {
    "id": "7975b217ea19",
    "label": "33 RUE GEN ROUELLE, Le Havre",
    "lat": 49.504221,
    "lng": 0.133985,
    "transactions": [
      {
        "date": "2024-06-19",
        "priceEur": 90000,
        "typeLocal": "Appartement",
        "surfaceM2": 36,
        "isVefa": false
      },
      {
        "date": "2024-03-11",
        "priceEur": 135000,
        "typeLocal": "Appartement",
        "surfaceM2": 48,
        "isVefa": false
      },
      {
        "date": "2023-09-25",
        "priceEur": 125500,
        "typeLocal": "Appartement",
        "surfaceM2": 49,
        "isVefa": false
      },
      {
        "date": "2023-08-17",
        "priceEur": 53000,
        "typeLocal": "Appartement",
        "surfaceM2": 11,
        "isVefa": false
      },
      {
        "date": "2023-03-02",
        "priceEur": 90000,
        "typeLocal": "Appartement",
        "surfaceM2": 37,
        "isVefa": false
      }
    ]
  },
  "1259f23f3e91": {
    "id": "1259f23f3e91",
    "label": "6B RUE DES GENETS, Le Havre",
    "lat": 49.505024,
    "lng": 0.141641,
    "transactions": [
      {
        "date": "2023-03-23",
        "priceEur": 120000,
        "typeLocal": "Maison",
        "surfaceM2": 64,
        "isVefa": false
      }
    ]
  },
  "983b8285f6f6": {
    "id": "983b8285f6f6",
    "label": "24 RUE DES GENETS, Le Havre",
    "lat": 49.505795,
    "lng": 0.141745,
    "transactions": [
      {
        "date": "2023-03-27",
        "priceEur": 129600,
        "typeLocal": "Maison",
        "surfaceM2": 40,
        "isVefa": false
      }
    ]
  },
  "9a0b63b28862": {
    "id": "9a0b63b28862",
    "label": "38 RUE DES SORBIERS, Le Havre",
    "lat": 49.50888,
    "lng": 0.142259,
    "transactions": [
      {
        "date": "2023-03-30",
        "priceEur": 295000,
        "typeLocal": "Maison",
        "surfaceM2": 110,
        "isVefa": false
      }
    ]
  },
  "e1eb67cab775": {
    "id": "e1eb67cab775",
    "label": "70 RUE HOIZEY, Le Havre",
    "lat": 49.510842,
    "lng": 0.137644,
    "transactions": [
      {
        "date": "2023-04-07",
        "priceEur": 187000,
        "typeLocal": "Maison",
        "surfaceM2": 40,
        "isVefa": false
      }
    ]
  },
  "83890af61bd3": {
    "id": "83890af61bd3",
    "label": "7 RUE DE LA VOLONTE, Le Havre",
    "lat": 49.506642,
    "lng": 0.136169,
    "transactions": [
      {
        "date": "2023-04-14",
        "priceEur": 169000,
        "typeLocal": "Maison",
        "surfaceM2": 59,
        "isVefa": false
      }
    ]
  },
  "a1f1a718151a": {
    "id": "a1f1a718151a",
    "label": "37 RUE LEMAIRE ET GRANDET, Le Havre",
    "lat": 49.507142,
    "lng": 0.138577,
    "transactions": [
      {
        "date": "2023-05-09",
        "priceEur": 195000,
        "typeLocal": "Maison",
        "surfaceM2": 68,
        "isVefa": false
      }
    ]
  },
  "43860cee483d": {
    "id": "43860cee483d",
    "label": "70 RUE DOC POSTEL, Le Havre",
    "lat": 49.510765,
    "lng": 0.132924,
    "transactions": [
      {
        "date": "2023-05-22",
        "priceEur": 132000,
        "typeLocal": "Maison",
        "surfaceM2": 40,
        "isVefa": false
      }
    ]
  },
  "5af27ff8ca79": {
    "id": "5af27ff8ca79",
    "label": "6 RUE BOILEAU, Le Havre",
    "lat": 49.505587,
    "lng": 0.137708,
    "transactions": [
      {
        "date": "2023-05-30",
        "priceEur": 205000,
        "typeLocal": "Maison",
        "surfaceM2": 47,
        "isVefa": false
      }
    ]
  },
  "98736ec3c54c": {
    "id": "98736ec3c54c",
    "label": "71 RUE SALVADOR ALLENDE, Le Havre",
    "lat": 49.504779,
    "lng": 0.142324,
    "transactions": [
      {
        "date": "2023-06-05",
        "priceEur": 247060,
        "typeLocal": "Maison",
        "surfaceM2": 107,
        "isVefa": false
      }
    ]
  },
  "ba7c5fdcdf24": {
    "id": "ba7c5fdcdf24",
    "label": "5 RUE LEMAIRE ET GRANDET, Le Havre",
    "lat": 49.505612,
    "lng": 0.138747,
    "transactions": [
      {
        "date": "2023-05-31",
        "priceEur": 142500,
        "typeLocal": "Maison",
        "surfaceM2": 51,
        "isVefa": false
      }
    ]
  },
  "85f1d8d0fb0b": {
    "id": "85f1d8d0fb0b",
    "label": "7 RUE MAURICE DONNAY, Le Havre",
    "lat": 49.508948,
    "lng": 0.138835,
    "transactions": [
      {
        "date": "2023-06-16",
        "priceEur": 231000,
        "typeLocal": "Maison",
        "surfaceM2": 170,
        "isVefa": false
      }
    ]
  },
  "0e8b98166957": {
    "id": "0e8b98166957",
    "label": "31 RUE HOIZEY, Le Havre",
    "lat": 49.50997,
    "lng": 0.138842,
    "transactions": [
      {
        "date": "2023-06-22",
        "priceEur": 100000,
        "typeLocal": "Maison",
        "surfaceM2": 64,
        "isVefa": false
      }
    ]
  },
  "6badfd4c971e": {
    "id": "6badfd4c971e",
    "label": "75 RUE DES ACACIAS, Le Havre",
    "lat": 49.508063,
    "lng": 0.137372,
    "transactions": [
      {
        "date": "2023-06-28",
        "priceEur": 144000,
        "typeLocal": "Maison",
        "surfaceM2": 58,
        "isVefa": false
      }
    ]
  },
  "8bf91bc4fd70": {
    "id": "8bf91bc4fd70",
    "label": "8 RUE DE LA PRAIRIE, Le Havre",
    "lat": 49.505669,
    "lng": 0.136497,
    "transactions": [
      {
        "date": "2023-07-07",
        "priceEur": 210000,
        "typeLocal": "Maison",
        "surfaceM2": 65,
        "isVefa": false
      }
    ]
  },
  "7467e8065ab6": {
    "id": "7467e8065ab6",
    "label": "40 RUE DE LA PAIX, Le Havre",
    "lat": 49.510908,
    "lng": 0.134972,
    "transactions": [
      {
        "date": "2023-08-01",
        "priceEur": 117500,
        "typeLocal": "Maison",
        "surfaceM2": 57,
        "isVefa": false
      }
    ]
  },
  "0328ee32f352": {
    "id": "0328ee32f352",
    "label": "1 IMP DE L OUEST, Le Havre",
    "lat": 49.506115,
    "lng": 0.139421,
    "transactions": [
      {
        "date": "2023-08-03",
        "priceEur": 181000,
        "typeLocal": "Maison",
        "surfaceM2": 58,
        "isVefa": false
      }
    ]
  },
  "b56f02a7435e": {
    "id": "b56f02a7435e",
    "label": "64 RUE JOSEPH MADEC, Le Havre",
    "lat": 49.5071,
    "lng": 0.14055,
    "transactions": [
      {
        "date": "2023-07-26",
        "priceEur": 155000,
        "typeLocal": "Maison",
        "surfaceM2": 72,
        "isVefa": false
      }
    ]
  },
  "d46e3133649c": {
    "id": "d46e3133649c",
    "label": "3 AV ROUGET DE LISLE, Le Havre",
    "lat": 49.504693,
    "lng": 0.136192,
    "transactions": [
      {
        "date": "2023-08-21",
        "priceEur": 330000,
        "typeLocal": "Maison",
        "surfaceM2": 81,
        "isVefa": false
      }
    ]
  },
  "64718e7ad3cf": {
    "id": "64718e7ad3cf",
    "label": "4 RUE DES AJONCS, Le Havre",
    "lat": 49.50474,
    "lng": 0.140962,
    "transactions": [
      {
        "date": "2023-09-15",
        "priceEur": 165000,
        "typeLocal": "Maison",
        "surfaceM2": 70,
        "isVefa": false
      }
    ]
  },
  "61dbc4e4e2a5": {
    "id": "61dbc4e4e2a5",
    "label": "5 RUE COQUELIN AINE, Le Havre",
    "lat": 49.50684,
    "lng": 0.141354,
    "transactions": [
      {
        "date": "2023-09-13",
        "priceEur": 381000,
        "typeLocal": "Maison",
        "surfaceM2": 124,
        "isVefa": false
      }
    ]
  },
  "d91a8d903687": {
    "id": "d91a8d903687",
    "label": "78 RUE JOSEPH MADEC, Le Havre",
    "lat": 49.507675,
    "lng": 0.139314,
    "transactions": [
      {
        "date": "2023-09-29",
        "priceEur": 190000,
        "typeLocal": "Maison",
        "surfaceM2": 93,
        "isVefa": false
      }
    ]
  },
  "0a9ee951e6c4": {
    "id": "0a9ee951e6c4",
    "label": "48 RUE COQUELIN AINE, Le Havre",
    "lat": 49.50869,
    "lng": 0.141415,
    "transactions": [
      {
        "date": "2023-09-29",
        "priceEur": 318200,
        "typeLocal": "Maison",
        "surfaceM2": 130,
        "isVefa": false
      }
    ]
  },
  "9459102cee9f": {
    "id": "9459102cee9f",
    "label": "40 RUE DES SORBIERS, Le Havre",
    "lat": 49.508911,
    "lng": 0.142129,
    "transactions": [
      {
        "date": "2023-09-26",
        "priceEur": 300000,
        "typeLocal": "Maison",
        "surfaceM2": 110,
        "isVefa": false
      }
    ]
  },
  "4189f9e01ca9": {
    "id": "4189f9e01ca9",
    "label": "61 AV ROUGET DE LISLE, Le Havre",
    "lat": 49.505391,
    "lng": 0.14181,
    "transactions": [
      {
        "date": "2023-10-26",
        "priceEur": 236000,
        "typeLocal": "Maison",
        "surfaceM2": 90,
        "isVefa": false
      }
    ]
  },
  "c6f61a9e894c": {
    "id": "c6f61a9e894c",
    "label": "106 RUE DES ACACIAS, Le Havre",
    "lat": 49.508436,
    "lng": 0.139665,
    "transactions": [
      {
        "date": "2023-11-17",
        "priceEur": 171000,
        "typeLocal": "Maison",
        "surfaceM2": 76,
        "isVefa": false
      }
    ]
  },
  "d038349de6fa": {
    "id": "d038349de6fa",
    "label": "52 RUE COQUELIN AINE, Le Havre",
    "lat": 49.508943,
    "lng": 0.141188,
    "transactions": [
      {
        "date": "2023-11-24",
        "priceEur": 142000,
        "typeLocal": "Maison",
        "surfaceM2": 54,
        "isVefa": false
      }
    ]
  },
  "7eb32b12b89f": {
    "id": "7eb32b12b89f",
    "label": "28 RUE DE LA VOLONTE, Le Havre",
    "lat": 49.506534,
    "lng": 0.137918,
    "transactions": [
      {
        "date": "2023-12-06",
        "priceEur": 181300,
        "typeLocal": "Maison",
        "surfaceM2": 78,
        "isVefa": false
      }
    ]
  },
  "7bf2ea2c0c90": {
    "id": "7bf2ea2c0c90",
    "label": "94 RUE SALVADOR ALLENDE, Le Havre",
    "lat": 49.504114,
    "lng": 0.135734,
    "transactions": [
      {
        "date": "2023-12-06",
        "priceEur": 180000,
        "typeLocal": "Appartement",
        "surfaceM2": 38,
        "isVefa": false
      },
      {
        "date": "2023-12-06",
        "priceEur": 180000,
        "typeLocal": "Appartement",
        "surfaceM2": 52,
        "isVefa": false
      }
    ]
  },
  "5c419b2028fc": {
    "id": "5c419b2028fc",
    "label": "4 RUE JEAN LEMARCIS, Le Havre",
    "lat": 49.504644,
    "lng": 0.137174,
    "transactions": [
      {
        "date": "2023-12-29",
        "priceEur": 273236,
        "typeLocal": "Maison",
        "surfaceM2": 52,
        "isVefa": false
      }
    ]
  },
  "52598fbd843f": {
    "id": "52598fbd843f",
    "label": "26 AV RENE DEHAYES, Le Havre",
    "lat": 49.510197,
    "lng": 0.138265,
    "transactions": [
      {
        "date": "2023-12-29",
        "priceEur": 257000,
        "typeLocal": "Appartement",
        "surfaceM2": 75,
        "isVefa": false
      },
      {
        "date": "2023-12-29",
        "priceEur": 257000,
        "typeLocal": "Appartement",
        "surfaceM2": 45,
        "isVefa": false
      }
    ]
  },
  "2d124c34556b": {
    "id": "2d124c34556b",
    "label": "100 RUE SALVADOR ALLENDE, Le Havre",
    "lat": 49.504216,
    "lng": 0.13618,
    "transactions": [
      {
        "date": "2023-12-28",
        "priceEur": 362000,
        "typeLocal": "Maison",
        "surfaceM2": 258,
        "isVefa": false
      }
    ]
  },
  "dc1bb9350883": {
    "id": "dc1bb9350883",
    "label": "37 RUE DE LA VOLONTE, Le Havre",
    "lat": 49.506981,
    "lng": 0.138241,
    "transactions": [
      {
        "date": "2024-01-29",
        "priceEur": 247000,
        "typeLocal": "Maison",
        "surfaceM2": 90,
        "isVefa": false
      }
    ]
  },
  "1803055499a2": {
    "id": "1803055499a2",
    "label": "26 RUE LEON ROUSSELIN, Le Havre",
    "lat": 49.50912,
    "lng": 0.134126,
    "transactions": [
      {
        "date": "2024-03-05",
        "priceEur": 111000,
        "typeLocal": "Maison",
        "surfaceM2": 68,
        "isVefa": false
      }
    ]
  },
  "f6bcd4e06529": {
    "id": "f6bcd4e06529",
    "label": "20 PAS CHAPELLE, Le Havre",
    "lat": 49.507844,
    "lng": 0.140643,
    "transactions": [
      {
        "date": "2024-03-06",
        "priceEur": 200000,
        "typeLocal": "Maison",
        "surfaceM2": 63,
        "isVefa": false
      }
    ]
  },
  "5bd70040de1a": {
    "id": "5bd70040de1a",
    "label": "23 RUE SALVADOR ALLENDE, Le Havre",
    "lat": 49.50463,
    "lng": 0.137619,
    "transactions": [
      {
        "date": "2024-03-07",
        "priceEur": 347000,
        "typeLocal": "Maison",
        "surfaceM2": 92,
        "isVefa": false
      }
    ]
  },
  "9d55d9fbbc81": {
    "id": "9d55d9fbbc81",
    "label": "5T RUE PIERRE DUMONT, Le Havre",
    "lat": 49.505892,
    "lng": 0.140649,
    "transactions": [
      {
        "date": "2024-04-15",
        "priceEur": 111000,
        "typeLocal": "Maison",
        "surfaceM2": 52,
        "isVefa": false
      }
    ]
  },
  "b479c141cfea": {
    "id": "b479c141cfea",
    "label": "6 RUE DE TOUS VENTS, Le Havre",
    "lat": 49.505259,
    "lng": 0.13646,
    "transactions": [
      {
        "date": "2024-05-31",
        "priceEur": 189000,
        "typeLocal": "Maison",
        "surfaceM2": 55,
        "isVefa": false
      }
    ]
  },
  "b1eb58bde0d2": {
    "id": "b1eb58bde0d2",
    "label": "86B RUE DE L EPARGNE, Le Havre",
    "lat": 49.503828,
    "lng": 0.136766,
    "transactions": [
      {
        "date": "2024-06-03",
        "priceEur": 132000,
        "typeLocal": "Maison",
        "surfaceM2": 51,
        "isVefa": false
      },
      {
        "date": "2024-05-28",
        "priceEur": 71000,
        "typeLocal": "Maison",
        "surfaceM2": 51,
        "isVefa": false
      }
    ]
  },
  "4437db54a1ba": {
    "id": "4437db54a1ba",
    "label": "2 RUE DU BEAU PANORAMA, Le Havre",
    "lat": 49.503939,
    "lng": 0.134922,
    "transactions": [
      {
        "date": "2024-05-31",
        "priceEur": 385000,
        "typeLocal": "Maison",
        "surfaceM2": 132,
        "isVefa": false
      }
    ]
  },
  "b16f7747a175": {
    "id": "b16f7747a175",
    "label": "32 AV ROUGET DE LISLE, Le Havre",
    "lat": 49.505119,
    "lng": 0.138706,
    "transactions": [
      {
        "date": "2024-06-19",
        "priceEur": 180000,
        "typeLocal": "Maison",
        "surfaceM2": 72,
        "isVefa": false
      }
    ]
  },
  "a65a4bbf8037": {
    "id": "a65a4bbf8037",
    "label": "29 RUE DES SORBIERS, Le Havre",
    "lat": 49.508254,
    "lng": 0.142086,
    "transactions": [
      {
        "date": "2024-06-20",
        "priceEur": 160000,
        "typeLocal": "Maison",
        "surfaceM2": 53,
        "isVefa": false
      }
    ]
  },
  "67c394ffe35b": {
    "id": "67c394ffe35b",
    "label": "34 RUE HOIZEY, Le Havre",
    "lat": 49.510027,
    "lng": 0.13973,
    "transactions": [
      {
        "date": "2024-06-18",
        "priceEur": 265000,
        "typeLocal": "Maison",
        "surfaceM2": 112,
        "isVefa": false
      }
    ]
  },
  "54d5e02b5857": {
    "id": "54d5e02b5857",
    "label": "1 RUE LEMAIRE ET GRANDET, Le Havre",
    "lat": 49.505494,
    "lng": 0.138764,
    "transactions": [
      {
        "date": "2024-06-27",
        "priceEur": 231600,
        "typeLocal": "Maison",
        "surfaceM2": 104,
        "isVefa": false
      }
    ]
  },
  "f34c7157c42c": {
    "id": "f34c7157c42c",
    "label": "25 RUE DES SORBIERS, Le Havre",
    "lat": 49.508095,
    "lng": 0.14226,
    "transactions": [
      {
        "date": "2024-06-28",
        "priceEur": 305000,
        "typeLocal": "Maison",
        "surfaceM2": 102,
        "isVefa": false
      }
    ]
  },
  "1ae2e060c816": {
    "id": "1ae2e060c816",
    "label": "18 RUE DE SOISSONS, Le Havre",
    "lat": 49.507935,
    "lng": 0.13193,
    "transactions": [
      {
        "date": "2024-07-08",
        "priceEur": 247000,
        "typeLocal": "Appartement",
        "surfaceM2": 90,
        "isVefa": false
      }
    ]
  },
  "83c91f742f71": {
    "id": "83c91f742f71",
    "label": "5 RUE PIERRE DUMONT, Le Havre",
    "lat": 49.505761,
    "lng": 0.140592,
    "transactions": [
      {
        "date": "2024-07-10",
        "priceEur": 139000,
        "typeLocal": "Maison",
        "surfaceM2": 44,
        "isVefa": false
      }
    ]
  },
  "4c2fa011c5cb": {
    "id": "4c2fa011c5cb",
    "label": "10 RUE DES ACACIAS, Le Havre",
    "lat": 49.504932,
    "lng": 0.13547,
    "transactions": [
      {
        "date": "2024-07-17",
        "priceEur": 160000,
        "typeLocal": "Maison",
        "surfaceM2": 69,
        "isVefa": false
      }
    ]
  },
  "b3c60e4b4c6d": {
    "id": "b3c60e4b4c6d",
    "label": "27 RUE DES ECOLES, Le Havre",
    "lat": 49.509851,
    "lng": 0.135359,
    "transactions": [
      {
        "date": "2024-07-10",
        "priceEur": 235700,
        "typeLocal": "Maison",
        "surfaceM2": 49,
        "isVefa": false
      }
    ]
  },
  "f6a4fd47b130": {
    "id": "f6a4fd47b130",
    "label": "11 RUE DE LA PRAIRIE, Le Havre",
    "lat": 49.505968,
    "lng": 0.136447,
    "transactions": [
      {
        "date": "2024-07-17",
        "priceEur": 160000,
        "typeLocal": "Maison",
        "surfaceM2": 56,
        "isVefa": false
      }
    ]
  },
  "3f1647b70c3e": {
    "id": "3f1647b70c3e",
    "label": "78 RUE DOC POSTEL, Le Havre",
    "lat": 49.510848,
    "lng": 0.133229,
    "transactions": [
      {
        "date": "2024-08-01",
        "priceEur": 269000,
        "typeLocal": "Maison",
        "surfaceM2": 109,
        "isVefa": false
      }
    ]
  },
  "66ece8d3b36f": {
    "id": "66ece8d3b36f",
    "label": "12 RUE DE TOUS VENTS, Le Havre",
    "lat": 49.505252,
    "lng": 0.137044,
    "transactions": [
      {
        "date": "2024-08-30",
        "priceEur": 100800,
        "typeLocal": "Maison",
        "surfaceM2": 59,
        "isVefa": false
      }
    ]
  },
  "c7d2a4f42bb3": {
    "id": "c7d2a4f42bb3",
    "label": "25 PAS EMILE AUGIER, Le Havre",
    "lat": 49.504117,
    "lng": 0.132795,
    "transactions": [
      {
        "date": "2024-09-11",
        "priceEur": 152500,
        "typeLocal": "Maison",
        "surfaceM2": 58,
        "isVefa": false
      }
    ]
  },
  "965e07bc4d98": {
    "id": "965e07bc4d98",
    "label": "21 RUE PIERRE DUMONT, Le Havre",
    "lat": 49.50686,
    "lng": 0.139965,
    "transactions": [
      {
        "date": "2024-09-30",
        "priceEur": 175220,
        "typeLocal": "Maison",
        "surfaceM2": 60,
        "isVefa": false
      }
    ]
  },
  "b213d94d7e02": {
    "id": "b213d94d7e02",
    "label": "19 RUE DE SOISSONS, Le Havre",
    "lat": 49.508222,
    "lng": 0.132361,
    "transactions": [
      {
        "date": "2024-10-21",
        "priceEur": 199500,
        "typeLocal": "Maison",
        "surfaceM2": 74,
        "isVefa": false
      }
    ]
  },
  "a203e921c645": {
    "id": "a203e921c645",
    "label": "83 RUE JOSEPH MADEC, Le Havre",
    "lat": 49.507398,
    "lng": 0.139158,
    "transactions": [
      {
        "date": "2024-10-28",
        "priceEur": 160000,
        "typeLocal": "Maison",
        "surfaceM2": 74,
        "isVefa": false
      }
    ]
  },
  "d269a4e16822": {
    "id": "d269a4e16822",
    "label": "3 IMP DE LA MUTUALITE, Le Havre",
    "lat": 49.504266,
    "lng": 0.140527,
    "transactions": [
      {
        "date": "2024-11-20",
        "priceEur": 120000,
        "typeLocal": "Maison",
        "surfaceM2": 150,
        "isVefa": false
      }
    ]
  },
  "0d5b471eedfa": {
    "id": "0d5b471eedfa",
    "label": "8 RUE LEMAIRE ET GRANDET, Le Havre",
    "lat": 49.505703,
    "lng": 0.139181,
    "transactions": [
      {
        "date": "2024-11-25",
        "priceEur": 212670,
        "typeLocal": "Maison",
        "surfaceM2": 67,
        "isVefa": false
      }
    ]
  },
  "27deed0b44b6": {
    "id": "27deed0b44b6",
    "label": "89 RUE DU MONT JOLY, Le Havre",
    "lat": 49.503811,
    "lng": 0.141783,
    "transactions": [
      {
        "date": "2024-11-21",
        "priceEur": 100000,
        "typeLocal": "Maison",
        "surfaceM2": 61,
        "isVefa": false
      }
    ]
  },
  "521996f16f40": {
    "id": "521996f16f40",
    "label": "9 RUE LEROY, Le Havre",
    "lat": 49.509622,
    "lng": 0.132154,
    "transactions": [
      {
        "date": "2024-12-09",
        "priceEur": 160000,
        "typeLocal": "Maison",
        "surfaceM2": 85,
        "isVefa": false
      }
    ]
  },
  "76a4f229dde7": {
    "id": "76a4f229dde7",
    "label": "43 RUE JOSEPH MADEC, Le Havre",
    "lat": 49.506262,
    "lng": 0.141709,
    "transactions": [
      {
        "date": "2024-12-11",
        "priceEur": 125000,
        "typeLocal": "Maison",
        "surfaceM2": 67,
        "isVefa": false
      }
    ]
  },
  "f68400b66d2a": {
    "id": "f68400b66d2a",
    "label": "29 RUE DE LA PAIX, Le Havre",
    "lat": 49.510818,
    "lng": 0.133986,
    "transactions": [
      {
        "date": "2024-12-26",
        "priceEur": 181500,
        "typeLocal": "Maison",
        "surfaceM2": 60,
        "isVefa": false
      }
    ]
  },
  "aa1e0ff57820": {
    "id": "aa1e0ff57820",
    "label": "20 RUE LEMAIRE ET GRANDET, Le Havre",
    "lat": 49.506321,
    "lng": 0.139411,
    "transactions": [
      {
        "date": "2025-01-29",
        "priceEur": 220000,
        "typeLocal": "Maison",
        "surfaceM2": 76,
        "isVefa": false
      }
    ]
  },
  "5dfa3aef8537": {
    "id": "5dfa3aef8537",
    "label": "37 RUE COQUELIN AINE, Le Havre",
    "lat": 49.508262,
    "lng": 0.140862,
    "transactions": [
      {
        "date": "2025-02-05",
        "priceEur": 249000,
        "typeLocal": "Maison",
        "surfaceM2": 101,
        "isVefa": false
      }
    ]
  },
  "c6050d6ebcf3": {
    "id": "c6050d6ebcf3",
    "label": "76 RUE DE L EPARGNE, Le Havre",
    "lat": 49.503851,
    "lng": 0.136555,
    "transactions": [
      {
        "date": "2025-03-12",
        "priceEur": 300100,
        "typeLocal": "Maison",
        "surfaceM2": 138,
        "isVefa": false
      }
    ]
  },
  "a37deb96062a": {
    "id": "a37deb96062a",
    "label": "25 RUE SALVADOR ALLENDE, Le Havre",
    "lat": 49.504981,
    "lng": 0.138083,
    "transactions": [
      {
        "date": "2025-04-10",
        "priceEur": 170000,
        "typeLocal": "Maison",
        "surfaceM2": 80,
        "isVefa": false
      }
    ]
  },
  "633fcfbe87ef": {
    "id": "633fcfbe87ef",
    "label": "6 RUE MAURICE DONNAY, Le Havre",
    "lat": 49.509168,
    "lng": 0.138758,
    "transactions": [
      {
        "date": "2025-06-27",
        "priceEur": 168850,
        "typeLocal": "Maison",
        "surfaceM2": 56,
        "isVefa": false
      }
    ]
  }
}