{
  "6f05a078df47": {
    "id": "6f05a078df47",
    "label": "3 RTE DE LA FERME SAMSON, Saint-Martin-du-Bec",
    "lat": 49.602902,
    "lng": 0.205861,
    "transactions": [
      {
        "date": "2020-07-07",
        "priceEur": 149000,
        "typeLocal": "Maison",
        "surfaceM2": 98,
        "isVefa": false
      }
    ]
  },
  "7c59b10bb2c8": {
    "id": "7c59b10bb2c8",
    "label": "3 RTE DU CLOS PIGEON, Saint-Martin-du-Bec",
    "lat": 49.600096,
    "lng": 0.200738,
    "transactions": [
      {
        "date": "2020-08-13",
        "priceEur": 290000,
        "typeLocal": "Maison",
        "surfaceM2": 163,
        "isVefa": false
      }
    ]
  },
  "e654246047f7": {
    "id": "e654246047f7",
    "label": "5001 RTE DE LA COTE VALLEE, Saint-Martin-du-Bec",
    "lat": 49.601854,
    "lng": 0.206962,
    "transactions": [
      {
        "date": "2021-03-17",
        "priceEur": 214000,
        "typeLocal": "Maison",
        "surfaceM2": 70,
        "isVefa": false
      }
    ]
  },
  "1e0bf26401c6": {
    "id": "1e0bf26401c6",
    "label": "3 RTE DE LA MARGUERITE, Saint-Martin-du-Bec",
    "lat": 49.601521,
    "lng": 0.200165,
    "transactions": [
      {
        "date": "2021-06-07",
        "priceEur": 228000,
        "typeLocal": "Maison",
        "surfaceM2": 97,
        "isVefa": false
      }
    ]
  },
  "52510e841987": {
    "id": "52510e841987",
    "label": "7 IMP DES GENETS, Saint-Martin-du-Bec",
    "lat": 49.602066,
    "lng": 0.202128,
    "transactions": [
      {
        "date": "2021-11-02",
        "priceEur": 542100,
        "typeLocal": "Maison",
        "surfaceM2": 200,
        "isVefa": false
      }
    ]
  },
  "051a55aadb17": {
    "id": "051a55aadb17",
    "label": "2 RTE DE LA MARGUERITE, Saint-Martin-du-Bec",
    "lat": 49.601262,
    "lng": 0.199569,
    "transactions": [
      {
        "date": "2021-12-10",
        "priceEur": 423000,
        "typeLocal": "Maison",
        "surfaceM2": 160,
        "isVefa": false
      }
    ]
  },
  "7583ef08ddd6": {
    "id": "7583ef08ddd6",
    "label": "1 RTE DU CHATEAU, Saint-Martin-du-Bec",
    "lat": 49.596502,
    "lng": 0.207006,
    "transactions": [
      {
        "date": "2022-03-31",
        "priceEur": 225000,
        "typeLocal": "Maison",
        "surfaceM2": 84,
        "isVefa": false
      }
    ]
  },
  "06440b93856e": {
    "id": "06440b93856e",
    "label": "5 RTE DE LA MARGUERITE, Saint-Martin-du-Bec",
    "lat": 49.601757,
    "lng": 0.20002,
    "transactions": [
      {
        "date": "2023-05-16",
        "priceEur": 178500,
        "typeLocal": "Maison",
        "surfaceM2": 80,
        "isVefa": false
      }
    ]
  },
  "c4dd61c55673": {
    "id": "c4dd61c55673",
    "label": "9 RTE DE CROISMARE, Saint-Martin-du-Bec",
    "lat": 49.601619,
    "lng": 0.207461,
    "transactions": [
      {
        "date": "2024-08-27",
        "priceEur": 160851,
        "typeLocal": "Maison",
        "surfaceM2": 42,
        "isVefa": false
      }
    ]
  }
}