{
  "9ccb1893d2b6": {
    "id": "9ccb1893d2b6",
    "label": "22 RUE DES POTIERS, Bully",
    "lat": 49.718809,
    "lng": 1.348485,
    "transactions": [
      {
        "date": "2021-06-02",
        "priceEur": 172000,
        "typeLocal": "Maison",
        "surfaceM2": 105,
        "isVefa": false
      },
      {
        "date": "2020-07-03",
        "priceEur": 100000,
        "typeLocal": "Maison",
        "surfaceM2": 44,
        "isVefa": false
      }
    ]
  },
  "edd96b807383": {
    "id": "edd96b807383",
    "label": "5130 VAUCHEL, Bully",
    "lat": 49.717664,
    "lng": 1.346108,
    "transactions": [
      {
        "date": "2020-11-13",
        "priceEur": 192000,
        "typeLocal": "Maison",
        "surfaceM2": 120,
        "isVefa": false
      }
    ]
  },
  "0a33c55bac5f": {
    "id": "0a33c55bac5f",
    "label": "5318 MARTINCAMP, Bully",
    "lat": 49.718076,
    "lng": 1.348055,
    "transactions": [
      {
        "date": "2021-01-29",
        "priceEur": 95000,
        "typeLocal": "Maison",
        "surfaceM2": 71,
        "isVefa": false
      }
    ]
  },
  "f496e1d4d77d": {
    "id": "f496e1d4d77d",
    "label": "5126A MARTINCAMP, Bully",
    "lat": 49.718041,
    "lng": 1.3478,
    "transactions": [
      {
        "date": "2021-08-20",
        "priceEur": 205000,
        "typeLocal": "Maison",
        "surfaceM2": 111,
        "isVefa": false
      }
    ]
  },
  "6697af9a07ea": {
    "id": "6697af9a07ea",
    "label": "5127 MARTINCAMP, Bully",
    "lat": 49.71768,
    "lng": 1.346861,
    "transactions": [
      {
        "date": "2022-05-25",
        "priceEur": 86000,
        "typeLocal": "Maison",
        "surfaceM2": 86,
        "isVefa": false
      }
    ]
  },
  "cc4164b3254e": {
    "id": "cc4164b3254e",
    "label": "3 RUE DE LA POMPE, Bully",
    "lat": 49.718492,
    "lng": 1.347032,
    "transactions": [
      {
        "date": "2022-06-24",
        "priceEur": 204500,
        "typeLocal": "Maison",
        "surfaceM2": 97,
        "isVefa": false
      }
    ]
  },
  "201c6d4189c6": {
    "id": "201c6d4189c6",
    "label": "5139 VAUCHEL, Bully",
    "lat": 49.718,
    "lng": 1.345962,
    "transactions": [
      {
        "date": "2025-04-29",
        "priceEur": 85000,
        "typeLocal": "Maison",
        "surfaceM2": 28,
        "isVefa": false
      }
    ]
  }
}