{
  "38b33dff85d4": {
    "id": "38b33dff85d4",
    "label": "10 RUE GAMBETTA, Fretin",
    "lat": 50.557217,
    "lng": 3.129606,
    "transactions": [
      {
        "date": "2024-05-22",
        "priceEur": 157510,
        "typeLocal": "Maison",
        "surfaceM2": 82,
        "isVefa": false
      },
      {
        "date": "2020-08-24",
        "priceEur": 160930,
        "typeLocal": "Maison",
        "surfaceM2": 82,
        "isVefa": false
      }
    ]
  },
  "6db5bec96054": {
    "id": "6db5bec96054",
    "label": "34B RUE GAMBETTA, Fretin",
    "lat": 50.557068,
    "lng": 3.128605,
    "transactions": [
      {
        "date": "2020-09-25",
        "priceEur": 239000,
        "typeLocal": "Maison",
        "surfaceM2": 78,
        "isVefa": false
      }
    ]
  },
  "94670c684396": {
    "id": "94670c684396",
    "label": "1 AV DU 8 MAI, Fretin",
    "lat": 50.557502,
    "lng": 3.130349,
    "transactions": [
      {
        "date": "2020-12-30",
        "priceEur": 205000,
        "typeLocal": "Maison",
        "surfaceM2": 8,
        "isVefa": false
      }
    ]
  },
  "b46647e3a8f8": {
    "id": "b46647e3a8f8",
    "label": "47 RUE PASTEUR, Fretin",
    "lat": 50.557159,
    "lng": 3.131025,
    "transactions": [
      {
        "date": "2023-09-01",
        "priceEur": 225000,
        "typeLocal": "Maison",
        "surfaceM2": 97,
        "isVefa": false
      },
      {
        "date": "2021-07-09",
        "priceEur": 220000,
        "typeLocal": "Maison",
        "surfaceM2": 97,
        "isVefa": false
      }
    ]
  },
  "3d655ef390e6": {
    "id": "3d655ef390e6",
    "label": "2B RUE POINCARE, Fretin",
    "lat": 50.556099,
    "lng": 3.124054,
    "transactions": [
      {
        "date": "2021-07-21",
        "priceEur": 182800,
        "typeLocal": "Appartement",
        "surfaceM2": 90,
        "isVefa": false
      }
    ]
  },
  "aff630794855": {
    "id": "aff630794855",
    "label": "10 RUE POINCARE, Fretin",
    "lat": 50.555517,
    "lng": 3.124328,
    "transactions": [
      {
        "date": "2021-07-28",
        "priceEur": 286000,
        "typeLocal": "Maison",
        "surfaceM2": 88,
        "isVefa": false
      }
    ]
  },
  "f528d7132123": {
    "id": "f528d7132123",
    "label": "43 RUE PASTEUR, Fretin",
    "lat": 50.557298,
    "lng": 3.131065,
    "transactions": [
      {
        "date": "2021-07-30",
        "priceEur": 167000,
        "typeLocal": "Maison",
        "surfaceM2": 65,
        "isVefa": false
      }
    ]
  },
  "e5e35e3beb0c": {
    "id": "e5e35e3beb0c",
    "label": "19B RUE GAMBETTA, Fretin",
    "lat": 50.556775,
    "lng": 3.128802,
    "transactions": [
      {
        "date": "2021-07-23",
        "priceEur": 264500,
        "typeLocal": "Maison",
        "surfaceM2": 90,
        "isVefa": false
      }
    ]
  },
  "24e006c5654d": {
    "id": "24e006c5654d",
    "label": "60 RUE GAMBETTA, Fretin",
    "lat": 50.556587,
    "lng": 3.122871,
    "transactions": [
      {
        "date": "2022-12-21",
        "priceEur": 235000,
        "typeLocal": "Maison",
        "surfaceM2": 187,
        "isVefa": false
      }
    ]
  },
  "70c28aea6ecd": {
    "id": "70c28aea6ecd",
    "label": "19D RUE GAMBETTA, Fretin",
    "lat": 50.556694,
    "lng": 3.128531,
    "transactions": [
      {
        "date": "2023-04-28",
        "priceEur": 260000,
        "typeLocal": "Maison",
        "surfaceM2": 73,
        "isVefa": false
      }
    ]
  },
  "b1dd25c92f9c": {
    "id": "b1dd25c92f9c",
    "label": "5 RUE DE WETTRINGEN, Fretin",
    "lat": 50.557783,
    "lng": 3.128752,
    "transactions": [
      {
        "date": "2023-05-16",
        "priceEur": 190000,
        "typeLocal": "Maison",
        "surfaceM2": 83,
        "isVefa": false
      }
    ]
  },
  "591895eb652e": {
    "id": "591895eb652e",
    "label": "8 RUE DE WETTRINGEN, Fretin",
    "lat": 50.557472,
    "lng": 3.128383,
    "transactions": [
      {
        "date": "2023-09-13",
        "priceEur": 291000,
        "typeLocal": "Maison",
        "surfaceM2": 88,
        "isVefa": false
      }
    ]
  },
  "2bf25231b98e": {
    "id": "2bf25231b98e",
    "label": "27 RUE GAMBETTA, Fretin",
    "lat": 50.55654,
    "lng": 3.126455,
    "transactions": [
      {
        "date": "2023-09-20",
        "priceEur": 100000,
        "typeLocal": "Maison",
        "surfaceM2": 59,
        "isVefa": false
      }
    ]
  },
  "ca2451391958": {
    "id": "ca2451391958",
    "label": "51 RUE PASTEUR, Fretin",
    "lat": 50.557088,
    "lng": 3.130921,
    "transactions": [
      {
        "date": "2023-11-22",
        "priceEur": 212180,
        "typeLocal": "Maison",
        "surfaceM2": 133,
        "isVefa": false
      }
    ]
  },
  "1aa5747eb119": {
    "id": "1aa5747eb119",
    "label": "19Q RUE GAMBETTA, Fretin",
    "lat": 50.556764,
    "lng": 3.128203,
    "transactions": [
      {
        "date": "2024-01-12",
        "priceEur": 238590,
        "typeLocal": "Maison",
        "surfaceM2": 83,
        "isVefa": false
      }
    ]
  },
  "af0241539f42": {
    "id": "af0241539f42",
    "label": "21 RUE GAMBETTA, Fretin",
    "lat": 50.556538,
    "lng": 3.127499,
    "transactions": [
      {
        "date": "2024-06-10",
        "priceEur": 454000,
        "typeLocal": "Maison",
        "surfaceM2": 127,
        "isVefa": false
      }
    ]
  },
  "31beba280588": {
    "id": "31beba280588",
    "label": "46B RUE GAMBETTA, Fretin",
    "lat": 50.556975,
    "lng": 3.126699,
    "transactions": [
      {
        "date": "2024-08-26",
        "priceEur": 362000,
        "typeLocal": "Maison",
        "surfaceM2": 108,
        "isVefa": false
      }
    ]
  },
  "5620485c05dc": {
    "id": "5620485c05dc",
    "label": "44B RUE GAMBETTA, Fretin",
    "lat": 50.557163,
    "lng": 3.127126,
    "transactions": [
      {
        "date": "2024-10-04",
        "priceEur": 323000,
        "typeLocal": "Maison",
        "surfaceM2": 113,
        "isVefa": false
      }
    ]
  },
  "fed4c358dc95": {
    "id": "fed4c358dc95",
    "label": "23B RUE GAMBETTA, Fretin",
    "lat": 50.556594,
    "lng": 3.126789,
    "transactions": [
      {
        "date": "2024-10-25",
        "priceEur": 310000,
        "typeLocal": "Maison",
        "surfaceM2": 92,
        "isVefa": false
      }
    ]
  },
  "0b6e4435ed4c": {
    "id": "0b6e4435ed4c",
    "label": "9 AV DU 8 MAI, Fretin",
    "lat": 50.557956,
    "lng": 3.130301,
    "transactions": [
      {
        "date": "2024-10-25",
        "priceEur": 186000,
        "typeLocal": "Maison",
        "surfaceM2": 110,
        "isVefa": false
      }
    ]
  },
  "69b0a783c059": {
    "id": "69b0a783c059",
    "label": "2A RUE DES MARTYRS, Fretin",
    "lat": 50.557508,
    "lng": 3.126258,
    "transactions": [
      {
        "date": "2024-12-18",
        "priceEur": 142600,
        "typeLocal": "Maison",
        "surfaceM2": 63,
        "isVefa": false
      }
    ]
  },
  "2e52dd937e9b": {
    "id": "2e52dd937e9b",
    "label": "19G RUE GAMBETTA, Fretin",
    "lat": 50.556494,
    "lng": 3.128844,
    "transactions": [
      {
        "date": "2024-12-18",
        "priceEur": 235990,
        "typeLocal": "Maison",
        "surfaceM2": 73,
        "isVefa": false
      }
    ]
  },
  "5fc1704b6433": {
    "id": "5fc1704b6433",
    "label": "4 RUE DES MARTYRS, Fretin",
    "lat": 50.557718,
    "lng": 3.1263,
    "transactions": [
      {
        "date": "2025-03-17",
        "priceEur": 180000,
        "typeLocal": "Maison",
        "surfaceM2": 52,
        "isVefa": false
      }
    ]
  }
}