{
  "9fe5eecfe0a8": {
    "id": "9fe5eecfe0a8",
    "label": "56 RUE DU GAL DE GAULLE, Tourmignies",
    "lat": 50.511059,
    "lng": 3.086717,
    "transactions": [
      {
        "date": "2020-07-03",
        "priceEur": 404500,
        "typeLocal": "Maison",
        "surfaceM2": 129,
        "isVefa": false
      }
    ]
  },
  "403152cc417a": {
    "id": "403152cc417a",
    "label": "29B RUE DU GAL DE GAULLE, Tourmignies",
    "lat": 50.510167,
    "lng": 3.084499,
    "transactions": [
      {
        "date": "2021-05-07",
        "priceEur": 770000,
        "typeLocal": "Maison",
        "surfaceM2": 192,
        "isVefa": false
      }
    ]
  },
  "83564b552ef1": {
    "id": "83564b552ef1",
    "label": "7 RUE DES FONDS, Tourmignies",
    "lat": 50.51222,
    "lng": 3.08572,
    "transactions": [
      {
        "date": "2021-06-22",
        "priceEur": 349000,
        "typeLocal": "Maison",
        "surfaceM2": 106,
        "isVefa": false
      }
    ]
  },
  "10823643f41e": {
    "id": "10823643f41e",
    "label": "9 CHEM DES PETITS PRES, Tourmignies",
    "lat": 50.5076,
    "lng": 3.084697,
    "transactions": [
      {
        "date": "2022-04-15",
        "priceEur": 351500,
        "typeLocal": "Maison",
        "surfaceM2": 147,
        "isVefa": false
      }
    ]
  },
  "3c06bc3c8763": {
    "id": "3c06bc3c8763",
    "label": "11 RUE DU GAL DE GAULLE, Tourmignies",
    "lat": 50.508226,
    "lng": 3.08504,
    "transactions": [
      {
        "date": "2022-06-10",
        "priceEur": 227000,
        "typeLocal": "Maison",
        "surfaceM2": 75,
        "isVefa": false
      }
    ]
  },
  "42481225fc75": {
    "id": "42481225fc75",
    "label": "13 RUE DU GAL DE GAULLE, Tourmignies",
    "lat": 50.508424,
    "lng": 3.08497,
    "transactions": [
      {
        "date": "2022-07-06",
        "priceEur": 595000,
        "typeLocal": "Maison",
        "surfaceM2": 180,
        "isVefa": false
      }
    ]
  },
  "9d28be39518c": {
    "id": "9d28be39518c",
    "label": "5 CHEM DES PETITS PRES, Tourmignies",
    "lat": 50.507307,
    "lng": 3.084585,
    "transactions": [
      {
        "date": "2022-09-19",
        "priceEur": 339000,
        "typeLocal": "Maison",
        "surfaceM2": 103,
        "isVefa": false
      }
    ]
  },
  "560c32c9d726": {
    "id": "560c32c9d726",
    "label": "3 RUE DE L EGLISE, Tourmignies",
    "lat": 50.506856,
    "lng": 3.083053,
    "transactions": [
      {
        "date": "2022-09-30",
        "priceEur": 770000,
        "typeLocal": "Maison",
        "surfaceM2": 240,
        "isVefa": false
      }
    ]
  },
  "33ee7379a16a": {
    "id": "33ee7379a16a",
    "label": "6 CHEM DES PETITS PRES, Tourmignies",
    "lat": 50.507495,
    "lng": 3.085114,
    "transactions": [
      {
        "date": "2023-03-17",
        "priceEur": 401850,
        "typeLocal": "Maison",
        "surfaceM2": 106,
        "isVefa": false
      }
    ]
  },
  "2bb328259e8d": {
    "id": "2bb328259e8d",
    "label": "15 CHEM DES PETITS PRES, Tourmignies",
    "lat": 50.507755,
    "lng": 3.084542,
    "transactions": [
      {
        "date": "2023-06-15",
        "priceEur": 480400,
        "typeLocal": "Maison",
        "surfaceM2": 148,
        "isVefa": false
      }
    ]
  },
  "8d0453f1dd77": {
    "id": "8d0453f1dd77",
    "label": "14B RUE DE L EGLISE, Tourmignies",
    "lat": 50.507586,
    "lng": 3.081762,
    "transactions": [
      {
        "date": "2023-07-27",
        "priceEur": 512520,
        "typeLocal": "Maison",
        "surfaceM2": 128,
        "isVefa": false
      }
    ]
  },
  "5028f73f0eb9": {
    "id": "5028f73f0eb9",
    "label": "20G RUE DU GAL DE GAULLE, Tourmignies",
    "lat": 50.507241,
    "lng": 3.085841,
    "transactions": [
      {
        "date": "2023-12-22",
        "priceEur": 475000,
        "typeLocal": "Appartement",
        "surfaceM2": 90,
        "isVefa": false
      },
      {
        "date": "2023-12-22",
        "priceEur": 475000,
        "typeLocal": "Appartement",
        "surfaceM2": 73,
        "isVefa": false
      },
      {
        "date": "2023-12-22",
        "priceEur": 475000,
        "typeLocal": "Appartement",
        "surfaceM2": 60,
        "isVefa": false
      },
      {
        "date": "2023-12-22",
        "priceEur": 475000,
        "typeLocal": "Appartement",
        "surfaceM2": 91,
        "isVefa": false
      }
    ]
  },
  "5c3f390d0011": {
    "id": "5c3f390d0011",
    "label": "10 CHEM DES PETITS PRES, Tourmignies",
    "lat": 50.508059,
    "lng": 3.085118,
    "transactions": [
      {
        "date": "2024-10-28",
        "priceEur": 504070,
        "typeLocal": "Maison",
        "surfaceM2": 174,
        "isVefa": false
      }
    ]
  }
}