{
  "aa93b7b2abfb": {
    "id": "aa93b7b2abfb",
    "label": "13 RUE DE LA MARGUERITE, Lespignan",
    "lat": 43.273104,
    "lng": 3.175057,
    "transactions": [
      {
        "date": "2020-07-17",
        "priceEur": 227920,
        "typeLocal": "Maison",
        "surfaceM2": 100,
        "isVefa": false
      }
    ]
  },
  "5bfe110da693": {
    "id": "5bfe110da693",
    "label": "10 RUE DE LA MEJARIE, Lespignan",
    "lat": 43.272346,
    "lng": 3.175643,
    "transactions": [
      {
        "date": "2020-10-23",
        "priceEur": 91970,
        "typeLocal": "Appartement",
        "surfaceM2": 110,
        "isVefa": false
      }
    ]
  },
  "a37c5cb8d13f": {
    "id": "a37c5cb8d13f",
    "label": "12T RUE DE LA MARGUERITE, Lespignan",
    "lat": 43.273837,
    "lng": 3.176518,
    "transactions": [
      {
        "date": "2020-11-09",
        "priceEur": 197150,
        "typeLocal": "Maison",
        "surfaceM2": 93,
        "isVefa": false
      }
    ]
  },
  "116a1e4abea7": {
    "id": "116a1e4abea7",
    "label": "21 RUE DU PRUNIER, Lespignan",
    "lat": 43.275453,
    "lng": 3.175339,
    "transactions": [
      {
        "date": "2020-12-11",
        "priceEur": 333350,
        "typeLocal": "Maison",
        "surfaceM2": 200,
        "isVefa": false
      }
    ]
  },
  "dd559566dd4c": {
    "id": "dd559566dd4c",
    "label": "3 LE CLOS DU MOULIN, Lespignan",
    "lat": 43.270611,
    "lng": 3.177278,
    "transactions": [
      {
        "date": "2020-12-14",
        "priceEur": 414000,
        "typeLocal": "Maison",
        "surfaceM2": 138,
        "isVefa": false
      }
    ]
  },
  "014ecf32d9de": {
    "id": "014ecf32d9de",
    "label": "49 RTE DE BEZIERS, Lespignan",
    "lat": 43.275322,
    "lng": 3.176516,
    "transactions": [
      {
        "date": "2021-01-22",
        "priceEur": 180000,
        "typeLocal": "Maison",
        "surfaceM2": 83,
        "isVefa": false
      }
    ]
  },
  "b77e0f4b664f": {
    "id": "b77e0f4b664f",
    "label": "26 RUE DU PUECH MAJOU, Lespignan",
    "lat": 43.276677,
    "lng": 3.176115,
    "transactions": [
      {
        "date": "2021-01-22",
        "priceEur": 135000,
        "typeLocal": "Maison",
        "surfaceM2": 140,
        "isVefa": false
      }
    ]
  },
  "afa7de4037f3": {
    "id": "afa7de4037f3",
    "label": "37 RUE DU PRUNIER, Lespignan",
    "lat": 43.275616,
    "lng": 3.176388,
    "transactions": [
      {
        "date": "2021-02-22",
        "priceEur": 173400,
        "typeLocal": "Maison",
        "surfaceM2": 80,
        "isVefa": false
      }
    ]
  },
  "5a2eb2325c01": {
    "id": "5a2eb2325c01",
    "label": "6 RUE DE LA MEJARIE, Lespignan",
    "lat": 43.2726,
    "lng": 3.175731,
    "transactions": [
      {
        "date": "2021-05-04",
        "priceEur": 220000,
        "typeLocal": "Maison",
        "surfaceM2": 109,
        "isVefa": false
      }
    ]
  },
  "b7f0dc307916": {
    "id": "b7f0dc307916",
    "label": "19 RUE DE LA MEJARIE, Lespignan",
    "lat": 43.271812,
    "lng": 3.177016,
    "transactions": [
      {
        "date": "2021-06-04",
        "priceEur": 337400,
        "typeLocal": "Maison",
        "surfaceM2": 143,
        "isVefa": false
      }
    ]
  },
  "e378b046b9b8": {
    "id": "e378b046b9b8",
    "label": "17 LOT LA CROUZETTE, Lespignan",
    "lat": 43.275678,
    "lng": 3.178094,
    "transactions": [
      {
        "date": "2021-06-15",
        "priceEur": 145000,
        "typeLocal": "Maison",
        "surfaceM2": 84,
        "isVefa": false
      }
    ]
  },
  "48ea1057decd": {
    "id": "48ea1057decd",
    "label": "4 ACH ANCIEN CHEMIN DE VENDRES, Lespignan",
    "lat": 43.273169,
    "lng": 3.17655,
    "transactions": [
      {
        "date": "2021-06-22",
        "priceEur": 187000,
        "typeLocal": "Maison",
        "surfaceM2": 59,
        "isVefa": false
      }
    ]
  },
  "ed487d89ed3c": {
    "id": "ed487d89ed3c",
    "label": "22 RUE DU PUECH MAJOU, Lespignan",
    "lat": 43.276945,
    "lng": 3.176851,
    "transactions": [
      {
        "date": "2021-08-04",
        "priceEur": 192800,
        "typeLocal": "Maison",
        "surfaceM2": 132,
        "isVefa": false
      }
    ]
  },
  "f2b6ab4114b6": {
    "id": "f2b6ab4114b6",
    "label": "3 RUE BELLEVUE, Lespignan",
    "lat": 43.273564,
    "lng": 3.175113,
    "transactions": [
      {
        "date": "2021-08-05",
        "priceEur": 218200,
        "typeLocal": "Appartement",
        "surfaceM2": 120,
        "isVefa": false
      }
    ]
  },
  "5d0e0f011570": {
    "id": "5d0e0f011570",
    "label": "32B RTE DE BEZIERS, Lespignan",
    "lat": 43.275079,
    "lng": 3.176956,
    "transactions": [
      {
        "date": "2024-10-08",
        "priceEur": 110000,
        "typeLocal": "Appartement",
        "surfaceM2": 49,
        "isVefa": false
      },
      {
        "date": "2024-07-12",
        "priceEur": 169000,
        "typeLocal": "Appartement",
        "surfaceM2": 70,
        "isVefa": false
      },
      {
        "date": "2023-01-20",
        "priceEur": 133550,
        "typeLocal": "Appartement",
        "surfaceM2": 70,
        "isVefa": false
      },
      {
        "date": "2021-09-15",
        "priceEur": 120000,
        "typeLocal": "Appartement",
        "surfaceM2": 51,
        "isVefa": false
      }
    ]
  },
  "0e50dd8962cd": {
    "id": "0e50dd8962cd",
    "label": "19 RUE DE LA MARGUERITE, Lespignan",
    "lat": 43.274106,
    "lng": 3.175871,
    "transactions": [
      {
        "date": "2021-09-20",
        "priceEur": 298000,
        "typeLocal": "Maison",
        "surfaceM2": 144,
        "isVefa": false
      }
    ]
  },
  "b083fe4ef000": {
    "id": "b083fe4ef000",
    "label": "18 RUE DU LIERRE, Lespignan",
    "lat": 43.273645,
    "lng": 3.17541,
    "transactions": [
      {
        "date": "2021-10-29",
        "priceEur": 175000,
        "typeLocal": "Maison",
        "surfaceM2": 84,
        "isVefa": false
      }
    ]
  },
  "bac62e844447": {
    "id": "bac62e844447",
    "label": "4T CHE DU TAGNEL, Lespignan",
    "lat": 43.275017,
    "lng": 3.178799,
    "transactions": [
      {
        "date": "2022-05-24",
        "priceEur": 423082,
        "typeLocal": "Maison",
        "surfaceM2": 146,
        "isVefa": false
      }
    ]
  },
  "8261e7adb4bb": {
    "id": "8261e7adb4bb",
    "label": "18 RUE DE LA MARGUERITE, Lespignan",
    "lat": 43.274233,
    "lng": 3.176355,
    "transactions": [
      {
        "date": "2022-06-22",
        "priceEur": 122000,
        "typeLocal": "Maison",
        "surfaceM2": 90,
        "isVefa": false
      }
    ]
  },
  "e4a4a7fe2ac5": {
    "id": "e4a4a7fe2ac5",
    "label": "32 RTE DE BEZIERS, Lespignan",
    "lat": 43.274963,
    "lng": 3.176671,
    "transactions": [
      {
        "date": "2022-07-13",
        "priceEur": 153000,
        "typeLocal": "Maison",
        "surfaceM2": 85,
        "isVefa": false
      }
    ]
  },
  "77b6f7afe908": {
    "id": "77b6f7afe908",
    "label": "4 RUE DE LA MEJARIE, Lespignan",
    "lat": 43.272864,
    "lng": 3.175696,
    "transactions": [
      {
        "date": "2022-07-22",
        "priceEur": 150000,
        "typeLocal": "Maison",
        "surfaceM2": 74,
        "isVefa": false
      },
      {
        "date": "2022-07-22",
        "priceEur": 150000,
        "typeLocal": "Maison",
        "surfaceM2": 74,
        "isVefa": false
      }
    ]
  },
  "9414d2da2996": {
    "id": "9414d2da2996",
    "label": "6 LE CLOS DU MOULIN, Lespignan",
    "lat": 43.270437,
    "lng": 3.178177,
    "transactions": [
      {
        "date": "2022-07-29",
        "priceEur": 421000,
        "typeLocal": "Maison",
        "surfaceM2": 152,
        "isVefa": false
      }
    ]
  },
  "bd3a36f8ed28": {
    "id": "bd3a36f8ed28",
    "label": "19 RUE DU BOULEAU, Lespignan",
    "lat": 43.271366,
    "lng": 3.175743,
    "transactions": [
      {
        "date": "2022-09-15",
        "priceEur": 235000,
        "typeLocal": "Maison",
        "surfaceM2": 75,
        "isVefa": false
      }
    ]
  },
  "f4039be37f31": {
    "id": "f4039be37f31",
    "label": "11 CHE DU TAGNEL, Lespignan",
    "lat": 43.275349,
    "lng": 3.180232,
    "transactions": [
      {
        "date": "2022-09-14",
        "priceEur": 370500,
        "typeLocal": "Maison",
        "surfaceM2": 102,
        "isVefa": false
      }
    ]
  },
  "a3aa2bb599f9": {
    "id": "a3aa2bb599f9",
    "label": "15 RTE DE VENDRES, Lespignan",
    "lat": 43.276769,
    "lng": 3.180846,
    "transactions": [
      {
        "date": "2022-10-11",
        "priceEur": 389700,
        "typeLocal": "Maison",
        "surfaceM2": 147,
        "isVefa": false
      },
      {
        "date": "2022-10-11",
        "priceEur": 389700,
        "typeLocal": "Maison",
        "surfaceM2": 147,
        "isVefa": false
      }
    ]
  },
  "845c17338e1d": {
    "id": "845c17338e1d",
    "label": "6467F LA MEJARIE, Lespignan",
    "lat": 43.271707,
    "lng": 3.178415,
    "transactions": [
      {
        "date": "2022-10-07",
        "priceEur": 337530,
        "typeLocal": "Maison",
        "surfaceM2": 120,
        "isVefa": false
      }
    ]
  },
  "91093b394d88": {
    "id": "91093b394d88",
    "label": "2 RUE BELLEVUE, Lespignan",
    "lat": 43.273539,
    "lng": 3.175223,
    "transactions": [
      {
        "date": "2022-10-19",
        "priceEur": 334400,
        "typeLocal": "Maison",
        "surfaceM2": 100,
        "isVefa": false
      }
    ]
  },
  "eef62bf7a653": {
    "id": "eef62bf7a653",
    "label": "34 RUE DU CERCLE, Lespignan",
    "lat": 43.274326,
    "lng": 3.178454,
    "transactions": [
      {
        "date": "2022-11-22",
        "priceEur": 114000,
        "typeLocal": "Maison",
        "surfaceM2": 103,
        "isVefa": false
      }
    ]
  },
  "5e29f253ecf3": {
    "id": "5e29f253ecf3",
    "label": "5 CHE DU TAGNEL, Lespignan",
    "lat": 43.275691,
    "lng": 3.179744,
    "transactions": [
      {
        "date": "2022-11-22",
        "priceEur": 124830,
        "typeLocal": "Maison",
        "surfaceM2": 96,
        "isVefa": false
      }
    ]
  },
  "47012b05d93f": {
    "id": "47012b05d93f",
    "label": "43 RUE DU CERCLE, Lespignan",
    "lat": 43.273845,
    "lng": 3.17838,
    "transactions": [
      {
        "date": "2022-12-29",
        "priceEur": 288000,
        "typeLocal": "Maison",
        "surfaceM2": 116,
        "isVefa": false
      }
    ]
  },
  "b61cd98b9e0f": {
    "id": "b61cd98b9e0f",
    "label": "2B RTE DE VENDRES, Lespignan",
    "lat": 43.274969,
    "lng": 3.177437,
    "transactions": [
      {
        "date": "2023-01-25",
        "priceEur": 291851,
        "typeLocal": "Maison",
        "surfaceM2": 133,
        "isVefa": false
      }
    ]
  },
  "895048a0c4e6": {
    "id": "895048a0c4e6",
    "label": "22 RUE DU CERCLE, Lespignan",
    "lat": 43.274117,
    "lng": 3.177564,
    "transactions": [
      {
        "date": "2023-03-10",
        "priceEur": 281000,
        "typeLocal": "Maison",
        "surfaceM2": 105,
        "isVefa": false
      }
    ]
  },
  "cebf8e7b8bf3": {
    "id": "cebf8e7b8bf3",
    "label": "4 RUE DU PUECH MAJOU, Lespignan",
    "lat": 43.276992,
    "lng": 3.175845,
    "transactions": [
      {
        "date": "2023-03-20",
        "priceEur": 115547.01,
        "typeLocal": "Maison",
        "surfaceM2": 79,
        "isVefa": false
      }
    ]
  },
  "261c8a7cac75": {
    "id": "261c8a7cac75",
    "label": "12 RUE DE LA MEJARIE, Lespignan",
    "lat": 43.272346,
    "lng": 3.175643,
    "transactions": [
      {
        "date": "2023-03-31",
        "priceEur": 200000,
        "typeLocal": "Appartement",
        "surfaceM2": 110,
        "isVefa": false
      }
    ]
  },
  "ed7aeaabfdd4": {
    "id": "ed7aeaabfdd4",
    "label": "3 PLAN DE LA MEJARIE, Lespignan",
    "lat": 43.273044,
    "lng": 3.176808,
    "transactions": [
      {
        "date": "2023-06-14",
        "priceEur": 200000,
        "typeLocal": "Maison",
        "surfaceM2": 96,
        "isVefa": false
      }
    ]
  },
  "7a70b2a77ba2": {
    "id": "7a70b2a77ba2",
    "label": "12B RUE DE LA MARGUERITE, Lespignan",
    "lat": 43.273795,
    "lng": 3.176014,
    "transactions": [
      {
        "date": "2023-07-07",
        "priceEur": 488500,
        "typeLocal": "Maison",
        "surfaceM2": 151,
        "isVefa": false
      }
    ]
  },
  "ddbb86695eb3": {
    "id": "ddbb86695eb3",
    "label": "4 IMP DE LA MEJARIE, Lespignan",
    "lat": 43.272206,
    "lng": 3.177085,
    "transactions": [
      {
        "date": "2023-07-13",
        "priceEur": 400000,
        "typeLocal": "Maison",
        "surfaceM2": 137,
        "isVefa": false
      }
    ]
  },
  "b9cf406c598f": {
    "id": "b9cf406c598f",
    "label": "24 RUE DE LA MARGUERITE, Lespignan",
    "lat": 43.274417,
    "lng": 3.17638,
    "transactions": [
      {
        "date": "2023-09-15",
        "priceEur": 161500,
        "typeLocal": "Maison",
        "surfaceM2": 65,
        "isVefa": false
      }
    ]
  },
  "cc3d677f60da": {
    "id": "cc3d677f60da",
    "label": "12 RUE DU LIERRE, Lespignan",
    "lat": 43.273811,
    "lng": 3.175424,
    "transactions": [
      {
        "date": "2023-09-18",
        "priceEur": 241962,
        "typeLocal": "Maison",
        "surfaceM2": 150,
        "isVefa": false
      }
    ]
  },
  "45c16e139923": {
    "id": "45c16e139923",
    "label": "35 RUE DU CERCLE, Lespignan",
    "lat": 43.273803,
    "lng": 3.177689,
    "transactions": [
      {
        "date": "2023-10-02",
        "priceEur": 250600,
        "typeLocal": "Maison",
        "surfaceM2": 75,
        "isVefa": false
      }
    ]
  },
  "a9c84c7072b7": {
    "id": "a9c84c7072b7",
    "label": "7B ACH ANCIEN CHEMIN DE VENDRES, Lespignan",
    "lat": 43.273626,
    "lng": 3.177767,
    "transactions": [
      {
        "date": "2024-07-01",
        "priceEur": 272000,
        "typeLocal": "Maison",
        "surfaceM2": 120,
        "isVefa": false
      },
      {
        "date": "2024-07-01",
        "priceEur": 272000,
        "typeLocal": "Maison",
        "surfaceM2": 120,
        "isVefa": false
      }
    ]
  },
  "fe6b1a16dce1": {
    "id": "fe6b1a16dce1",
    "label": "25 ACH ANCIEN CHEMIN DE VENDRES, Lespignan",
    "lat": 43.273347,
    "lng": 3.179598,
    "transactions": [
      {
        "date": "2024-08-27",
        "priceEur": 438700,
        "typeLocal": "Maison",
        "surfaceM2": 183,
        "isVefa": false
      }
    ]
  },
  "2027d180f289": {
    "id": "2027d180f289",
    "label": "18 RUE DU CERCLE, Lespignan",
    "lat": 43.27426,
    "lng": 3.177551,
    "transactions": [
      {
        "date": "2024-09-02",
        "priceEur": 200000,
        "typeLocal": "Maison",
        "surfaceM2": 74,
        "isVefa": false
      }
    ]
  },
  "15568518d95a": {
    "id": "15568518d95a",
    "label": "16 RUE DU PUECH MAJOU, Lespignan",
    "lat": 43.277056,
    "lng": 3.178411,
    "transactions": [
      {
        "date": "2025-01-21",
        "priceEur": 239000,
        "typeLocal": "Maison",
        "surfaceM2": 94,
        "isVefa": false
      }
    ]
  },
  "9e43a9e66f0b": {
    "id": "9e43a9e66f0b",
    "label": "6445 LA MEJARIE, Lespignan",
    "lat": 43.271714,
    "lng": 3.178074,
    "transactions": [
      {
        "date": "2025-02-27",
        "priceEur": 404715,
        "typeLocal": "Maison",
        "surfaceM2": 129,
        "isVefa": false
      }
    ]
  }
}