{
  "bb0eb7c9a91f": {
    "id": "bb0eb7c9a91f",
    "label": "5015 LE FAUX BUISSON, Lintot",
    "lat": 49.566416,
    "lng": 0.566311,
    "transactions": [
      {
        "date": "2020-09-18",
        "priceEur": 135000,
        "typeLocal": "Maison",
        "surfaceM2": 58,
        "isVefa": false
      }
    ]
  },
  "a09a67159e16": {
    "id": "a09a67159e16",
    "label": "5045 LINTOT, Lintot",
    "lat": 49.5629,
    "lng": 0.565547,
    "transactions": [
      {
        "date": "2020-09-11",
        "priceEur": 122000,
        "typeLocal": "Maison",
        "surfaceM2": 76,
        "isVefa": false
      }
    ]
  },
  "917359f2d2b1": {
    "id": "917359f2d2b1",
    "label": "5028 LA FOSSE A LA BELETTE, Lintot",
    "lat": 49.562977,
    "lng": 0.564739,
    "transactions": [
      {
        "date": "2020-12-23",
        "priceEur": 189000,
        "typeLocal": "Maison",
        "surfaceM2": 74,
        "isVefa": false
      }
    ]
  },
  "98c777898a4a": {
    "id": "98c777898a4a",
    "label": "5142 LA FOSSE A LA BELETTE, Lintot",
    "lat": 49.563069,
    "lng": 0.565089,
    "transactions": [
      {
        "date": "2021-01-22",
        "priceEur": 166000,
        "typeLocal": "Maison",
        "surfaceM2": 94,
        "isVefa": false
      }
    ]
  },
  "3414564a4c72": {
    "id": "3414564a4c72",
    "label": "5083 LE FAUX BUISSON, Lintot",
    "lat": 49.566503,
    "lng": 0.564086,
    "transactions": [
      {
        "date": "2021-03-12",
        "priceEur": 170000,
        "typeLocal": "Maison",
        "surfaceM2": 64,
        "isVefa": false
      }
    ]
  },
  "0049a7400d62": {
    "id": "0049a7400d62",
    "label": "5136 LINTOT, Lintot",
    "lat": 49.563859,
    "lng": 0.568792,
    "transactions": [
      {
        "date": "2021-07-26",
        "priceEur": 145000,
        "typeLocal": "Maison",
        "surfaceM2": 47,
        "isVefa": false
      }
    ]
  },
  "b123da6e0283": {
    "id": "b123da6e0283",
    "label": "5196 LINTOT, Lintot",
    "lat": 49.564684,
    "lng": 0.569449,
    "transactions": [
      {
        "date": "2022-02-18",
        "priceEur": 245000,
        "typeLocal": "Maison",
        "surfaceM2": 170,
        "isVefa": false
      }
    ]
  },
  "8539864a7941": {
    "id": "8539864a7941",
    "label": "1 CHE DE L'EGLISE, Lintot",
    "lat": 49.562948,
    "lng": 0.5693,
    "transactions": [
      {
        "date": "2022-03-16",
        "priceEur": 158000,
        "typeLocal": "Maison",
        "surfaceM2": 35,
        "isVefa": false
      },
      {
        "date": "2022-03-16",
        "priceEur": 158000,
        "typeLocal": "Maison",
        "surfaceM2": 95,
        "isVefa": false
      }
    ]
  },
  "44ac6359bdda": {
    "id": "44ac6359bdda",
    "label": "3 RTE DU CHATEAU, Lintot",
    "lat": 49.562813,
    "lng": 0.568896,
    "transactions": [
      {
        "date": "2022-04-01",
        "priceEur": 127500,
        "typeLocal": "Maison",
        "surfaceM2": 150,
        "isVefa": false
      }
    ]
  },
  "e3e080746bc3": {
    "id": "e3e080746bc3",
    "label": "5086 LINTOT, Lintot",
    "lat": 49.563766,
    "lng": 0.568715,
    "transactions": [
      {
        "date": "2022-09-28",
        "priceEur": 80000,
        "typeLocal": "Maison",
        "surfaceM2": 66,
        "isVefa": false
      },
      {
        "date": "2022-03-25",
        "priceEur": 120000,
        "typeLocal": "Maison",
        "surfaceM2": 66,
        "isVefa": false
      }
    ]
  },
  "3762e3ab7942": {
    "id": "3762e3ab7942",
    "label": "5023 LE FAUX BUISSON, Lintot",
    "lat": 49.566744,
    "lng": 0.565839,
    "transactions": [
      {
        "date": "2022-08-30",
        "priceEur": 25000,
        "typeLocal": "Maison",
        "surfaceM2": 41,
        "isVefa": false
      }
    ]
  },
  "87c3c7c849cc": {
    "id": "87c3c7c849cc",
    "label": "5008 LINTOT, Lintot",
    "lat": 49.564555,
    "lng": 0.569917,
    "transactions": [
      {
        "date": "2022-09-08",
        "priceEur": 194000,
        "typeLocal": "Maison",
        "surfaceM2": 132,
        "isVefa": false
      }
    ]
  },
  "3ca6f30a17c7": {
    "id": "3ca6f30a17c7",
    "label": "2 RUE DU VERGER, Lintot",
    "lat": 49.561688,
    "lng": 0.567597,
    "transactions": [
      {
        "date": "2023-06-30",
        "priceEur": 200000,
        "typeLocal": "Maison",
        "surfaceM2": 120,
        "isVefa": false
      }
    ]
  },
  "a93f8575f94f": {
    "id": "a93f8575f94f",
    "label": "5 RUE DU VERGER, Lintot",
    "lat": 49.562373,
    "lng": 0.568085,
    "transactions": [
      {
        "date": "2023-09-08",
        "priceEur": 181000,
        "typeLocal": "Maison",
        "surfaceM2": 73,
        "isVefa": false
      }
    ]
  },
  "9d3e19471911": {
    "id": "9d3e19471911",
    "label": "1360 RTE DE CAUDEBEC, Lintot",
    "lat": 49.566744,
    "lng": 0.565839,
    "transactions": [
      {
        "date": "2023-10-20",
        "priceEur": 6200,
        "typeLocal": "Maison",
        "surfaceM2": 41,
        "isVefa": false
      }
    ]
  },
  "a349a77f417d": {
    "id": "a349a77f417d",
    "label": "6 RUE DU CHENE, Lintot",
    "lat": 49.563638,
    "lng": 0.570367,
    "transactions": [
      {
        "date": "2024-11-07",
        "priceEur": 260000,
        "typeLocal": "Maison",
        "surfaceM2": 140,
        "isVefa": false
      }
    ]
  },
  "7dc7d22d05e2": {
    "id": "7dc7d22d05e2",
    "label": "6 RUE DE LA FOSSE A LA BELETTE, Lintot",
    "lat": 49.563426,
    "lng": 0.566504,
    "transactions": [
      {
        "date": "2025-04-25",
        "priceEur": 168000,
        "typeLocal": "Maison",
        "surfaceM2": 103,
        "isVefa": false
      }
    ]
  }
}