{
  "44005377ec84": {
    "id": "44005377ec84",
    "label": "28 RUE PIERRE DE COUBERTIN, La Frénaye",
    "lat": 49.525195,
    "lng": 0.568496,
    "transactions": [
      {
        "date": "2021-01-05",
        "priceEur": 178500,
        "typeLocal": "Maison",
        "surfaceM2": 69,
        "isVefa": false
      }
    ]
  },
  "f4dc1bd3ed5e": {
    "id": "f4dc1bd3ed5e",
    "label": "46 RUE DU VIEUX VAL DES FRANCS, La Frénaye",
    "lat": 49.524939,
    "lng": 0.570694,
    "transactions": [
      {
        "date": "2021-05-27",
        "priceEur": 190000,
        "typeLocal": "Maison",
        "surfaceM2": 121,
        "isVefa": false
      }
    ]
  },
  "9b77c85f2386": {
    "id": "9b77c85f2386",
    "label": "36 RUE JEAN-BAPTISTE BECQUET, La Frénaye",
    "lat": 49.523901,
    "lng": 0.56272,
    "transactions": [
      {
        "date": "2022-02-14",
        "priceEur": 214500,
        "typeLocal": "Maison",
        "surfaceM2": 97,
        "isVefa": false
      }
    ]
  },
  "6fb4b62459bb": {
    "id": "6fb4b62459bb",
    "label": "7 RUE DES FRENES, La Frénaye",
    "lat": 49.525163,
    "lng": 0.565271,
    "transactions": [
      {
        "date": "2022-11-09",
        "priceEur": 82500,
        "typeLocal": "Maison",
        "surfaceM2": 80,
        "isVefa": false
      }
    ]
  },
  "dd32b2350276": {
    "id": "dd32b2350276",
    "label": "4 RUE NICOLAS CRESSENT, La Frénaye",
    "lat": 49.524731,
    "lng": 0.563259,
    "transactions": [
      {
        "date": "2023-11-14",
        "priceEur": 195000,
        "typeLocal": "Maison",
        "surfaceM2": 89,
        "isVefa": false
      }
    ]
  },
  "8e8dca1d2ac7": {
    "id": "8e8dca1d2ac7",
    "label": "34 RUE JEAN-BAPTISTE BECQUET, La Frénaye",
    "lat": 49.524148,
    "lng": 0.562604,
    "transactions": [
      {
        "date": "2024-09-26",
        "priceEur": 162000,
        "typeLocal": "Maison",
        "surfaceM2": 103,
        "isVefa": false
      }
    ]
  },
  "f7ac954cb1f1": {
    "id": "f7ac954cb1f1",
    "label": "25 RUE JEAN-BAPTISTE BECQUET, La Frénaye",
    "lat": 49.524447,
    "lng": 0.564361,
    "transactions": [
      {
        "date": "2025-02-28",
        "priceEur": 220200,
        "typeLocal": "Maison",
        "surfaceM2": 135,
        "isVefa": false
      }
    ]
  }
}