{
  "85e04f7d663a": {
    "id": "85e04f7d663a",
    "label": "4 RUE DES SAULES, Manneville-la-Goupil",
    "lat": 49.606853,
    "lng": 0.345783,
    "transactions": [
      {
        "date": "2020-09-17",
        "priceEur": 252500,
        "typeLocal": "Maison",
        "surfaceM2": 82,
        "isVefa": false
      }
    ]
  },
  "004366fc7270": {
    "id": "004366fc7270",
    "label": "658 RTE DES JONQUILLES, Manneville-la-Goupil",
    "lat": 49.606823,
    "lng": 0.346373,
    "transactions": [
      {
        "date": "2020-12-03",
        "priceEur": 245000,
        "typeLocal": "Maison",
        "surfaceM2": 111,
        "isVefa": false
      }
    ]
  },
  "aa49b05b2fab": {
    "id": "aa49b05b2fab",
    "label": "5017 HAMEAU DE L ENFER, Manneville-la-Goupil",
    "lat": 49.606461,
    "lng": 0.350123,
    "transactions": [
      {
        "date": "2021-04-08",
        "priceEur": 78000,
        "typeLocal": "Maison",
        "surfaceM2": 54,
        "isVefa": false
      }
    ]
  },
  "a25f6a38b2df": {
    "id": "a25f6a38b2df",
    "label": "5038 L EGLISE, Manneville-la-Goupil",
    "lat": 49.608857,
    "lng": 0.350498,
    "transactions": [
      {
        "date": "2021-04-30",
        "priceEur": 270000,
        "typeLocal": "Maison",
        "surfaceM2": 160,
        "isVefa": false
      }
    ]
  },
  "8fdcddfe5fea": {
    "id": "8fdcddfe5fea",
    "label": "388 IMP DES CHATAIGNIERS, Manneville-la-Goupil",
    "lat": 49.607212,
    "lng": 0.344007,
    "transactions": [
      {
        "date": "2021-06-10",
        "priceEur": 200000,
        "typeLocal": "Maison",
        "surfaceM2": 90,
        "isVefa": false
      }
    ]
  },
  "ef1f3ced3149": {
    "id": "ef1f3ced3149",
    "label": "652 RTE DES JONQUILLES, Manneville-la-Goupil",
    "lat": 49.606876,
    "lng": 0.347199,
    "transactions": [
      {
        "date": "2021-08-25",
        "priceEur": 253600,
        "typeLocal": "Maison",
        "surfaceM2": 149,
        "isVefa": false
      }
    ]
  },
  "945b2c2b34b7": {
    "id": "945b2c2b34b7",
    "label": "654 RTE DES JONQUILLES, Manneville-la-Goupil",
    "lat": 49.606578,
    "lng": 0.346772,
    "transactions": [
      {
        "date": "2021-09-17",
        "priceEur": 242850,
        "typeLocal": "Maison",
        "surfaceM2": 89,
        "isVefa": false
      }
    ]
  },
  "c9f7b75046f8": {
    "id": "c9f7b75046f8",
    "label": "490 RTE DES JONQUILLES, Manneville-la-Goupil",
    "lat": 49.607787,
    "lng": 0.348825,
    "transactions": [
      {
        "date": "2021-12-22",
        "priceEur": 290000,
        "typeLocal": "Maison",
        "surfaceM2": 134,
        "isVefa": false
      }
    ]
  },
  "23891ecd5ecd": {
    "id": "23891ecd5ecd",
    "label": "5 RUE DES SAULES, Manneville-la-Goupil",
    "lat": 49.606893,
    "lng": 0.345574,
    "transactions": [
      {
        "date": "2022-03-28",
        "priceEur": 243000,
        "typeLocal": "Maison",
        "surfaceM2": 80,
        "isVefa": false
      }
    ]
  },
  "ebc0dcfd2067": {
    "id": "ebc0dcfd2067",
    "label": "860 RTE DES HETRES, Manneville-la-Goupil",
    "lat": 49.608928,
    "lng": 0.342367,
    "transactions": [
      {
        "date": "2022-07-12",
        "priceEur": 170000,
        "typeLocal": "Maison",
        "surfaceM2": 97,
        "isVefa": false
      }
    ]
  },
  "cc4b79ca63bd": {
    "id": "cc4b79ca63bd",
    "label": "489 RTE DES JONQUILLES, Manneville-la-Goupil",
    "lat": 49.606688,
    "lng": 0.350445,
    "transactions": [
      {
        "date": "2024-07-08",
        "priceEur": 261000,
        "typeLocal": "Maison",
        "surfaceM2": 82,
        "isVefa": false
      }
    ]
  },
  "3db2d03726ed": {
    "id": "3db2d03726ed",
    "label": "383 IMP DES CHATAIGNIERS, Manneville-la-Goupil",
    "lat": 49.606527,
    "lng": 0.345349,
    "transactions": [
      {
        "date": "2024-06-28",
        "priceEur": 176400,
        "typeLocal": "Maison",
        "surfaceM2": 121,
        "isVefa": false
      }
    ]
  }
}