{
  "6eb5ca07dd2e": {
    "id": "6eb5ca07dd2e",
    "label": "13 RUE PIERRE LEOSTIC, Dunkerque",
    "lat": 51.043846,
    "lng": 2.40301,
    "transactions": [
      {
        "date": "2020-07-10",
        "priceEur": 85500,
        "typeLocal": "Maison",
        "surfaceM2": 103,
        "isVefa": false
      }
    ]
  },
  "919c5e6e2e0f": {
    "id": "919c5e6e2e0f",
    "label": "83 RUE DE ROUBAIX, Dunkerque",
    "lat": 51.04442,
    "lng": 2.397896,
    "transactions": [
      {
        "date": "2020-07-09",
        "priceEur": 230000,
        "typeLocal": "Maison",
        "surfaceM2": 125,
        "isVefa": false
      }
    ]
  },
  "fa14d0f3211c": {
    "id": "fa14d0f3211c",
    "label": "103 RUE GASPARD NEUTS, Dunkerque",
    "lat": 51.045645,
    "lng": 2.398097,
    "transactions": [
      {
        "date": "2020-07-21",
        "priceEur": 115000,
        "typeLocal": "Appartement",
        "surfaceM2": 63,
        "isVefa": false
      }
    ]
  },
  "068bf1153cb3": {
    "id": "068bf1153cb3",
    "label": "24 AV GASPARD MALO, Dunkerque",
    "lat": 51.046132,
    "lng": 2.395286,
    "transactions": [
      {
        "date": "2023-06-14",
        "priceEur": 241700,
        "typeLocal": "Appartement",
        "surfaceM2": 80,
        "isVefa": false
      },
      {
        "date": "2023-03-31",
        "priceEur": 360000,
        "typeLocal": "Appartement",
        "surfaceM2": 115,
        "isVefa": false
      },
      {
        "date": "2022-06-14",
        "priceEur": 226000,
        "typeLocal": "Appartement",
        "surfaceM2": 69,
        "isVefa": false
      },
      {
        "date": "2021-06-14",
        "priceEur": 235000,
        "typeLocal": "Appartement",
        "surfaceM2": 80,
        "isVefa": false
      },
      {
        "date": "2020-07-27",
        "priceEur": 330000,
        "typeLocal": "Appartement",
        "surfaceM2": 115,
        "isVefa": false
      }
    ]
  },
  "d0cbc5ed939d": {
    "id": "d0cbc5ed939d",
    "label": "95 BD DE LA REPUBLIQUE MITTERRAN, Dunkerque",
    "lat": 51.044433,
    "lng": 2.40094,
    "transactions": [
      {
        "date": "2025-02-27",
        "priceEur": 135000,
        "typeLocal": "Appartement",
        "surfaceM2": 47,
        "isVefa": false
      },
      {
        "date": "2024-12-20",
        "priceEur": 222000,
        "typeLocal": "Appartement",
        "surfaceM2": 73,
        "isVefa": false
      },
      {
        "date": "2024-09-30",
        "priceEur": 145000,
        "typeLocal": "Appartement",
        "surfaceM2": 47,
        "isVefa": false
      },
      {
        "date": "2023-09-05",
        "priceEur": 140000,
        "typeLocal": "Appartement",
        "surfaceM2": 46,
        "isVefa": false
      },
      {
        "date": "2023-05-16",
        "priceEur": 79000,
        "typeLocal": "Appartement",
        "surfaceM2": 30,
        "isVefa": false
      },
      {
        "date": "2023-01-23",
        "priceEur": 139000,
        "typeLocal": "Appartement",
        "surfaceM2": 46,
        "isVefa": false
      },
      {
        "date": "2021-09-28",
        "priceEur": 175000,
        "typeLocal": "Appartement",
        "surfaceM2": 73,
        "isVefa": false
      },
      {
        "date": "2021-03-10",
        "priceEur": 67500,
        "typeLocal": "Appartement",
        "surfaceM2": 48,
        "isVefa": false
      },
      {
        "date": "2020-11-30",
        "priceEur": 79000,
        "typeLocal": "Appartement",
        "surfaceM2": 46,
        "isVefa": false
      },
      {
        "date": "2020-10-16",
        "priceEur": 85000,
        "typeLocal": "Appartement",
        "surfaceM2": 47,
        "isVefa": false
      },
      {
        "date": "2020-10-13",
        "priceEur": 64000,
        "typeLocal": "Appartement",
        "surfaceM2": 30,
        "isVefa": false
      },
      {
        "date": "2020-07-24",
        "priceEur": 64000,
        "typeLocal": "Appartement",
        "surfaceM2": 46,
        "isVefa": false
      }
    ]
  },
  "2ce8dfd94cac": {
    "id": "2ce8dfd94cac",
    "label": "112 RUE DES POILUS, Dunkerque",
    "lat": 51.047064,
    "lng": 2.397543,
    "transactions": [
      {
        "date": "2020-07-13",
        "priceEur": 215000,
        "typeLocal": "Maison",
        "surfaceM2": 96,
        "isVefa": false
      }
    ]
  },
  "f59c6a4da105": {
    "id": "f59c6a4da105",
    "label": "129 RUE GASPARD NEUTS, Dunkerque",
    "lat": 51.044359,
    "lng": 2.398855,
    "transactions": [
      {
        "date": "2020-07-21",
        "priceEur": 270000,
        "typeLocal": "Maison",
        "surfaceM2": 103,
        "isVefa": false
      }
    ]
  },
  "2f3a6ff79d4c": {
    "id": "2f3a6ff79d4c",
    "label": "22 RUE GUSTAVE NADAUD, Dunkerque",
    "lat": 51.043915,
    "lng": 2.39509,
    "transactions": [
      {
        "date": "2020-08-05",
        "priceEur": 118000,
        "typeLocal": "Appartement",
        "surfaceM2": 33,
        "isVefa": false
      },
      {
        "date": "2020-08-05",
        "priceEur": 118000,
        "typeLocal": "Appartement",
        "surfaceM2": 43,
        "isVefa": false
      },
      {
        "date": "2020-08-05",
        "priceEur": 118000,
        "typeLocal": "Appartement",
        "surfaceM2": 25,
        "isVefa": false
      }
    ]
  },
  "c0c47902310c": {
    "id": "c0c47902310c",
    "label": "153 RUE BEL AIR, Dunkerque",
    "lat": 51.04726,
    "lng": 2.403212,
    "transactions": [
      {
        "date": "2020-07-31",
        "priceEur": 250000,
        "typeLocal": "Appartement",
        "surfaceM2": 37,
        "isVefa": false
      },
      {
        "date": "2020-07-31",
        "priceEur": 250000,
        "typeLocal": "Appartement",
        "surfaceM2": 34,
        "isVefa": false
      },
      {
        "date": "2020-07-31",
        "priceEur": 250000,
        "typeLocal": "Appartement",
        "surfaceM2": 59,
        "isVefa": false
      }
    ]
  },
  "b8ad3b3faccc": {
    "id": "b8ad3b3faccc",
    "label": "30 RUE ROUGET DE L ISLE, Dunkerque",
    "lat": 51.042707,
    "lng": 2.39968,
    "transactions": [
      {
        "date": "2020-08-11",
        "priceEur": 182000,
        "typeLocal": "Maison",
        "surfaceM2": 94,
        "isVefa": false
      }
    ]
  },
  "77c98c0aaadc": {
    "id": "77c98c0aaadc",
    "label": "6 RUE LUCIEN CARLIER, Dunkerque",
    "lat": 51.042516,
    "lng": 2.399261,
    "transactions": [
      {
        "date": "2020-07-24",
        "priceEur": 106000,
        "typeLocal": "Maison",
        "surfaceM2": 78,
        "isVefa": false
      }
    ]
  },
  "064f50d9f7cc": {
    "id": "064f50d9f7cc",
    "label": "135 AV ADOLPHE GEERAERT, Dunkerque",
    "lat": 51.044581,
    "lng": 2.399897,
    "transactions": [
      {
        "date": "2020-07-30",
        "priceEur": 127100,
        "typeLocal": "Appartement",
        "surfaceM2": 66,
        "isVefa": false
      }
    ]
  },
  "7d72099d6f73": {
    "id": "7d72099d6f73",
    "label": "185 RUE DE L HOTEL DE VILLE, Dunkerque",
    "lat": 51.048055,
    "lng": 2.403148,
    "transactions": [
      {
        "date": "2025-02-19",
        "priceEur": 212000,
        "typeLocal": "Appartement",
        "surfaceM2": 80,
        "isVefa": false
      },
      {
        "date": "2022-03-24",
        "priceEur": 75000,
        "typeLocal": "Appartement",
        "surfaceM2": 37,
        "isVefa": false
      },
      {
        "date": "2021-10-29",
        "priceEur": 143000,
        "typeLocal": "Appartement",
        "surfaceM2": 64,
        "isVefa": false
      },
      {
        "date": "2021-10-22",
        "priceEur": 195000,
        "typeLocal": "Appartement",
        "surfaceM2": 80,
        "isVefa": false
      },
      {
        "date": "2020-07-31",
        "priceEur": 133415,
        "typeLocal": "Appartement",
        "surfaceM2": 64,
        "isVefa": false
      }
    ]
  },
  "a2d185fb602b": {
    "id": "a2d185fb602b",
    "label": "332 RUE ARAGO, Dunkerque",
    "lat": 51.04345,
    "lng": 2.400886,
    "transactions": [
      {
        "date": "2020-08-17",
        "priceEur": 240000,
        "typeLocal": "Maison",
        "surfaceM2": 97,
        "isVefa": false
      }
    ]
  },
  "0443b802aebf": {
    "id": "0443b802aebf",
    "label": "82 RUE BIR HAKEIM, Dunkerque",
    "lat": 51.047741,
    "lng": 2.400557,
    "transactions": [
      {
        "date": "2020-08-13",
        "priceEur": 228000,
        "typeLocal": "Maison",
        "surfaceM2": 120,
        "isVefa": false
      }
    ]
  },
  "fb8828508c09": {
    "id": "fb8828508c09",
    "label": "52 RUE DU GENERAL HOCHE, Dunkerque",
    "lat": 51.045923,
    "lng": 2.399106,
    "transactions": [
      {
        "date": "2024-10-18",
        "priceEur": 120000,
        "typeLocal": "Appartement",
        "surfaceM2": 43,
        "isVefa": false
      },
      {
        "date": "2021-04-01",
        "priceEur": 91000,
        "typeLocal": "Appartement",
        "surfaceM2": 43,
        "isVefa": false
      },
      {
        "date": "2021-03-12",
        "priceEur": 120000,
        "typeLocal": "Appartement",
        "surfaceM2": 55,
        "isVefa": false
      },
      {
        "date": "2020-08-14",
        "priceEur": 135000,
        "typeLocal": "Appartement",
        "surfaceM2": 73,
        "isVefa": false
      }
    ]
  },
  "b7c79906edd9": {
    "id": "b7c79906edd9",
    "label": "59 BD DE LA REPUBLIQUE MITTERRAN, Dunkerque",
    "lat": 51.04378,
    "lng": 2.398726,
    "transactions": [
      {
        "date": "2020-08-13",
        "priceEur": 279000,
        "typeLocal": "Maison",
        "surfaceM2": 120,
        "isVefa": false
      }
    ]
  },
  "d68228ce5ea8": {
    "id": "d68228ce5ea8",
    "label": "19 RUE FLOQUET, Dunkerque",
    "lat": 51.042577,
    "lng": 2.401356,
    "transactions": [
      {
        "date": "2020-08-25",
        "priceEur": 209000,
        "typeLocal": "Maison",
        "surfaceM2": 120,
        "isVefa": false
      }
    ]
  },
  "feb4664f09d0": {
    "id": "feb4664f09d0",
    "label": "47 RUE PIERRE LEOSTIC, Dunkerque",
    "lat": 51.044302,
    "lng": 2.404702,
    "transactions": [
      {
        "date": "2020-08-19",
        "priceEur": 187000,
        "typeLocal": "Maison",
        "surfaceM2": 102,
        "isVefa": false
      }
    ]
  },
  "d4469d9b16b3": {
    "id": "d4469d9b16b3",
    "label": "6 RUE EMILE VERHAEREN, Dunkerque",
    "lat": 51.04652,
    "lng": 2.403576,
    "transactions": [
      {
        "date": "2020-08-25",
        "priceEur": 212850,
        "typeLocal": "Appartement",
        "surfaceM2": 86,
        "isVefa": false
      }
    ]
  },
  "44deec400060": {
    "id": "44deec400060",
    "label": "88B RUE BEL AIR, Dunkerque",
    "lat": 51.04528,
    "lng": 2.398771,
    "transactions": [
      {
        "date": "2020-08-24",
        "priceEur": 285000,
        "typeLocal": "Maison",
        "surfaceM2": 150,
        "isVefa": false
      }
    ]
  },
  "1d8b3b558efc": {
    "id": "1d8b3b558efc",
    "label": "12 RUE LAMARTINE, Dunkerque",
    "lat": 51.041678,
    "lng": 2.397589,
    "transactions": [
      {
        "date": "2020-08-22",
        "priceEur": 104000,
        "typeLocal": "Maison",
        "surfaceM2": 85,
        "isVefa": false
      }
    ]
  },
  "7bd798c4f942": {
    "id": "7bd798c4f942",
    "label": "37 RUE GASPARD NEUTS, Dunkerque",
    "lat": 51.047739,
    "lng": 2.396796,
    "transactions": [
      {
        "date": "2020-09-01",
        "priceEur": 338645,
        "typeLocal": "Maison",
        "surfaceM2": 193,
        "isVefa": false
      }
    ]
  },
  "e8939ae580fd": {
    "id": "e8939ae580fd",
    "label": "27 AV KLEBER, Dunkerque",
    "lat": 51.048265,
    "lng": 2.396851,
    "transactions": [
      {
        "date": "2024-10-07",
        "priceEur": 630000,
        "typeLocal": "Maison",
        "surfaceM2": 200,
        "isVefa": false
      },
      {
        "date": "2020-08-19",
        "priceEur": 220000,
        "typeLocal": "Maison",
        "surfaceM2": 200,
        "isVefa": false
      }
    ]
  },
  "a39e7864c864": {
    "id": "a39e7864c864",
    "label": "69 RUE BEL AIR, Dunkerque",
    "lat": 51.045295,
    "lng": 2.39781,
    "transactions": [
      {
        "date": "2024-09-02",
        "priceEur": 127250,
        "typeLocal": "Appartement",
        "surfaceM2": 35,
        "isVefa": false
      },
      {
        "date": "2022-11-25",
        "priceEur": 210000,
        "typeLocal": "Appartement",
        "surfaceM2": 80,
        "isVefa": false
      },
      {
        "date": "2020-08-31",
        "priceEur": 100000,
        "typeLocal": "Appartement",
        "surfaceM2": 42,
        "isVefa": false
      }
    ]
  },
  "2a5cf4622f8e": {
    "id": "2a5cf4622f8e",
    "label": "107 RUE DE L HOTEL DE VILLE, Dunkerque",
    "lat": 51.046894,
    "lng": 2.399256,
    "transactions": [
      {
        "date": "2020-09-09",
        "priceEur": 312900,
        "typeLocal": "Maison",
        "surfaceM2": 162,
        "isVefa": false
      }
    ]
  },
  "653e6bc0a7d6": {
    "id": "653e6bc0a7d6",
    "label": "95 RUE DE L HOTEL DE VILLE, Dunkerque",
    "lat": 51.046494,
    "lng": 2.397728,
    "transactions": [
      {
        "date": "2020-09-11",
        "priceEur": 213750,
        "typeLocal": "Maison",
        "surfaceM2": 135,
        "isVefa": false
      }
    ]
  },
  "7f4f4115de23": {
    "id": "7f4f4115de23",
    "label": "93 RUE DES POILUS, Dunkerque",
    "lat": 51.047371,
    "lng": 2.397235,
    "transactions": [
      {
        "date": "2021-12-16",
        "priceEur": 318250,
        "typeLocal": "Appartement",
        "surfaceM2": 51,
        "isVefa": false
      },
      {
        "date": "2021-12-16",
        "priceEur": 318250,
        "typeLocal": "Appartement",
        "surfaceM2": 110,
        "isVefa": false
      },
      {
        "date": "2020-09-03",
        "priceEur": 292030,
        "typeLocal": "Appartement",
        "surfaceM2": 51,
        "isVefa": false
      },
      {
        "date": "2020-09-03",
        "priceEur": 292030,
        "typeLocal": "Appartement",
        "surfaceM2": 110,
        "isVefa": false
      }
    ]
  },
  "bf75bf3caf94": {
    "id": "bf75bf3caf94",
    "label": "100 RUE JULES FERRY, Dunkerque",
    "lat": 51.04213,
    "lng": 2.403699,
    "transactions": [
      {
        "date": "2020-09-07",
        "priceEur": 171150,
        "typeLocal": "Maison",
        "surfaceM2": 90,
        "isVefa": false
      }
    ]
  },
  "671fe6dc3ebc": {
    "id": "671fe6dc3ebc",
    "label": "15 RUE DES ECOLES, Dunkerque",
    "lat": 51.047632,
    "lng": 2.397623,
    "transactions": [
      {
        "date": "2022-04-26",
        "priceEur": 248000,
        "typeLocal": "Maison",
        "surfaceM2": 89,
        "isVefa": false
      },
      {
        "date": "2020-09-09",
        "priceEur": 210000,
        "typeLocal": "Maison",
        "surfaceM2": 89,
        "isVefa": false
      }
    ]
  },
  "8559fd34e34f": {
    "id": "8559fd34e34f",
    "label": "63 RUE GASPARD NEUTS, Dunkerque",
    "lat": 51.046852,
    "lng": 2.397301,
    "transactions": [
      {
        "date": "2020-09-18",
        "priceEur": 278000,
        "typeLocal": "Maison",
        "surfaceM2": 137,
        "isVefa": false
      }
    ]
  },
  "b0521ecc5938": {
    "id": "b0521ecc5938",
    "label": "32 RUE FELIX FAURE, Dunkerque",
    "lat": 51.042069,
    "lng": 2.400698,
    "transactions": [
      {
        "date": "2020-09-15",
        "priceEur": 123350,
        "typeLocal": "Maison",
        "surfaceM2": 114,
        "isVefa": false
      }
    ]
  },
  "c61ab3ac19c2": {
    "id": "c61ab3ac19c2",
    "label": "111 RUE DES POILUS, Dunkerque",
    "lat": 51.047524,
    "lng": 2.398092,
    "transactions": [
      {
        "date": "2022-03-01",
        "priceEur": 330000,
        "typeLocal": "Maison",
        "surfaceM2": 107,
        "isVefa": false
      },
      {
        "date": "2020-09-10",
        "priceEur": 185000,
        "typeLocal": "Maison",
        "surfaceM2": 107,
        "isVefa": false
      }
    ]
  },
  "8fd912e174d6": {
    "id": "8fd912e174d6",
    "label": "59 AV GASPARD MALO, Dunkerque",
    "lat": 51.04446,
    "lng": 2.397146,
    "transactions": [
      {
        "date": "2020-09-18",
        "priceEur": 340000,
        "typeLocal": "Maison",
        "surfaceM2": 179,
        "isVefa": false
      }
    ]
  },
  "f78097f8c83d": {
    "id": "f78097f8c83d",
    "label": "5 RUE FRANCOIS TIXIER, Dunkerque",
    "lat": 51.043497,
    "lng": 2.396197,
    "transactions": [
      {
        "date": "2020-09-18",
        "priceEur": 118000,
        "typeLocal": "Maison",
        "surfaceM2": 92,
        "isVefa": false
      }
    ]
  },
  "f6eff45d4429": {
    "id": "f6eff45d4429",
    "label": "3 RUE JACQUES IBERT, Dunkerque",
    "lat": 51.042597,
    "lng": 2.403881,
    "transactions": [
      {
        "date": "2023-09-29",
        "priceEur": 653000,
        "typeLocal": "Maison",
        "surfaceM2": 149,
        "isVefa": false
      },
      {
        "date": "2020-10-29",
        "priceEur": 100000,
        "typeLocal": "Maison",
        "surfaceM2": 89,
        "isVefa": false
      },
      {
        "date": "2020-09-21",
        "priceEur": 144500,
        "typeLocal": "Maison",
        "surfaceM2": 184,
        "isVefa": false
      }
    ]
  },
  "4aa48b147db6": {
    "id": "4aa48b147db6",
    "label": "60 RUE GASPARD NEUTS, Dunkerque",
    "lat": 51.047432,
    "lng": 2.396437,
    "transactions": [
      {
        "date": "2024-03-25",
        "priceEur": 180000,
        "typeLocal": "Maison",
        "surfaceM2": 140,
        "isVefa": false
      },
      {
        "date": "2022-07-20",
        "priceEur": 310000,
        "typeLocal": "Maison",
        "surfaceM2": 140,
        "isVefa": false
      },
      {
        "date": "2020-09-21",
        "priceEur": 280000,
        "typeLocal": "Maison",
        "surfaceM2": 140,
        "isVefa": false
      }
    ]
  },
  "185217896d39": {
    "id": "185217896d39",
    "label": "57 RUE PIERRE LEOSTIC, Dunkerque",
    "lat": 51.044517,
    "lng": 2.404785,
    "transactions": [
      {
        "date": "2024-09-11",
        "priceEur": 173000,
        "typeLocal": "Maison",
        "surfaceM2": 56,
        "isVefa": false
      },
      {
        "date": "2020-09-29",
        "priceEur": 131350,
        "typeLocal": "Maison",
        "surfaceM2": 56,
        "isVefa": false
      }
    ]
  },
  "6e7a7c0dd923": {
    "id": "6e7a7c0dd923",
    "label": "69 RUE PIERRE LEOSTIC, Dunkerque",
    "lat": 51.044472,
    "lng": 2.405065,
    "transactions": [
      {
        "date": "2020-09-30",
        "priceEur": 169000,
        "typeLocal": "Maison",
        "surfaceM2": 93,
        "isVefa": false
      }
    ]
  },
  "9f461cb74c8b": {
    "id": "9f461cb74c8b",
    "label": "140 AV DE LA MER, Dunkerque",
    "lat": 51.045225,
    "lng": 2.403163,
    "transactions": [
      {
        "date": "2020-10-03",
        "priceEur": 166475,
        "typeLocal": "Maison",
        "surfaceM2": 81,
        "isVefa": false
      }
    ]
  },
  "904e9ea09b82": {
    "id": "904e9ea09b82",
    "label": "65 RUE BEL AIR, Dunkerque",
    "lat": 51.045108,
    "lng": 2.397291,
    "transactions": [
      {
        "date": "2020-10-16",
        "priceEur": 153600,
        "typeLocal": "Appartement",
        "surfaceM2": 43,
        "isVefa": false
      },
      {
        "date": "2020-10-16",
        "priceEur": 153600,
        "typeLocal": "Appartement",
        "surfaceM2": 44,
        "isVefa": false
      }
    ]
  },
  "09490441a183": {
    "id": "09490441a183",
    "label": "39 RUE JULES FERRY, Dunkerque",
    "lat": 51.041859,
    "lng": 2.400894,
    "transactions": [
      {
        "date": "2020-10-09",
        "priceEur": 115000,
        "typeLocal": "Maison",
        "surfaceM2": 76,
        "isVefa": false
      }
    ]
  },
  "7b8ddb99a000": {
    "id": "7b8ddb99a000",
    "label": "14 RUE DE SAINT QUENTIN, Dunkerque",
    "lat": 51.048142,
    "lng": 2.395929,
    "transactions": [
      {
        "date": "2020-10-12",
        "priceEur": 172500,
        "typeLocal": "Maison",
        "surfaceM2": 107,
        "isVefa": false
      }
    ]
  },
  "d198351f3c78": {
    "id": "d198351f3c78",
    "label": "90 AV DE LA MER, Dunkerque",
    "lat": 51.04779,
    "lng": 2.401739,
    "transactions": [
      {
        "date": "2020-11-06",
        "priceEur": 200000,
        "typeLocal": "Appartement",
        "surfaceM2": 84,
        "isVefa": false
      },
      {
        "date": "2020-10-12",
        "priceEur": 195000,
        "typeLocal": "Appartement",
        "surfaceM2": 85,
        "isVefa": false
      }
    ]
  },
  "2fe3cc8b18b5": {
    "id": "2fe3cc8b18b5",
    "label": "41 RUE JEAN COCTEAU, Dunkerque",
    "lat": 51.046856,
    "lng": 2.405922,
    "transactions": [
      {
        "date": "2020-10-20",
        "priceEur": 208500,
        "typeLocal": "Maison",
        "surfaceM2": 90,
        "isVefa": false
      }
    ]
  },
  "ac84c44ecbae": {
    "id": "ac84c44ecbae",
    "label": "9 RUE WISSE MORNE, Dunkerque",
    "lat": 51.045288,
    "lng": 2.395531,
    "transactions": [
      {
        "date": "2020-10-02",
        "priceEur": 241000,
        "typeLocal": "Maison",
        "surfaceM2": 101,
        "isVefa": false
      }
    ]
  },
  "057cbb54f5c9": {
    "id": "057cbb54f5c9",
    "label": "139 RUE DU GENERAL HOCHE, Dunkerque",
    "lat": 51.044433,
    "lng": 2.40094,
    "transactions": [
      {
        "date": "2020-10-23",
        "priceEur": 130000,
        "typeLocal": "Appartement",
        "surfaceM2": 65,
        "isVefa": false
      }
    ]
  },
  "e3f6e7b65967": {
    "id": "e3f6e7b65967",
    "label": "36 RUE WISSE MORNE, Dunkerque",
    "lat": 51.044217,
    "lng": 2.395771,
    "transactions": [
      {
        "date": "2020-10-09",
        "priceEur": 268000,
        "typeLocal": "Maison",
        "surfaceM2": 154,
        "isVefa": false
      }
    ]
  },
  "88206a9aaa64": {
    "id": "88206a9aaa64",
    "label": "4 RUE BAGATELLE, Dunkerque",
    "lat": 51.048283,
    "lng": 2.402339,
    "transactions": [
      {
        "date": "2020-10-15",
        "priceEur": 265000,
        "typeLocal": "Maison",
        "surfaceM2": 71,
        "isVefa": false
      }
    ]
  },
  "6616fa02dcb4": {
    "id": "6616fa02dcb4",
    "label": "511 RUE ARAGO, Dunkerque",
    "lat": 51.04429,
    "lng": 2.40313,
    "transactions": [
      {
        "date": "2024-05-28",
        "priceEur": 240000,
        "typeLocal": "Maison",
        "surfaceM2": 88,
        "isVefa": false
      },
      {
        "date": "2020-10-28",
        "priceEur": 100000,
        "typeLocal": "Maison",
        "surfaceM2": 88,
        "isVefa": false
      }
    ]
  },
  "bdfad2b302b0": {
    "id": "bdfad2b302b0",
    "label": "18B RUE LAMARTINE, Dunkerque",
    "lat": 51.041988,
    "lng": 2.397363,
    "transactions": [
      {
        "date": "2020-10-16",
        "priceEur": 130000,
        "typeLocal": "Appartement",
        "surfaceM2": 111,
        "isVefa": false
      }
    ]
  },
  "d849a87bdd82": {
    "id": "d849a87bdd82",
    "label": "138 RUE BEL AIR, Dunkerque",
    "lat": 51.046924,
    "lng": 2.403479,
    "transactions": [
      {
        "date": "2022-07-11",
        "priceEur": 378350,
        "typeLocal": "Maison",
        "surfaceM2": 128,
        "isVefa": false
      },
      {
        "date": "2020-10-21",
        "priceEur": 313500,
        "typeLocal": "Maison",
        "surfaceM2": 128,
        "isVefa": false
      }
    ]
  },
  "f2c5d308184e": {
    "id": "f2c5d308184e",
    "label": "8 RUE FLOQUET, Dunkerque",
    "lat": 51.042126,
    "lng": 2.401004,
    "transactions": [
      {
        "date": "2022-09-30",
        "priceEur": 315000,
        "typeLocal": "Maison",
        "surfaceM2": 104,
        "isVefa": false
      },
      {
        "date": "2020-11-04",
        "priceEur": 180000,
        "typeLocal": "Maison",
        "surfaceM2": 104,
        "isVefa": false
      }
    ]
  },
  "f40fe95954fa": {
    "id": "f40fe95954fa",
    "label": "102 AV DE LA MER, Dunkerque",
    "lat": 51.047325,
    "lng": 2.402212,
    "transactions": [
      {
        "date": "2024-03-06",
        "priceEur": 70300,
        "typeLocal": "Appartement",
        "surfaceM2": 42,
        "isVefa": false
      },
      {
        "date": "2020-10-07",
        "priceEur": 74126,
        "typeLocal": "Appartement",
        "surfaceM2": 41,
        "isVefa": false
      }
    ]
  },
  "7e4721cda25d": {
    "id": "7e4721cda25d",
    "label": "73 RUE JULES FERRY, Dunkerque",
    "lat": 51.042179,
    "lng": 2.402325,
    "transactions": [
      {
        "date": "2020-10-31",
        "priceEur": 199600,
        "typeLocal": "Maison",
        "surfaceM2": 84,
        "isVefa": false
      }
    ]
  },
  "bb6c54345fd7": {
    "id": "bb6c54345fd7",
    "label": "91 RUE DES POILUS, Dunkerque",
    "lat": 51.047311,
    "lng": 2.397149,
    "transactions": [
      {
        "date": "2021-01-12",
        "priceEur": 145000,
        "typeLocal": "Appartement",
        "surfaceM2": 43,
        "isVefa": false
      },
      {
        "date": "2021-01-12",
        "priceEur": 145000,
        "typeLocal": "Appartement",
        "surfaceM2": 104,
        "isVefa": false
      },
      {
        "date": "2020-10-29",
        "priceEur": 100000,
        "typeLocal": "Appartement",
        "surfaceM2": 43,
        "isVefa": false
      },
      {
        "date": "2020-10-29",
        "priceEur": 100000,
        "typeLocal": "Appartement",
        "surfaceM2": 104,
        "isVefa": false
      }
    ]
  },
  "e345133ceda0": {
    "id": "e345133ceda0",
    "label": "105 RUE JULES FERRY, Dunkerque",
    "lat": 51.042532,
    "lng": 2.40398,
    "transactions": [
      {
        "date": "2023-02-28",
        "priceEur": 263250,
        "typeLocal": "Maison",
        "surfaceM2": 117,
        "isVefa": false
      },
      {
        "date": "2020-10-29",
        "priceEur": 100000,
        "typeLocal": "Maison",
        "surfaceM2": 82,
        "isVefa": false
      }
    ]
  },
  "2554864f0bca": {
    "id": "2554864f0bca",
    "label": "49 RUE ROUGET DE L ISLE, Dunkerque",
    "lat": 51.04338,
    "lng": 2.40114,
    "transactions": [
      {
        "date": "2021-07-08",
        "priceEur": 212000,
        "typeLocal": "Maison",
        "surfaceM2": 110,
        "isVefa": false
      },
      {
        "date": "2020-11-03",
        "priceEur": 195000,
        "typeLocal": "Maison",
        "surfaceM2": 110,
        "isVefa": false
      }
    ]
  },
  "cf35aee8d36b": {
    "id": "cf35aee8d36b",
    "label": "184 RUE DE L HOTEL DE VILLE, Dunkerque",
    "lat": 51.047614,
    "lng": 2.403709,
    "transactions": [
      {
        "date": "2021-03-19",
        "priceEur": 248650,
        "typeLocal": "Maison",
        "surfaceM2": 98,
        "isVefa": false
      },
      {
        "date": "2020-11-25",
        "priceEur": 208650,
        "typeLocal": "Maison",
        "surfaceM2": 98,
        "isVefa": false
      }
    ]
  },
  "77e3e69f8f6a": {
    "id": "77e3e69f8f6a",
    "label": "12 RUE ROUGET DE L ISLE, Dunkerque",
    "lat": 51.0425,
    "lng": 2.398913,
    "transactions": [
      {
        "date": "2021-07-05",
        "priceEur": 234900,
        "typeLocal": "Maison",
        "surfaceM2": 78,
        "isVefa": false
      },
      {
        "date": "2020-11-24",
        "priceEur": 224900,
        "typeLocal": "Maison",
        "surfaceM2": 78,
        "isVefa": false
      }
    ]
  },
  "e05f626845c8": {
    "id": "e05f626845c8",
    "label": "61 BD DE LA REPUBLIQUE MITTERRAN, Dunkerque",
    "lat": 51.043734,
    "lng": 2.398839,
    "transactions": [
      {
        "date": "2020-11-26",
        "priceEur": 165000,
        "typeLocal": "Maison",
        "surfaceM2": 98,
        "isVefa": false
      }
    ]
  },
  "7595c2f3d937": {
    "id": "7595c2f3d937",
    "label": "23 RUE VOLTAIRE, Dunkerque",
    "lat": 51.042331,
    "lng": 2.402393,
    "transactions": [
      {
        "date": "2020-11-23",
        "priceEur": 272650,
        "typeLocal": "Maison",
        "surfaceM2": 134,
        "isVefa": false
      }
    ]
  },
  "e4a50e8b2ace": {
    "id": "e4a50e8b2ace",
    "label": "103 RUE BIR HAKEIM, Dunkerque",
    "lat": 51.046933,
    "lng": 2.401687,
    "transactions": [
      {
        "date": "2024-12-16",
        "priceEur": 136000,
        "typeLocal": "Appartement",
        "surfaceM2": 55,
        "isVefa": false
      },
      {
        "date": "2023-12-19",
        "priceEur": 202000,
        "typeLocal": "Appartement",
        "surfaceM2": 62,
        "isVefa": false
      },
      {
        "date": "2021-07-13",
        "priceEur": 198000,
        "typeLocal": "Appartement",
        "surfaceM2": 62,
        "isVefa": false
      },
      {
        "date": "2021-05-06",
        "priceEur": 120000,
        "typeLocal": "Appartement",
        "surfaceM2": 48,
        "isVefa": false
      },
      {
        "date": "2020-11-30",
        "priceEur": 183000,
        "typeLocal": "Appartement",
        "surfaceM2": 62,
        "isVefa": false
      }
    ]
  },
  "28befac7c9c7": {
    "id": "28befac7c9c7",
    "label": "99 RUE BEL AIR, Dunkerque",
    "lat": 51.046104,
    "lng": 2.399944,
    "transactions": [
      {
        "date": "2024-05-31",
        "priceEur": 133000,
        "typeLocal": "Appartement",
        "surfaceM2": 42,
        "isVefa": false
      },
      {
        "date": "2022-01-04",
        "priceEur": 208000,
        "typeLocal": "Appartement",
        "surfaceM2": 73,
        "isVefa": false
      },
      {
        "date": "2020-11-26",
        "priceEur": 230000,
        "typeLocal": "Appartement",
        "surfaceM2": 104,
        "isVefa": false
      }
    ]
  },
  "ac4340ac8290": {
    "id": "ac4340ac8290",
    "label": "129 RUE DE L HOTEL DE VILLE, Dunkerque",
    "lat": 51.047018,
    "lng": 2.399865,
    "transactions": [
      {
        "date": "2020-12-04",
        "priceEur": 170000,
        "typeLocal": "Appartement",
        "surfaceM2": 33,
        "isVefa": false
      },
      {
        "date": "2020-12-04",
        "priceEur": 170000,
        "typeLocal": "Appartement",
        "surfaceM2": 55,
        "isVefa": false
      }
    ]
  },
  "6df6eab0b45d": {
    "id": "6df6eab0b45d",
    "label": "122 AV DE LA MER, Dunkerque",
    "lat": 51.04574,
    "lng": 2.40293,
    "transactions": [
      {
        "date": "2020-11-27",
        "priceEur": 230000,
        "typeLocal": "Appartement",
        "surfaceM2": 115,
        "isVefa": false
      }
    ]
  },
  "228774b25bbd": {
    "id": "228774b25bbd",
    "label": "57 RUE BIR HAKEIM, Dunkerque",
    "lat": 51.048294,
    "lng": 2.400699,
    "transactions": [
      {
        "date": "2021-09-21",
        "priceEur": 140000,
        "typeLocal": "Appartement",
        "surfaceM2": 94,
        "isVefa": false
      },
      {
        "date": "2020-12-04",
        "priceEur": 94350,
        "typeLocal": "Appartement",
        "surfaceM2": 62,
        "isVefa": false
      }
    ]
  },
  "eedce35b43fb": {
    "id": "eedce35b43fb",
    "label": "136B RUE DES POILUS, Dunkerque",
    "lat": 51.047601,
    "lng": 2.399464,
    "transactions": [
      {
        "date": "2021-10-25",
        "priceEur": 100000,
        "typeLocal": "Appartement",
        "surfaceM2": 64,
        "isVefa": false
      },
      {
        "date": "2021-04-15",
        "priceEur": 200000,
        "typeLocal": "Appartement",
        "surfaceM2": 64,
        "isVefa": false
      },
      {
        "date": "2021-04-15",
        "priceEur": 200000,
        "typeLocal": "Appartement",
        "surfaceM2": 62,
        "isVefa": false
      },
      {
        "date": "2020-12-15",
        "priceEur": 190000,
        "typeLocal": "Appartement",
        "surfaceM2": 64,
        "isVefa": false
      },
      {
        "date": "2020-12-15",
        "priceEur": 190000,
        "typeLocal": "Appartement",
        "surfaceM2": 62,
        "isVefa": false
      }
    ]
  },
  "5e06e7694f48": {
    "id": "5e06e7694f48",
    "label": "2 IMP MARECHAL, Dunkerque",
    "lat": 51.042113,
    "lng": 2.398637,
    "transactions": [
      {
        "date": "2020-12-17",
        "priceEur": 47500,
        "typeLocal": "Maison",
        "surfaceM2": 46,
        "isVefa": false
      }
    ]
  },
  "5a04e08b71ce": {
    "id": "5a04e08b71ce",
    "label": "70 RUE JULES FERRY, Dunkerque",
    "lat": 51.041866,
    "lng": 2.4025,
    "transactions": [
      {
        "date": "2020-12-17",
        "priceEur": 170000,
        "typeLocal": "Maison",
        "surfaceM2": 124,
        "isVefa": false
      }
    ]
  },
  "0af9fbe9b0a4": {
    "id": "0af9fbe9b0a4",
    "label": "470 RUE ARAGO, Dunkerque",
    "lat": 51.043931,
    "lng": 2.402715,
    "transactions": [
      {
        "date": "2020-12-10",
        "priceEur": 210000,
        "typeLocal": "Maison",
        "surfaceM2": 74,
        "isVefa": false
      }
    ]
  },
  "8338958ffe8c": {
    "id": "8338958ffe8c",
    "label": "121 RUE PAUL DOUMER, Dunkerque",
    "lat": 51.041791,
    "lng": 2.404255,
    "transactions": [
      {
        "date": "2020-12-30",
        "priceEur": 72000,
        "typeLocal": "Appartement",
        "surfaceM2": 49,
        "isVefa": false
      }
    ]
  },
  "65840942c11e": {
    "id": "65840942c11e",
    "label": "66 RUE ARAGO, Dunkerque",
    "lat": 51.042486,
    "lng": 2.397476,
    "transactions": [
      {
        "date": "2022-10-17",
        "priceEur": 129000,
        "typeLocal": "Appartement",
        "surfaceM2": 70,
        "isVefa": false
      },
      {
        "date": "2020-12-28",
        "priceEur": 117000,
        "typeLocal": "Appartement",
        "surfaceM2": 76,
        "isVefa": false
      }
    ]
  },
  "c37f7e61da5b": {
    "id": "c37f7e61da5b",
    "label": "64 RUE JACQUES BOMMELAER, Dunkerque",
    "lat": 51.045811,
    "lng": 2.398219,
    "transactions": [
      {
        "date": "2020-12-22",
        "priceEur": 74000,
        "typeLocal": "Appartement",
        "surfaceM2": 50,
        "isVefa": false
      }
    ]
  },
  "d58158afd0c8": {
    "id": "d58158afd0c8",
    "label": "40 RUE ROUGET DE L ISLE, Dunkerque",
    "lat": 51.042891,
    "lng": 2.400486,
    "transactions": [
      {
        "date": "2020-12-31",
        "priceEur": 194000,
        "typeLocal": "Appartement",
        "surfaceM2": 36,
        "isVefa": false
      },
      {
        "date": "2020-12-31",
        "priceEur": 194000,
        "typeLocal": "Appartement",
        "surfaceM2": 46,
        "isVefa": false
      },
      {
        "date": "2020-12-31",
        "priceEur": 194000,
        "typeLocal": "Appartement",
        "surfaceM2": 50,
        "isVefa": false
      }
    ]
  },
  "d70f12ef41a1": {
    "id": "d70f12ef41a1",
    "label": "13 RUE ROMBOUT, Dunkerque",
    "lat": 51.046397,
    "lng": 2.396703,
    "transactions": [
      {
        "date": "2023-05-03",
        "priceEur": 377500,
        "typeLocal": "Maison",
        "surfaceM2": 164,
        "isVefa": false
      },
      {
        "date": "2020-12-30",
        "priceEur": 365000,
        "typeLocal": "Maison",
        "surfaceM2": 164,
        "isVefa": false
      }
    ]
  },
  "bf3b8c0ccbe9": {
    "id": "bf3b8c0ccbe9",
    "label": "40 RUE PASTEUR, Dunkerque",
    "lat": 51.047487,
    "lng": 2.399421,
    "transactions": [
      {
        "date": "2021-01-05",
        "priceEur": 182270,
        "typeLocal": "Maison",
        "surfaceM2": 54,
        "isVefa": false
      }
    ]
  },
  "e54fe95a9cf4": {
    "id": "e54fe95a9cf4",
    "label": "15 RUE FRANCOIS TIXIER, Dunkerque",
    "lat": 51.043684,
    "lng": 2.396646,
    "transactions": [
      {
        "date": "2022-03-11",
        "priceEur": 168400,
        "typeLocal": "Appartement",
        "surfaceM2": 83,
        "isVefa": false
      },
      {
        "date": "2021-12-17",
        "priceEur": 70800,
        "typeLocal": "Appartement",
        "surfaceM2": 22,
        "isVefa": false
      },
      {
        "date": "2021-02-19",
        "priceEur": 189000,
        "typeLocal": "Appartement",
        "surfaceM2": 101,
        "isVefa": false
      },
      {
        "date": "2021-01-18",
        "priceEur": 247000,
        "typeLocal": "Appartement",
        "surfaceM2": 101,
        "isVefa": false
      }
    ]
  },
  "58f8c23bc0d0": {
    "id": "58f8c23bc0d0",
    "label": "10 RUE BAGATELLE, Dunkerque",
    "lat": 51.048277,
    "lng": 2.402629,
    "transactions": [
      {
        "date": "2021-01-15",
        "priceEur": 429000,
        "typeLocal": "Maison",
        "surfaceM2": 150,
        "isVefa": false
      }
    ]
  },
  "c3fca6bc119f": {
    "id": "c3fca6bc119f",
    "label": "202 RUE LEON BLUM, Dunkerque",
    "lat": 51.041921,
    "lng": 2.395672,
    "transactions": [
      {
        "date": "2021-01-15",
        "priceEur": 174350,
        "typeLocal": "Appartement",
        "surfaceM2": 105,
        "isVefa": false
      }
    ]
  },
  "3fb891da064c": {
    "id": "3fb891da064c",
    "label": "25 AV GASPARD MALO, Dunkerque",
    "lat": 51.046218,
    "lng": 2.39602,
    "transactions": [
      {
        "date": "2023-07-10",
        "priceEur": 133000,
        "typeLocal": "Appartement",
        "surfaceM2": 50,
        "isVefa": false
      },
      {
        "date": "2022-08-09",
        "priceEur": 100000,
        "typeLocal": "Appartement",
        "surfaceM2": 50,
        "isVefa": false
      },
      {
        "date": "2021-01-25",
        "priceEur": 76400,
        "typeLocal": "Appartement",
        "surfaceM2": 50,
        "isVefa": false
      }
    ]
  },
  "4fe50aacf165": {
    "id": "4fe50aacf165",
    "label": "46 RUE JULES FERRY, Dunkerque",
    "lat": 51.04163,
    "lng": 2.40155,
    "transactions": [
      {
        "date": "2021-01-19",
        "priceEur": 247000,
        "typeLocal": "Maison",
        "surfaceM2": 80,
        "isVefa": false
      }
    ]
  },
  "74efedd1fb6a": {
    "id": "74efedd1fb6a",
    "label": "11 RUE DUVAL LEROY, Dunkerque",
    "lat": 51.046532,
    "lng": 2.399847,
    "transactions": [
      {
        "date": "2021-02-12",
        "priceEur": 201700,
        "typeLocal": "Maison",
        "surfaceM2": 89,
        "isVefa": false
      }
    ]
  },
  "c67e0ca2ef9d": {
    "id": "c67e0ca2ef9d",
    "label": "4 IMP MARECHAL, Dunkerque",
    "lat": 51.042044,
    "lng": 2.398642,
    "transactions": [
      {
        "date": "2021-02-22",
        "priceEur": 127500,
        "typeLocal": "Maison",
        "surfaceM2": 40,
        "isVefa": false
      }
    ]
  },
  "432f4123f84c": {
    "id": "432f4123f84c",
    "label": "57 RUE FELIX FAURE, Dunkerque",
    "lat": 51.042668,
    "lng": 2.399846,
    "transactions": [
      {
        "date": "2021-02-19",
        "priceEur": 232000,
        "typeLocal": "Maison",
        "surfaceM2": 73,
        "isVefa": false
      }
    ]
  },
  "995ed8afb897": {
    "id": "995ed8afb897",
    "label": "101 RUE BEL AIR, Dunkerque",
    "lat": 51.046084,
    "lng": 2.400035,
    "transactions": [
      {
        "date": "2021-02-17",
        "priceEur": 152000,
        "typeLocal": "Maison",
        "surfaceM2": 90,
        "isVefa": false
      }
    ]
  },
  "fdd96b8b0322": {
    "id": "fdd96b8b0322",
    "label": "31 RUE MAXENCE VAN DER MEERSCH, Dunkerque",
    "lat": 51.045919,
    "lng": 2.405151,
    "transactions": [
      {
        "date": "2021-02-23",
        "priceEur": 202000,
        "typeLocal": "Maison",
        "surfaceM2": 91,
        "isVefa": false
      }
    ]
  },
  "db308096043b": {
    "id": "db308096043b",
    "label": "467 RUE WINSTON CHURCHILL, Dunkerque",
    "lat": 51.042494,
    "lng": 2.397725,
    "transactions": [
      {
        "date": "2021-03-02",
        "priceEur": 228006,
        "typeLocal": "Maison",
        "surfaceM2": 64,
        "isVefa": false
      }
    ]
  },
  "b420ecd1dce3": {
    "id": "b420ecd1dce3",
    "label": "22 RUE ROBERT VANGHELUWE, Dunkerque",
    "lat": 51.042148,
    "lng": 2.404976,
    "transactions": [
      {
        "date": "2022-04-29",
        "priceEur": 157000,
        "typeLocal": "Maison",
        "surfaceM2": 60,
        "isVefa": false
      },
      {
        "date": "2021-03-04",
        "priceEur": 140000,
        "typeLocal": "Maison",
        "surfaceM2": 60,
        "isVefa": false
      }
    ]
  },
  "ca5636595d5a": {
    "id": "ca5636595d5a",
    "label": "69B RUE DE ROUBAIX, Dunkerque",
    "lat": 51.044075,
    "lng": 2.396561,
    "transactions": [
      {
        "date": "2021-03-19",
        "priceEur": 129000,
        "typeLocal": "Appartement",
        "surfaceM2": 99,
        "isVefa": false
      }
    ]
  },
  "ac3a29559f2b": {
    "id": "ac3a29559f2b",
    "label": "32 RUE MAXENCE VAN DER MEERSCH, Dunkerque",
    "lat": 51.045622,
    "lng": 2.405349,
    "transactions": [
      {
        "date": "2021-03-29",
        "priceEur": 365800,
        "typeLocal": "Maison",
        "surfaceM2": 115,
        "isVefa": false
      }
    ]
  },
  "8774ac60982a": {
    "id": "8774ac60982a",
    "label": "65 RUE DE ROUBAIX, Dunkerque",
    "lat": 51.044006,
    "lng": 2.396372,
    "transactions": [
      {
        "date": "2021-03-24",
        "priceEur": 285000,
        "typeLocal": "Maison",
        "surfaceM2": 109,
        "isVefa": false
      }
    ]
  },
  "8b4247649589": {
    "id": "8b4247649589",
    "label": "141 AV ADOLPHE GEERAERT, Dunkerque",
    "lat": 51.04453,
    "lng": 2.400137,
    "transactions": [
      {
        "date": "2021-03-29",
        "priceEur": 195000,
        "typeLocal": "Appartement",
        "surfaceM2": 50,
        "isVefa": false
      },
      {
        "date": "2021-03-29",
        "priceEur": 195000,
        "typeLocal": "Appartement",
        "surfaceM2": 56,
        "isVefa": false
      },
      {
        "date": "2021-03-29",
        "priceEur": 195000,
        "typeLocal": "Appartement",
        "surfaceM2": 45,
        "isVefa": false
      }
    ]
  },
  "2931182f45b2": {
    "id": "2931182f45b2",
    "label": "111 AV DE LA MER, Dunkerque",
    "lat": 51.047176,
    "lng": 2.402901,
    "transactions": [
      {
        "date": "2021-03-25",
        "priceEur": 168000,
        "typeLocal": "Maison",
        "surfaceM2": 57,
        "isVefa": false
      }
    ]
  },
  "8b31c61a5c3d": {
    "id": "8b31c61a5c3d",
    "label": "12 RUE WISSE MORNE, Dunkerque",
    "lat": 51.045171,
    "lng": 2.39514,
    "transactions": [
      {
        "date": "2022-05-24",
        "priceEur": 372700,
        "typeLocal": "Maison",
        "surfaceM2": 146,
        "isVefa": false
      },
      {
        "date": "2021-03-29",
        "priceEur": 325000,
        "typeLocal": "Maison",
        "surfaceM2": 146,
        "isVefa": false
      }
    ]
  },
  "9a1294f10481": {
    "id": "9a1294f10481",
    "label": "32 AV GASPARD MALO, Dunkerque",
    "lat": 51.045391,
    "lng": 2.395811,
    "transactions": [
      {
        "date": "2021-04-02",
        "priceEur": 283000,
        "typeLocal": "Maison",
        "surfaceM2": 127,
        "isVefa": false
      }
    ]
  },
  "a471f756ba08": {
    "id": "a471f756ba08",
    "label": "85 AV ADOLPHE GEERAERT, Dunkerque",
    "lat": 51.045702,
    "lng": 2.396536,
    "transactions": [
      {
        "date": "2021-03-31",
        "priceEur": 110000,
        "typeLocal": "Appartement",
        "surfaceM2": 64,
        "isVefa": false
      }
    ]
  },
  "6f14a1165347": {
    "id": "6f14a1165347",
    "label": "240 RUE LEON BLUM, Dunkerque",
    "lat": 51.042195,
    "lng": 2.395349,
    "transactions": [
      {
        "date": "2021-04-01",
        "priceEur": 100000,
        "typeLocal": "Maison",
        "surfaceM2": 62,
        "isVefa": false
      }
    ]
  },
  "b6b1b8d833d7": {
    "id": "b6b1b8d833d7",
    "label": "121 RUE DE ROUBAIX, Dunkerque",
    "lat": 51.04471,
    "lng": 2.39929,
    "transactions": [
      {
        "date": "2021-04-23",
        "priceEur": 91500,
        "typeLocal": "Maison",
        "surfaceM2": 130,
        "isVefa": false
      }
    ]
  },
  "d233e19f530a": {
    "id": "d233e19f530a",
    "label": "5 RUE MAXENCE VAN DER MEERSCH, Dunkerque",
    "lat": 51.045624,
    "lng": 2.403887,
    "transactions": [
      {
        "date": "2021-04-23",
        "priceEur": 167000,
        "typeLocal": "Maison",
        "surfaceM2": 91,
        "isVefa": false
      }
    ]
  },
  "219fd2728989": {
    "id": "219fd2728989",
    "label": "114 RUE DE L HOTEL DE VILLE, Dunkerque",
    "lat": 51.046564,
    "lng": 2.399226,
    "transactions": [
      {
        "date": "2021-05-03",
        "priceEur": 133360,
        "typeLocal": "Appartement",
        "surfaceM2": 49,
        "isVefa": false
      }
    ]
  },
  "d1776bc648c9": {
    "id": "d1776bc648c9",
    "label": "143 AV ADOLPHE GEERAERT, Dunkerque",
    "lat": 51.044469,
    "lng": 2.400206,
    "transactions": [
      {
        "date": "2021-07-05",
        "priceEur": 98000,
        "typeLocal": "Appartement",
        "surfaceM2": 63,
        "isVefa": false
      },
      {
        "date": "2021-05-11",
        "priceEur": 123500,
        "typeLocal": "Appartement",
        "surfaceM2": 73,
        "isVefa": false
      },
      {
        "date": "2021-04-19",
        "priceEur": 110000,
        "typeLocal": "Appartement",
        "surfaceM2": 85,
        "isVefa": false
      }
    ]
  },
  "f7dfaf6d7bb7": {
    "id": "f7dfaf6d7bb7",
    "label": "160 RUE DES POILUS, Dunkerque",
    "lat": 51.047958,
    "lng": 2.400988,
    "transactions": [
      {
        "date": "2021-04-19",
        "priceEur": 245000,
        "typeLocal": "Maison",
        "surfaceM2": 86,
        "isVefa": false
      }
    ]
  },
  "7ea78cefab1b": {
    "id": "7ea78cefab1b",
    "label": "29 PL TURENNE, Dunkerque",
    "lat": 51.047129,
    "lng": 2.395557,
    "transactions": [
      {
        "date": "2025-02-24",
        "priceEur": 136250,
        "typeLocal": "Appartement",
        "surfaceM2": 50,
        "isVefa": false
      },
      {
        "date": "2021-04-23",
        "priceEur": 61000,
        "typeLocal": "Appartement",
        "surfaceM2": 19,
        "isVefa": false
      }
    ]
  },
  "e4f2b6b2c9ac": {
    "id": "e4f2b6b2c9ac",
    "label": "74 RUE BIR HAKEIM, Dunkerque",
    "lat": 51.048099,
    "lng": 2.400423,
    "transactions": [
      {
        "date": "2021-04-28",
        "priceEur": 108500,
        "typeLocal": "Appartement",
        "surfaceM2": 47,
        "isVefa": false
      }
    ]
  },
  "c6d8d909de4f": {
    "id": "c6d8d909de4f",
    "label": "14 RUE FLOQUET, Dunkerque",
    "lat": 51.042208,
    "lng": 2.401211,
    "transactions": [
      {
        "date": "2021-05-10",
        "priceEur": 250330,
        "typeLocal": "Maison",
        "surfaceM2": 80,
        "isVefa": false
      }
    ]
  },
  "675c2b32b9e3": {
    "id": "675c2b32b9e3",
    "label": "143 RUE BELLE RADE, Dunkerque",
    "lat": 51.04383,
    "lng": 2.395634,
    "transactions": [
      {
        "date": "2021-05-12",
        "priceEur": 95000,
        "typeLocal": "Maison",
        "surfaceM2": 34,
        "isVefa": false
      }
    ]
  },
  "0a77455ebbe1": {
    "id": "0a77455ebbe1",
    "label": "93 RUE PASTEUR, Dunkerque",
    "lat": 51.047206,
    "lng": 2.400161,
    "transactions": [
      {
        "date": "2025-01-24",
        "priceEur": 138700,
        "typeLocal": "Appartement",
        "surfaceM2": 58,
        "isVefa": false
      },
      {
        "date": "2021-10-06",
        "priceEur": 100000,
        "typeLocal": "Appartement",
        "surfaceM2": 65,
        "isVefa": false
      },
      {
        "date": "2021-05-03",
        "priceEur": 90000,
        "typeLocal": "Appartement",
        "surfaceM2": 43,
        "isVefa": false
      }
    ]
  },
  "7043eb1c831d": {
    "id": "7043eb1c831d",
    "label": "90 RUE DE ROUBAIX, Dunkerque",
    "lat": 51.043994,
    "lng": 2.397462,
    "transactions": [
      {
        "date": "2021-05-19",
        "priceEur": 177000,
        "typeLocal": "Maison",
        "surfaceM2": 104,
        "isVefa": false
      }
    ]
  },
  "0b4276140f95": {
    "id": "0b4276140f95",
    "label": "119 RUE PAUL DOUMER, Dunkerque",
    "lat": 51.041806,
    "lng": 2.404213,
    "transactions": [
      {
        "date": "2021-05-11",
        "priceEur": 80000,
        "typeLocal": "Maison",
        "surfaceM2": 133,
        "isVefa": false
      }
    ]
  },
  "7f808d7dc30b": {
    "id": "7f808d7dc30b",
    "label": "75 RUE FELIX FAURE, Dunkerque",
    "lat": 51.043358,
    "lng": 2.39943,
    "transactions": [
      {
        "date": "2021-05-27",
        "priceEur": 139040,
        "typeLocal": "Maison",
        "surfaceM2": 87,
        "isVefa": false
      }
    ]
  },
  "58bfff62dd15": {
    "id": "58bfff62dd15",
    "label": "12 IMP MARECHAL, Dunkerque",
    "lat": 51.042155,
    "lng": 2.399046,
    "transactions": [
      {
        "date": "2021-05-10",
        "priceEur": 133490,
        "typeLocal": "Maison",
        "surfaceM2": 95,
        "isVefa": false
      }
    ]
  },
  "29c278cb5788": {
    "id": "29c278cb5788",
    "label": "23 RUE VICTOR DERODE, Dunkerque",
    "lat": 51.042238,
    "lng": 2.399767,
    "transactions": [
      {
        "date": "2024-09-05",
        "priceEur": 200000,
        "typeLocal": "Maison",
        "surfaceM2": 80,
        "isVefa": false
      },
      {
        "date": "2021-07-07",
        "priceEur": 140000,
        "typeLocal": "Maison",
        "surfaceM2": 80,
        "isVefa": false
      },
      {
        "date": "2021-05-31",
        "priceEur": 97000,
        "typeLocal": "Maison",
        "surfaceM2": 80,
        "isVefa": false
      }
    ]
  },
  "1937f4ecca11": {
    "id": "1937f4ecca11",
    "label": "4 RUE LAMARTINE, Dunkerque",
    "lat": 51.041528,
    "lng": 2.397602,
    "transactions": [
      {
        "date": "2021-05-20",
        "priceEur": 171000,
        "typeLocal": "Maison",
        "surfaceM2": 100,
        "isVefa": false
      }
    ]
  },
  "73c1c1ca1ab1": {
    "id": "73c1c1ca1ab1",
    "label": "66 RUE FELIX FAURE, Dunkerque",
    "lat": 51.043429,
    "lng": 2.399801,
    "transactions": [
      {
        "date": "2021-05-28",
        "priceEur": 235000,
        "typeLocal": "Appartement",
        "surfaceM2": 46,
        "isVefa": false
      },
      {
        "date": "2021-05-28",
        "priceEur": 235000,
        "typeLocal": "Appartement",
        "surfaceM2": 48,
        "isVefa": false
      },
      {
        "date": "2021-05-28",
        "priceEur": 235000,
        "typeLocal": "Appartement",
        "surfaceM2": 41,
        "isVefa": false
      }
    ]
  },
  "cd6b19e11d5f": {
    "id": "cd6b19e11d5f",
    "label": "125 RUE GASPARD NEUTS, Dunkerque",
    "lat": 51.044567,
    "lng": 2.398637,
    "transactions": [
      {
        "date": "2021-05-20",
        "priceEur": 207320,
        "typeLocal": "Maison",
        "surfaceM2": 97,
        "isVefa": false
      }
    ]
  },
  "63767a0614bc": {
    "id": "63767a0614bc",
    "label": "44 RUE DE NORMANDIE, Dunkerque",
    "lat": 51.047148,
    "lng": 2.404879,
    "transactions": [
      {
        "date": "2022-10-26",
        "priceEur": 303670,
        "typeLocal": "Maison",
        "surfaceM2": 105,
        "isVefa": false
      },
      {
        "date": "2021-05-20",
        "priceEur": 280720,
        "typeLocal": "Maison",
        "surfaceM2": 105,
        "isVefa": false
      }
    ]
  },
  "56870de34874": {
    "id": "56870de34874",
    "label": "34 RUE FELIX FAURE, Dunkerque",
    "lat": 51.04211,
    "lng": 2.400656,
    "transactions": [
      {
        "date": "2021-05-28",
        "priceEur": 184000,
        "typeLocal": "Maison",
        "surfaceM2": 88,
        "isVefa": false
      }
    ]
  },
  "c7cb9a21ab2e": {
    "id": "c7cb9a21ab2e",
    "label": "79 BD DE LA REPUBLIQUE MITTERRAN, Dunkerque",
    "lat": 51.043996,
    "lng": 2.399883,
    "transactions": [
      {
        "date": "2021-06-16",
        "priceEur": 277500,
        "typeLocal": "Maison",
        "surfaceM2": 105,
        "isVefa": false
      }
    ]
  },
  "ba33cc75f620": {
    "id": "ba33cc75f620",
    "label": "62 BD DE LA REPUBLIQUE MITTERRAN, Dunkerque",
    "lat": 51.042427,
    "lng": 2.395547,
    "transactions": [
      {
        "date": "2021-06-24",
        "priceEur": 117000,
        "typeLocal": "Appartement",
        "surfaceM2": 68,
        "isVefa": false
      }
    ]
  },
  "3566690cdb58": {
    "id": "3566690cdb58",
    "label": "193 RUE DE L HOTEL DE VILLE, Dunkerque",
    "lat": 51.047994,
    "lng": 2.403691,
    "transactions": [
      {
        "date": "2025-03-26",
        "priceEur": 81000,
        "typeLocal": "Appartement",
        "surfaceM2": 35,
        "isVefa": false
      },
      {
        "date": "2023-11-13",
        "priceEur": 150000,
        "typeLocal": "Appartement",
        "surfaceM2": 74,
        "isVefa": false
      },
      {
        "date": "2023-02-24",
        "priceEur": 78500,
        "typeLocal": "Appartement",
        "surfaceM2": 33,
        "isVefa": false
      },
      {
        "date": "2021-06-07",
        "priceEur": 63000,
        "typeLocal": "Appartement",
        "surfaceM2": 35,
        "isVefa": false
      }
    ]
  },
  "ff0a493e81ec": {
    "id": "ff0a493e81ec",
    "label": "10 RUE ROUGET DE L ISLE, Dunkerque",
    "lat": 51.042469,
    "lng": 2.398839,
    "transactions": [
      {
        "date": "2021-06-29",
        "priceEur": 222000,
        "typeLocal": "Maison",
        "surfaceM2": 100,
        "isVefa": false
      }
    ]
  },
  "0b7a5f561536": {
    "id": "0b7a5f561536",
    "label": "135 RUE DU GENERAL HOCHE, Dunkerque",
    "lat": 51.044433,
    "lng": 2.40094,
    "transactions": [
      {
        "date": "2022-11-16",
        "priceEur": 150000,
        "typeLocal": "Appartement",
        "surfaceM2": 48,
        "isVefa": false
      },
      {
        "date": "2021-06-24",
        "priceEur": 129000,
        "typeLocal": "Appartement",
        "surfaceM2": 64,
        "isVefa": false
      }
    ]
  },
  "f04f62d4800e": {
    "id": "f04f62d4800e",
    "label": "29 RUE MAXENCE VAN DER MEERSCH, Dunkerque",
    "lat": 51.0459,
    "lng": 2.405072,
    "transactions": [
      {
        "date": "2024-02-13",
        "priceEur": 279500,
        "typeLocal": "Maison",
        "surfaceM2": 82,
        "isVefa": false
      },
      {
        "date": "2021-06-30",
        "priceEur": 232250,
        "typeLocal": "Maison",
        "surfaceM2": 82,
        "isVefa": false
      }
    ]
  },
  "5fde89bdf2e5": {
    "id": "5fde89bdf2e5",
    "label": "16 RUE FELIX FAURE, Dunkerque",
    "lat": 51.04153,
    "lng": 2.401053,
    "transactions": [
      {
        "date": "2021-07-02",
        "priceEur": 116150,
        "typeLocal": "Maison",
        "surfaceM2": 88,
        "isVefa": false
      }
    ]
  },
  "d32215dacdc2": {
    "id": "d32215dacdc2",
    "label": "7 RUE EMILE VERHAEREN, Dunkerque",
    "lat": 51.046791,
    "lng": 2.403562,
    "transactions": [
      {
        "date": "2021-07-06",
        "priceEur": 191580,
        "typeLocal": "Appartement",
        "surfaceM2": 54,
        "isVefa": false
      }
    ]
  },
  "e4f3ebdc8098": {
    "id": "e4f3ebdc8098",
    "label": "116 RUE BEL AIR, Dunkerque",
    "lat": 51.045932,
    "lng": 2.400375,
    "transactions": [
      {
        "date": "2021-07-12",
        "priceEur": 367740,
        "typeLocal": "Maison",
        "surfaceM2": 150,
        "isVefa": false
      }
    ]
  },
  "7d8e30259823": {
    "id": "7d8e30259823",
    "label": "18 RUE DES ECOLES, Dunkerque",
    "lat": 51.047492,
    "lng": 2.397285,
    "transactions": [
      {
        "date": "2021-06-24",
        "priceEur": 167000,
        "typeLocal": "Maison",
        "surfaceM2": 65,
        "isVefa": false
      }
    ]
  },
  "81ef00348ff3": {
    "id": "81ef00348ff3",
    "label": "27 RUE EMILE VERHAEREN, Dunkerque",
    "lat": 51.047115,
    "lng": 2.40435,
    "transactions": [
      {
        "date": "2021-07-06",
        "priceEur": 199950,
        "typeLocal": "Maison",
        "surfaceM2": 83,
        "isVefa": false
      }
    ]
  },
  "52536ba169e1": {
    "id": "52536ba169e1",
    "label": "19 RUE WISSE MORNE, Dunkerque",
    "lat": 51.045019,
    "lng": 2.395698,
    "transactions": [
      {
        "date": "2021-07-20",
        "priceEur": 265000,
        "typeLocal": "Maison",
        "surfaceM2": 88,
        "isVefa": false
      }
    ]
  },
  "178f61b0a3c4": {
    "id": "178f61b0a3c4",
    "label": "85 RUE GASPARD NEUTS, Dunkerque",
    "lat": 51.046081,
    "lng": 2.397705,
    "transactions": [
      {
        "date": "2021-07-28",
        "priceEur": 220000,
        "typeLocal": "Maison",
        "surfaceM2": 105,
        "isVefa": false
      }
    ]
  },
  "5c446959bc68": {
    "id": "5c446959bc68",
    "label": "71 RUE PASTEUR, Dunkerque",
    "lat": 51.047951,
    "lng": 2.399718,
    "transactions": [
      {
        "date": "2021-07-13",
        "priceEur": 225500,
        "typeLocal": "Maison",
        "surfaceM2": 125,
        "isVefa": false
      }
    ]
  },
  "6212c4fad482": {
    "id": "6212c4fad482",
    "label": "88 AV DE LA MER, Dunkerque",
    "lat": 51.047915,
    "lng": 2.40189,
    "transactions": [
      {
        "date": "2021-07-29",
        "priceEur": 300000,
        "typeLocal": "Maison",
        "surfaceM2": 86,
        "isVefa": false
      }
    ]
  },
  "c6ce228f7c3d": {
    "id": "c6ce228f7c3d",
    "label": "69B RUE DE L HOTEL DE VILLE, Dunkerque",
    "lat": 51.046008,
    "lng": 2.396043,
    "transactions": [
      {
        "date": "2021-07-29",
        "priceEur": 377000,
        "typeLocal": "Appartement",
        "surfaceM2": 140,
        "isVefa": false
      }
    ]
  },
  "38ed59f3e9a8": {
    "id": "38ed59f3e9a8",
    "label": "543 RUE ARAGO, Dunkerque",
    "lat": 51.044468,
    "lng": 2.403477,
    "transactions": [
      {
        "date": "2021-08-04",
        "priceEur": 135300,
        "typeLocal": "Maison",
        "surfaceM2": 83,
        "isVefa": false
      }
    ]
  },
  "ed5166b51fca": {
    "id": "ed5166b51fca",
    "label": "6 RUE DUVAL LEROY, Dunkerque",
    "lat": 51.04619,
    "lng": 2.399699,
    "transactions": [
      {
        "date": "2021-08-06",
        "priceEur": 320000,
        "typeLocal": "Maison",
        "surfaceM2": 165,
        "isVefa": false
      }
    ]
  },
  "6bc3c8fdf9bc": {
    "id": "6bc3c8fdf9bc",
    "label": "9 RUE DE BAPAUME, Dunkerque",
    "lat": 51.047442,
    "lng": 2.396114,
    "transactions": [
      {
        "date": "2021-08-17",
        "priceEur": 260000,
        "typeLocal": "Maison",
        "surfaceM2": 127,
        "isVefa": false
      }
    ]
  },
  "a55643390b96": {
    "id": "a55643390b96",
    "label": "183 RUE BEL AIR, Dunkerque",
    "lat": 51.047577,
    "lng": 2.404615,
    "transactions": [
      {
        "date": "2024-02-20",
        "priceEur": 268000,
        "typeLocal": "Maison",
        "surfaceM2": 80,
        "isVefa": false
      },
      {
        "date": "2021-08-07",
        "priceEur": 171000,
        "typeLocal": "Maison",
        "surfaceM2": 80,
        "isVefa": false
      }
    ]
  },
  "117be4be7003": {
    "id": "117be4be7003",
    "label": "84 RUE JULES FERRY, Dunkerque",
    "lat": 51.042112,
    "lng": 2.403134,
    "transactions": [
      {
        "date": "2024-03-01",
        "priceEur": 245800,
        "typeLocal": "Maison",
        "surfaceM2": 88,
        "isVefa": false
      },
      {
        "date": "2021-08-02",
        "priceEur": 195000,
        "typeLocal": "Maison",
        "surfaceM2": 88,
        "isVefa": false
      }
    ]
  },
  "0df9d0c8939a": {
    "id": "0df9d0c8939a",
    "label": "57 RUE DE NORMANDIE, Dunkerque",
    "lat": 51.046471,
    "lng": 2.40576,
    "transactions": [
      {
        "date": "2021-08-10",
        "priceEur": 164000,
        "typeLocal": "Maison",
        "surfaceM2": 73,
        "isVefa": false
      }
    ]
  },
  "276e921597cf": {
    "id": "276e921597cf",
    "label": "16 RUE DE BAPAUME, Dunkerque",
    "lat": 51.0472,
    "lng": 2.396499,
    "transactions": [
      {
        "date": "2021-08-24",
        "priceEur": 100000,
        "typeLocal": "Appartement",
        "surfaceM2": 53,
        "isVefa": false
      }
    ]
  },
  "50a28d7c038d": {
    "id": "50a28d7c038d",
    "label": "148 BD DE LA REPUBLIQUE MITTERRAN, Dunkerque",
    "lat": 51.04393,
    "lng": 2.400978,
    "transactions": [
      {
        "date": "2021-08-23",
        "priceEur": 136500,
        "typeLocal": "Maison",
        "surfaceM2": 108,
        "isVefa": false
      }
    ]
  },
  "efe12abe9a71": {
    "id": "efe12abe9a71",
    "label": "14 RUE PIERRE LEOSTIC, Dunkerque",
    "lat": 51.043651,
    "lng": 2.403458,
    "transactions": [
      {
        "date": "2021-08-25",
        "priceEur": 145000,
        "typeLocal": "Maison",
        "surfaceM2": 98,
        "isVefa": false
      }
    ]
  },
  "d471e9b06696": {
    "id": "d471e9b06696",
    "label": "181 RUE ARAGO, Dunkerque",
    "lat": 51.043169,
    "lng": 2.398738,
    "transactions": [
      {
        "date": "2022-05-12",
        "priceEur": 153500,
        "typeLocal": "Appartement",
        "surfaceM2": 46,
        "isVefa": false
      },
      {
        "date": "2022-05-12",
        "priceEur": 153500,
        "typeLocal": "Appartement",
        "surfaceM2": 60,
        "isVefa": false
      },
      {
        "date": "2021-08-24",
        "priceEur": 87820,
        "typeLocal": "Appartement",
        "surfaceM2": 52,
        "isVefa": false
      }
    ]
  },
  "22ccb812b3ed": {
    "id": "22ccb812b3ed",
    "label": "70 BD DE LA REPUBLIQUE MITTERRAN, Dunkerque",
    "lat": 51.042573,
    "lng": 2.395835,
    "transactions": [
      {
        "date": "2021-08-09",
        "priceEur": 355000,
        "typeLocal": "Maison",
        "surfaceM2": 144,
        "isVefa": false
      }
    ]
  },
  "fe0ba751caef": {
    "id": "fe0ba751caef",
    "label": "83 BD DE LA REPUBLIQUE MITTERRAN, Dunkerque",
    "lat": 51.044058,
    "lng": 2.400029,
    "transactions": [
      {
        "date": "2021-08-26",
        "priceEur": 239300,
        "typeLocal": "Maison",
        "surfaceM2": 134,
        "isVefa": false
      }
    ]
  },
  "a5b75bedfda6": {
    "id": "a5b75bedfda6",
    "label": "4 RUE LAFAYETTE, Dunkerque",
    "lat": 51.042398,
    "lng": 2.397277,
    "transactions": [
      {
        "date": "2021-08-27",
        "priceEur": 200000,
        "typeLocal": "Maison",
        "surfaceM2": 100,
        "isVefa": false
      }
    ]
  },
  "77e56f17bccc": {
    "id": "77e56f17bccc",
    "label": "24 RUE FELIX FAURE, Dunkerque",
    "lat": 51.041837,
    "lng": 2.400736,
    "transactions": [
      {
        "date": "2021-08-20",
        "priceEur": 86500,
        "typeLocal": "Maison",
        "surfaceM2": 68,
        "isVefa": false
      }
    ]
  },
  "263ea289de69": {
    "id": "263ea289de69",
    "label": "36 RUE JULES FERRY, Dunkerque",
    "lat": 51.041655,
    "lng": 2.40091,
    "transactions": [
      {
        "date": "2021-09-01",
        "priceEur": 143420,
        "typeLocal": "Maison",
        "surfaceM2": 84,
        "isVefa": false
      }
    ]
  },
  "7d0bdbc21264": {
    "id": "7d0bdbc21264",
    "label": "27 RUE MAXENCE VAN DER MEERSCH, Dunkerque",
    "lat": 51.045879,
    "lng": 2.404997,
    "transactions": [
      {
        "date": "2021-09-07",
        "priceEur": 263500,
        "typeLocal": "Maison",
        "surfaceM2": 94,
        "isVefa": false
      }
    ]
  },
  "8418ef34168d": {
    "id": "8418ef34168d",
    "label": "1 RUE VICTOR DERODE, Dunkerque",
    "lat": 51.041737,
    "lng": 2.400115,
    "transactions": [
      {
        "date": "2021-08-24",
        "priceEur": 47000,
        "typeLocal": "Maison",
        "surfaceM2": 88,
        "isVefa": false
      }
    ]
  },
  "6d76d60ea3b1": {
    "id": "6d76d60ea3b1",
    "label": "86 RUE PASTEUR, Dunkerque",
    "lat": 51.045475,
    "lng": 2.40064,
    "transactions": [
      {
        "date": "2021-09-08",
        "priceEur": 216000,
        "typeLocal": "Maison",
        "surfaceM2": 82,
        "isVefa": false
      }
    ]
  },
  "d17f3b63c2fe": {
    "id": "d17f3b63c2fe",
    "label": "2 RUE LAMARTINE, Dunkerque",
    "lat": 51.041456,
    "lng": 2.3976,
    "transactions": [
      {
        "date": "2021-09-03",
        "priceEur": 190700,
        "typeLocal": "Maison",
        "surfaceM2": 72,
        "isVefa": false
      }
    ]
  },
  "a72be258e143": {
    "id": "a72be258e143",
    "label": "1 RUE FRANCOIS TIXIER, Dunkerque",
    "lat": 51.043413,
    "lng": 2.396056,
    "transactions": [
      {
        "date": "2023-06-16",
        "priceEur": 132100,
        "typeLocal": "Appartement",
        "surfaceM2": 55,
        "isVefa": false
      },
      {
        "date": "2021-09-16",
        "priceEur": 90000,
        "typeLocal": "Appartement",
        "surfaceM2": 68,
        "isVefa": false
      }
    ]
  },
  "246c2d7f86e6": {
    "id": "246c2d7f86e6",
    "label": "114B AV ADOLPHE GEERAERT, Dunkerque",
    "lat": 51.044943,
    "lng": 2.397678,
    "transactions": [
      {
        "date": "2021-09-10",
        "priceEur": 245000,
        "typeLocal": "Appartement",
        "surfaceM2": 59,
        "isVefa": false
      },
      {
        "date": "2021-09-10",
        "priceEur": 245000,
        "typeLocal": "Appartement",
        "surfaceM2": 58,
        "isVefa": false
      }
    ]
  },
  "7213e89eeac0": {
    "id": "7213e89eeac0",
    "label": "162 RUE BEL AIR, Dunkerque",
    "lat": 51.047214,
    "lng": 2.404481,
    "transactions": [
      {
        "date": "2021-09-14",
        "priceEur": 261500,
        "typeLocal": "Maison",
        "surfaceM2": 92,
        "isVefa": false
      }
    ]
  },
  "9b17aae75ff2": {
    "id": "9b17aae75ff2",
    "label": "424 RUE WINSTON CHURCHILL, Dunkerque",
    "lat": 51.042273,
    "lng": 2.398424,
    "transactions": [
      {
        "date": "2024-02-16",
        "priceEur": 301000,
        "typeLocal": "Maison",
        "surfaceM2": 98,
        "isVefa": false
      },
      {
        "date": "2021-09-22",
        "priceEur": 120000,
        "typeLocal": "Maison",
        "surfaceM2": 98,
        "isVefa": false
      }
    ]
  },
  "15deb4319ca8": {
    "id": "15deb4319ca8",
    "label": "13 RUE WISSE MORNE, Dunkerque",
    "lat": 51.04518,
    "lng": 2.395599,
    "transactions": [
      {
        "date": "2021-09-28",
        "priceEur": 318250,
        "typeLocal": "Maison",
        "surfaceM2": 90,
        "isVefa": false
      }
    ]
  },
  "3b870e29c113": {
    "id": "3b870e29c113",
    "label": "118 BD DE LA REPUBLIQUE MITTERRAN, Dunkerque",
    "lat": 51.043456,
    "lng": 2.399399,
    "transactions": [
      {
        "date": "2021-09-29",
        "priceEur": 100000,
        "typeLocal": "Maison",
        "surfaceM2": 96,
        "isVefa": false
      }
    ]
  },
  "d706eadcc9fd": {
    "id": "d706eadcc9fd",
    "label": "14 RUE FRANCOIS TIXIER, Dunkerque",
    "lat": 51.043708,
    "lng": 2.398455,
    "transactions": [
      {
        "date": "2021-09-24",
        "priceEur": 410000,
        "typeLocal": "Maison",
        "surfaceM2": 300,
        "isVefa": false
      }
    ]
  },
  "edf8ffdd09c5": {
    "id": "edf8ffdd09c5",
    "label": "11 RUE DE BAPAUME, Dunkerque",
    "lat": 51.047448,
    "lng": 2.396196,
    "transactions": [
      {
        "date": "2021-10-08",
        "priceEur": 342190,
        "typeLocal": "Maison",
        "surfaceM2": 107,
        "isVefa": false
      }
    ]
  },
  "a4b03918c1ab": {
    "id": "a4b03918c1ab",
    "label": "7 RUE DE BAPAUME, Dunkerque",
    "lat": 51.047424,
    "lng": 2.396033,
    "transactions": [
      {
        "date": "2021-10-13",
        "priceEur": 294400,
        "typeLocal": "Maison",
        "surfaceM2": 117,
        "isVefa": false
      }
    ]
  },
  "3c20e7c25d36": {
    "id": "3c20e7c25d36",
    "label": "58 BD DE LA REPUBLIQUE MITTERRAN, Dunkerque",
    "lat": 51.04235,
    "lng": 2.395374,
    "transactions": [
      {
        "date": "2021-10-15",
        "priceEur": 320200,
        "typeLocal": "Maison",
        "surfaceM2": 140,
        "isVefa": false
      }
    ]
  },
  "1fa941ecce8c": {
    "id": "1fa941ecce8c",
    "label": "2 PL DE L EUROPE, Dunkerque",
    "lat": 51.043133,
    "lng": 2.398573,
    "transactions": [
      {
        "date": "2021-10-08",
        "priceEur": 249000,
        "typeLocal": "Appartement",
        "surfaceM2": 34,
        "isVefa": false
      },
      {
        "date": "2021-10-08",
        "priceEur": 249000,
        "typeLocal": "Appartement",
        "surfaceM2": 54,
        "isVefa": false
      },
      {
        "date": "2021-10-08",
        "priceEur": 249000,
        "typeLocal": "Appartement",
        "surfaceM2": 32,
        "isVefa": false
      }
    ]
  },
  "97fe30e6ed67": {
    "id": "97fe30e6ed67",
    "label": "142 AV DE LA MER, Dunkerque",
    "lat": 51.045178,
    "lng": 2.403193,
    "transactions": [
      {
        "date": "2021-10-18",
        "priceEur": 190000,
        "typeLocal": "Maison",
        "surfaceM2": 97,
        "isVefa": false
      }
    ]
  },
  "09a608395eff": {
    "id": "09a608395eff",
    "label": "48 RUE JULES FERRY, Dunkerque",
    "lat": 51.041645,
    "lng": 2.401639,
    "transactions": [
      {
        "date": "2021-10-18",
        "priceEur": 110000,
        "typeLocal": "Appartement",
        "surfaceM2": 68,
        "isVefa": false
      }
    ]
  },
  "8264fd59b75b": {
    "id": "8264fd59b75b",
    "label": "75 RUE PASTEUR, Dunkerque",
    "lat": 51.047671,
    "lng": 2.399761,
    "transactions": [
      {
        "date": "2023-12-12",
        "priceEur": 542450,
        "typeLocal": "Maison",
        "surfaceM2": 203,
        "isVefa": false
      },
      {
        "date": "2021-10-22",
        "priceEur": 450000,
        "typeLocal": "Maison",
        "surfaceM2": 203,
        "isVefa": false
      }
    ]
  },
  "9ecef78a0015": {
    "id": "9ecef78a0015",
    "label": "83 AV ADOLPHE GEERAERT, Dunkerque",
    "lat": 51.045745,
    "lng": 2.396414,
    "transactions": [
      {
        "date": "2021-10-25",
        "priceEur": 315000,
        "typeLocal": "Maison",
        "surfaceM2": 141,
        "isVefa": false
      }
    ]
  },
  "04217123322c": {
    "id": "04217123322c",
    "label": "1 RUE LAMARTINE, Dunkerque",
    "lat": 51.041418,
    "lng": 2.397339,
    "transactions": [
      {
        "date": "2021-11-16",
        "priceEur": 150000,
        "typeLocal": "Maison",
        "surfaceM2": 80,
        "isVefa": false
      }
    ]
  },
  "be32f2031f79": {
    "id": "be32f2031f79",
    "label": "33 RUE JULES FERRY, Dunkerque",
    "lat": 51.041727,
    "lng": 2.400432,
    "transactions": [
      {
        "date": "2021-11-16",
        "priceEur": 130000,
        "typeLocal": "Maison",
        "surfaceM2": 86,
        "isVefa": false
      }
    ]
  },
  "0ac86b079d12": {
    "id": "0ac86b079d12",
    "label": "43 RUE BEL AIR, Dunkerque",
    "lat": 51.044581,
    "lng": 2.395155,
    "transactions": [
      {
        "date": "2021-11-22",
        "priceEur": 170000,
        "typeLocal": "Appartement",
        "surfaceM2": 76,
        "isVefa": false
      },
      {
        "date": "2021-11-22",
        "priceEur": 170000,
        "typeLocal": "Appartement",
        "surfaceM2": 120,
        "isVefa": false
      }
    ]
  },
  "3dc1d33caf9f": {
    "id": "3dc1d33caf9f",
    "label": "43 RUE ROUGET DE L ISLE, Dunkerque",
    "lat": 51.043316,
    "lng": 2.40091,
    "transactions": [
      {
        "date": "2021-11-17",
        "priceEur": 192850,
        "typeLocal": "Maison",
        "surfaceM2": 109,
        "isVefa": false
      }
    ]
  },
  "5993dbed4692": {
    "id": "5993dbed4692",
    "label": "10 RUE FLOQUET, Dunkerque",
    "lat": 51.04216,
    "lng": 2.401062,
    "transactions": [
      {
        "date": "2021-11-10",
        "priceEur": 105000,
        "typeLocal": "Maison",
        "surfaceM2": 80,
        "isVefa": false
      }
    ]
  },
  "4deb0d602633": {
    "id": "4deb0d602633",
    "label": "26 AV KLEBER, Dunkerque",
    "lat": 51.047847,
    "lng": 2.396965,
    "transactions": [
      {
        "date": "2021-11-08",
        "priceEur": 220000,
        "typeLocal": "Maison",
        "surfaceM2": 80,
        "isVefa": false
      }
    ]
  },
  "85014e60af61": {
    "id": "85014e60af61",
    "label": "107 RUE BEL AIR, Dunkerque",
    "lat": 51.046154,
    "lng": 2.400214,
    "transactions": [
      {
        "date": "2021-11-10",
        "priceEur": 184000,
        "typeLocal": "Maison",
        "surfaceM2": 100,
        "isVefa": false
      }
    ]
  },
  "1d7f01f5b031": {
    "id": "1d7f01f5b031",
    "label": "81 RUE DE L HOTEL DE VILLE, Dunkerque",
    "lat": 51.046312,
    "lng": 2.396982,
    "transactions": [
      {
        "date": "2023-06-16",
        "priceEur": 174000,
        "typeLocal": "Appartement",
        "surfaceM2": 103,
        "isVefa": false
      },
      {
        "date": "2021-11-02",
        "priceEur": 195000,
        "typeLocal": "Appartement",
        "surfaceM2": 98,
        "isVefa": false
      }
    ]
  },
  "c005d4710355": {
    "id": "c005d4710355",
    "label": "78 RUE ARAGO, Dunkerque",
    "lat": 51.042667,
    "lng": 2.397528,
    "transactions": [
      {
        "date": "2021-11-19",
        "priceEur": 200000,
        "typeLocal": "Maison",
        "surfaceM2": 66,
        "isVefa": false
      }
    ]
  },
  "60b8c755fdfe": {
    "id": "60b8c755fdfe",
    "label": "35 RUE PIERRE LEOSTIC, Dunkerque",
    "lat": 51.044404,
    "lng": 2.404392,
    "transactions": [
      {
        "date": "2021-12-15",
        "priceEur": 105000,
        "typeLocal": "Maison",
        "surfaceM2": 48,
        "isVefa": false
      }
    ]
  },
  "d8993c64f973": {
    "id": "d8993c64f973",
    "label": "10 RUE LUCIEN CARLIER, Dunkerque",
    "lat": 51.042566,
    "lng": 2.399433,
    "transactions": [
      {
        "date": "2021-12-07",
        "priceEur": 95000,
        "typeLocal": "Maison",
        "surfaceM2": 67,
        "isVefa": false
      }
    ]
  },
  "c39404ac1b71": {
    "id": "c39404ac1b71",
    "label": "66 RUE DU GENERAL HOCHE, Dunkerque",
    "lat": 51.045304,
    "lng": 2.399381,
    "transactions": [
      {
        "date": "2024-06-28",
        "priceEur": 543000,
        "typeLocal": "Maison",
        "surfaceM2": 160,
        "isVefa": false
      },
      {
        "date": "2021-12-15",
        "priceEur": 470000,
        "typeLocal": "Maison",
        "surfaceM2": 160,
        "isVefa": false
      }
    ]
  },
  "18cdf223597c": {
    "id": "18cdf223597c",
    "label": "50 RUE JACQUES BOMMELAER, Dunkerque",
    "lat": 51.046225,
    "lng": 2.398087,
    "transactions": [
      {
        "date": "2021-12-21",
        "priceEur": 220000,
        "typeLocal": "Appartement",
        "surfaceM2": 44,
        "isVefa": false
      },
      {
        "date": "2021-12-21",
        "priceEur": 220000,
        "typeLocal": "Appartement",
        "surfaceM2": 41,
        "isVefa": false
      }
    ]
  },
  "6931f64b210c": {
    "id": "6931f64b210c",
    "label": "10 RUE LAMARTINE, Dunkerque",
    "lat": 51.041698,
    "lng": 2.397497,
    "transactions": [
      {
        "date": "2021-12-21",
        "priceEur": 150000,
        "typeLocal": "Appartement",
        "surfaceM2": 60,
        "isVefa": false
      },
      {
        "date": "2021-12-21",
        "priceEur": 150000,
        "typeLocal": "Appartement",
        "surfaceM2": 55,
        "isVefa": false
      }
    ]
  },
  "ff65deded77f": {
    "id": "ff65deded77f",
    "label": "17 RUE VOLTAIRE, Dunkerque",
    "lat": 51.041973,
    "lng": 2.402587,
    "transactions": [
      {
        "date": "2021-12-31",
        "priceEur": 244000,
        "typeLocal": "Maison",
        "surfaceM2": 83,
        "isVefa": false
      }
    ]
  },
  "f3a36e8101c6": {
    "id": "f3a36e8101c6",
    "label": "93 BD DE LA REPUBLIQUE MITTERRAN, Dunkerque",
    "lat": 51.044433,
    "lng": 2.40094,
    "transactions": [
      {
        "date": "2023-08-30",
        "priceEur": 125000,
        "typeLocal": "Appartement",
        "surfaceM2": 60,
        "isVefa": false
      },
      {
        "date": "2022-04-27",
        "priceEur": 121600,
        "typeLocal": "Appartement",
        "surfaceM2": 69,
        "isVefa": false
      },
      {
        "date": "2022-03-21",
        "priceEur": 171000,
        "typeLocal": "Appartement",
        "surfaceM2": 83,
        "isVefa": false
      },
      {
        "date": "2021-12-28",
        "priceEur": 152000,
        "typeLocal": "Appartement",
        "surfaceM2": 67,
        "isVefa": false
      }
    ]
  },
  "48445a989ed5": {
    "id": "48445a989ed5",
    "label": "16 RUE MAXENCE VAN DER MEERSCH, Dunkerque",
    "lat": 51.045427,
    "lng": 2.404558,
    "transactions": [
      {
        "date": "2021-11-26",
        "priceEur": 222000,
        "typeLocal": "Maison",
        "surfaceM2": 95,
        "isVefa": false
      }
    ]
  },
  "21065d862cea": {
    "id": "21065d862cea",
    "label": "11 RUE LUCIEN CARLIER, Dunkerque",
    "lat": 51.042438,
    "lng": 2.399936,
    "transactions": [
      {
        "date": "2022-01-03",
        "priceEur": 110000,
        "typeLocal": "Maison",
        "surfaceM2": 81,
        "isVefa": false
      }
    ]
  },
  "4a3a4d43d21a": {
    "id": "4a3a4d43d21a",
    "label": "21 RUE MAXENCE VAN DER MEERSCH, Dunkerque",
    "lat": 51.045798,
    "lng": 2.404645,
    "transactions": [
      {
        "date": "2022-06-03",
        "priceEur": 160000,
        "typeLocal": "Maison",
        "surfaceM2": 80,
        "isVefa": false
      },
      {
        "date": "2022-01-21",
        "priceEur": 115000,
        "typeLocal": "Maison",
        "surfaceM2": 80,
        "isVefa": false
      }
    ]
  },
  "8d396f085698": {
    "id": "8d396f085698",
    "label": "71 RUE DES POILUS, Dunkerque",
    "lat": 51.047024,
    "lng": 2.395984,
    "transactions": [
      {
        "date": "2022-01-24",
        "priceEur": 314165,
        "typeLocal": "Maison",
        "surfaceM2": 149,
        "isVefa": false
      }
    ]
  },
  "284d69722bef": {
    "id": "284d69722bef",
    "label": "56 RUE JACQUES BOMMELAER, Dunkerque",
    "lat": 51.046023,
    "lng": 2.398143,
    "transactions": [
      {
        "date": "2022-01-28",
        "priceEur": 425000,
        "typeLocal": "Maison",
        "surfaceM2": 163,
        "isVefa": false
      }
    ]
  },
  "7fa547cb4181": {
    "id": "7fa547cb4181",
    "label": "210 BD DE LA REPUBLIQUE MITTERRAN, Dunkerque",
    "lat": 51.044607,
    "lng": 2.404212,
    "transactions": [
      {
        "date": "2022-01-12",
        "priceEur": 130000,
        "typeLocal": "Appartement",
        "surfaceM2": 77,
        "isVefa": false
      }
    ]
  },
  "54760034e5e3": {
    "id": "54760034e5e3",
    "label": "61 RUE PASTEUR, Dunkerque",
    "lat": 51.04827,
    "lng": 2.399666,
    "transactions": [
      {
        "date": "2022-02-04",
        "priceEur": 320000,
        "typeLocal": "Maison",
        "surfaceM2": 145,
        "isVefa": false
      }
    ]
  },
  "a766448d7fc1": {
    "id": "a766448d7fc1",
    "label": "30 RUE ROBERT VANGHELUWE, Dunkerque",
    "lat": 51.042324,
    "lng": 2.404897,
    "transactions": [
      {
        "date": "2022-02-03",
        "priceEur": 93000,
        "typeLocal": "Maison",
        "surfaceM2": 48,
        "isVefa": false
      }
    ]
  },
  "908cffa48554": {
    "id": "908cffa48554",
    "label": "187 RUE DE L HOTEL DE VILLE, Dunkerque",
    "lat": 51.048133,
    "lng": 2.403294,
    "transactions": [
      {
        "date": "2022-01-26",
        "priceEur": 361000,
        "typeLocal": "Maison",
        "surfaceM2": 131,
        "isVefa": false
      }
    ]
  },
  "0d92b6c1f6e6": {
    "id": "0d92b6c1f6e6",
    "label": "117 AV ADOLPHE GEERAERT, Dunkerque",
    "lat": 51.0449,
    "lng": 2.398931,
    "transactions": [
      {
        "date": "2024-12-09",
        "priceEur": 110000,
        "typeLocal": "Appartement",
        "surfaceM2": 34,
        "isVefa": false
      },
      {
        "date": "2022-02-07",
        "priceEur": 100000,
        "typeLocal": "Appartement",
        "surfaceM2": 27,
        "isVefa": false
      }
    ]
  },
  "706eb1ba160d": {
    "id": "706eb1ba160d",
    "label": "14 AV GASPARD MALO, Dunkerque",
    "lat": 51.046484,
    "lng": 2.395201,
    "transactions": [
      {
        "date": "2022-06-07",
        "priceEur": 140000,
        "typeLocal": "Appartement",
        "surfaceM2": 60,
        "isVefa": false
      },
      {
        "date": "2022-06-07",
        "priceEur": 140000,
        "typeLocal": "Appartement",
        "surfaceM2": 59,
        "isVefa": false
      },
      {
        "date": "2022-06-07",
        "priceEur": 140000,
        "typeLocal": "Appartement",
        "surfaceM2": 21,
        "isVefa": false
      },
      {
        "date": "2022-06-07",
        "priceEur": 140000,
        "typeLocal": "Appartement",
        "surfaceM2": 28,
        "isVefa": false
      },
      {
        "date": "2022-06-07",
        "priceEur": 140000,
        "typeLocal": "Appartement",
        "surfaceM2": 25,
        "isVefa": false
      },
      {
        "date": "2022-02-14",
        "priceEur": 95000,
        "typeLocal": "Appartement",
        "surfaceM2": 59,
        "isVefa": false
      },
      {
        "date": "2022-02-14",
        "priceEur": 95000,
        "typeLocal": "Appartement",
        "surfaceM2": 21,
        "isVefa": false
      },
      {
        "date": "2022-02-14",
        "priceEur": 95000,
        "typeLocal": "Appartement",
        "surfaceM2": 28,
        "isVefa": false
      },
      {
        "date": "2022-02-14",
        "priceEur": 95000,
        "typeLocal": "Appartement",
        "surfaceM2": 25,
        "isVefa": false
      },
      {
        "date": "2022-02-14",
        "priceEur": 95000,
        "typeLocal": "Appartement",
        "surfaceM2": 60,
        "isVefa": false
      }
    ]
  },
  "bf1ca3763726": {
    "id": "bf1ca3763726",
    "label": "48 RUE WISSE MORNE, Dunkerque",
    "lat": 51.043928,
    "lng": 2.396012,
    "transactions": [
      {
        "date": "2023-09-21",
        "priceEur": 209150,
        "typeLocal": "Maison",
        "surfaceM2": 68,
        "isVefa": false
      },
      {
        "date": "2022-02-01",
        "priceEur": 114000,
        "typeLocal": "Maison",
        "surfaceM2": 68,
        "isVefa": false
      }
    ]
  },
  "739e837b16f8": {
    "id": "739e837b16f8",
    "label": "378 RUE ARAGO, Dunkerque",
    "lat": 51.043651,
    "lng": 2.401464,
    "transactions": [
      {
        "date": "2022-02-04",
        "priceEur": 220000,
        "typeLocal": "Maison",
        "surfaceM2": 70,
        "isVefa": false
      }
    ]
  },
  "debee63ea5d3": {
    "id": "debee63ea5d3",
    "label": "18 RUE DE BAPAUME, Dunkerque",
    "lat": 51.047218,
    "lng": 2.396628,
    "transactions": [
      {
        "date": "2023-12-29",
        "priceEur": 125500,
        "typeLocal": "Appartement",
        "surfaceM2": 45,
        "isVefa": false
      },
      {
        "date": "2022-08-22",
        "priceEur": 62000,
        "typeLocal": "Appartement",
        "surfaceM2": 54,
        "isVefa": false
      },
      {
        "date": "2022-02-07",
        "priceEur": 90000,
        "typeLocal": "Appartement",
        "surfaceM2": 34,
        "isVefa": false
      }
    ]
  },
  "7d4d56447b17": {
    "id": "7d4d56447b17",
    "label": "20 RUE JACQUES IBERT, Dunkerque",
    "lat": 51.042869,
    "lng": 2.403142,
    "transactions": [
      {
        "date": "2022-02-25",
        "priceEur": 329000,
        "typeLocal": "Maison",
        "surfaceM2": 85,
        "isVefa": false
      }
    ]
  },
  "78b0fbbd772d": {
    "id": "78b0fbbd772d",
    "label": "79 RUE DE ROUBAIX, Dunkerque",
    "lat": 51.044316,
    "lng": 2.397438,
    "transactions": [
      {
        "date": "2022-03-01",
        "priceEur": 211500,
        "typeLocal": "Maison",
        "surfaceM2": 93,
        "isVefa": false
      }
    ]
  },
  "94be181df39e": {
    "id": "94be181df39e",
    "label": "92 RUE PASTEUR, Dunkerque",
    "lat": 51.045313,
    "lng": 2.400769,
    "transactions": [
      {
        "date": "2022-02-28",
        "priceEur": 334200,
        "typeLocal": "Maison",
        "surfaceM2": 190,
        "isVefa": false
      }
    ]
  },
  "d4706acadf41": {
    "id": "d4706acadf41",
    "label": "89 RUE DE ROUBAIX, Dunkerque",
    "lat": 51.044496,
    "lng": 2.398134,
    "transactions": [
      {
        "date": "2022-03-08",
        "priceEur": 147490,
        "typeLocal": "Maison",
        "surfaceM2": 89,
        "isVefa": false
      }
    ]
  },
  "7feb2efbb987": {
    "id": "7feb2efbb987",
    "label": "39 RUE ROBERT VANGHELUWE, Dunkerque",
    "lat": 51.042646,
    "lng": 2.404292,
    "transactions": [
      {
        "date": "2022-03-14",
        "priceEur": 120000,
        "typeLocal": "Appartement",
        "surfaceM2": 66,
        "isVefa": false
      }
    ]
  },
  "16159781b3fc": {
    "id": "16159781b3fc",
    "label": "38 RUE PAUL HAZARD, Dunkerque",
    "lat": 51.046965,
    "lng": 2.405716,
    "transactions": [
      {
        "date": "2022-03-04",
        "priceEur": 168000,
        "typeLocal": "Maison",
        "surfaceM2": 85,
        "isVefa": false
      }
    ]
  },
  "0c4aa8f3cb84": {
    "id": "0c4aa8f3cb84",
    "label": "62 RUE ROBERT VANGHELUWE, Dunkerque",
    "lat": 51.043126,
    "lng": 2.404632,
    "transactions": [
      {
        "date": "2022-03-14",
        "priceEur": 40000,
        "typeLocal": "Maison",
        "surfaceM2": 26,
        "isVefa": false
      }
    ]
  },
  "dbf8d2add7d5": {
    "id": "dbf8d2add7d5",
    "label": "9 AV KLEBER, Dunkerque",
    "lat": 51.047985,
    "lng": 2.395893,
    "transactions": [
      {
        "date": "2022-03-01",
        "priceEur": 210000,
        "typeLocal": "Appartement",
        "surfaceM2": 54,
        "isVefa": false
      },
      {
        "date": "2022-03-01",
        "priceEur": 210000,
        "typeLocal": "Appartement",
        "surfaceM2": 63,
        "isVefa": false
      }
    ]
  },
  "02af3329e34a": {
    "id": "02af3329e34a",
    "label": "137 BD DE LA REPUBLIQUE MITTERRAN, Dunkerque",
    "lat": 51.045434,
    "lng": 2.405556,
    "transactions": [
      {
        "date": "2022-03-24",
        "priceEur": 185000,
        "typeLocal": "Maison",
        "surfaceM2": 90,
        "isVefa": false
      }
    ]
  },
  "d1a66630b28a": {
    "id": "d1a66630b28a",
    "label": "13 RUE VICTOR DERODE, Dunkerque",
    "lat": 51.041988,
    "lng": 2.399915,
    "transactions": [
      {
        "date": "2022-03-24",
        "priceEur": 1,
        "typeLocal": "Maison",
        "surfaceM2": 80,
        "isVefa": false
      }
    ]
  },
  "300aebdfad3f": {
    "id": "300aebdfad3f",
    "label": "20 RUE WISSE MORNE, Dunkerque",
    "lat": 51.044961,
    "lng": 2.395236,
    "transactions": [
      {
        "date": "2022-04-01",
        "priceEur": 157690,
        "typeLocal": "Appartement",
        "surfaceM2": 70,
        "isVefa": false
      }
    ]
  },
  "18025f7e2360": {
    "id": "18025f7e2360",
    "label": "111 BD DE LA REPUBLIQUE MITTERRAN, Dunkerque",
    "lat": 51.045124,
    "lng": 2.40422,
    "transactions": [
      {
        "date": "2022-03-25",
        "priceEur": 116200,
        "typeLocal": "Appartement",
        "surfaceM2": 46,
        "isVefa": false
      }
    ]
  },
  "852148a7da75": {
    "id": "852148a7da75",
    "label": "47 RUE FELIX FAURE, Dunkerque",
    "lat": 51.042331,
    "lng": 2.399993,
    "transactions": [
      {
        "date": "2022-04-12",
        "priceEur": 115000,
        "typeLocal": "Maison",
        "surfaceM2": 93,
        "isVefa": false
      }
    ]
  },
  "6b7d502e5ea8": {
    "id": "6b7d502e5ea8",
    "label": "24 RUE GUSTAVE NADAUD, Dunkerque",
    "lat": 51.043937,
    "lng": 2.395209,
    "transactions": [
      {
        "date": "2022-04-06",
        "priceEur": 240780,
        "typeLocal": "Appartement",
        "surfaceM2": 56,
        "isVefa": false
      },
      {
        "date": "2022-04-06",
        "priceEur": 240780,
        "typeLocal": "Appartement",
        "surfaceM2": 50,
        "isVefa": false
      },
      {
        "date": "2022-04-06",
        "priceEur": 240780,
        "typeLocal": "Appartement",
        "surfaceM2": 46,
        "isVefa": false
      }
    ]
  },
  "97bb33023670": {
    "id": "97bb33023670",
    "label": "31 RUE FRANCOIS TIXIER, Dunkerque",
    "lat": 51.043827,
    "lng": 2.397546,
    "transactions": [
      {
        "date": "2022-05-02",
        "priceEur": 300000,
        "typeLocal": "Maison",
        "surfaceM2": 141,
        "isVefa": false
      }
    ]
  },
  "34dddfbdd434": {
    "id": "34dddfbdd434",
    "label": "56 RUE DE NORMANDIE, Dunkerque",
    "lat": 51.045999,
    "lng": 2.405554,
    "transactions": [
      {
        "date": "2022-05-03",
        "priceEur": 400910,
        "typeLocal": "Maison",
        "surfaceM2": 98,
        "isVefa": false
      }
    ]
  },
  "6dbab56a4e8e": {
    "id": "6dbab56a4e8e",
    "label": "20 RUE MAXENCE VAN DER MEERSCH, Dunkerque",
    "lat": 51.04547,
    "lng": 2.404727,
    "transactions": [
      {
        "date": "2022-04-05",
        "priceEur": 167000,
        "typeLocal": "Maison",
        "surfaceM2": 80,
        "isVefa": false
      }
    ]
  },
  "160f0487d845": {
    "id": "160f0487d845",
    "label": "16 RUE ROMBOUT, Dunkerque",
    "lat": 51.04628,
    "lng": 2.396168,
    "transactions": [
      {
        "date": "2022-04-25",
        "priceEur": 228500,
        "typeLocal": "Maison",
        "surfaceM2": 99,
        "isVefa": false
      }
    ]
  },
  "f9f898f019c2": {
    "id": "f9f898f019c2",
    "label": "79 RUE GASPARD NEUTS, Dunkerque",
    "lat": 51.046406,
    "lng": 2.39747,
    "transactions": [
      {
        "date": "2022-05-13",
        "priceEur": 412000,
        "typeLocal": "Appartement",
        "surfaceM2": 81,
        "isVefa": false
      },
      {
        "date": "2022-05-13",
        "priceEur": 412000,
        "typeLocal": "Appartement",
        "surfaceM2": 35,
        "isVefa": false
      },
      {
        "date": "2022-05-13",
        "priceEur": 412000,
        "typeLocal": "Appartement",
        "surfaceM2": 85,
        "isVefa": false
      },
      {
        "date": "2022-05-13",
        "priceEur": 412000,
        "typeLocal": "Appartement",
        "surfaceM2": 38,
        "isVefa": false
      },
      {
        "date": "2022-05-13",
        "priceEur": 412000,
        "typeLocal": "Appartement",
        "surfaceM2": 39,
        "isVefa": false
      },
      {
        "date": "2022-05-13",
        "priceEur": 412000,
        "typeLocal": "Appartement",
        "surfaceM2": 22,
        "isVefa": false
      }
    ]
  },
  "3fbfe2a2c2ad": {
    "id": "3fbfe2a2c2ad",
    "label": "69 RUE BIR HAKEIM, Dunkerque",
    "lat": 51.047891,
    "lng": 2.400968,
    "transactions": [
      {
        "date": "2022-05-20",
        "priceEur": 308000,
        "typeLocal": "Maison",
        "surfaceM2": 103,
        "isVefa": false
      }
    ]
  },
  "a10549d03728": {
    "id": "a10549d03728",
    "label": "14 RUE VICTOR DERODE, Dunkerque",
    "lat": 51.041991,
    "lng": 2.399478,
    "transactions": [
      {
        "date": "2022-06-01",
        "priceEur": 213580,
        "typeLocal": "Maison",
        "surfaceM2": 119,
        "isVefa": false
      }
    ]
  },
  "0044d5ce5fc9": {
    "id": "0044d5ce5fc9",
    "label": "142B AV ADOLPHE GEERAERT, Dunkerque",
    "lat": 51.044363,
    "lng": 2.399547,
    "transactions": [
      {
        "date": "2022-05-13",
        "priceEur": 286000,
        "typeLocal": "Appartement",
        "surfaceM2": 12,
        "isVefa": false
      },
      {
        "date": "2022-05-13",
        "priceEur": 286000,
        "typeLocal": "Appartement",
        "surfaceM2": 27,
        "isVefa": false
      },
      {
        "date": "2022-05-13",
        "priceEur": 286000,
        "typeLocal": "Appartement",
        "surfaceM2": 24,
        "isVefa": false
      },
      {
        "date": "2022-05-13",
        "priceEur": 286000,
        "typeLocal": "Appartement",
        "surfaceM2": 20,
        "isVefa": false
      },
      {
        "date": "2022-05-13",
        "priceEur": 286000,
        "typeLocal": "Appartement",
        "surfaceM2": 18,
        "isVefa": false
      },
      {
        "date": "2022-05-13",
        "priceEur": 286000,
        "typeLocal": "Appartement",
        "surfaceM2": 26,
        "isVefa": false
      },
      {
        "date": "2022-05-13",
        "priceEur": 286000,
        "typeLocal": "Appartement",
        "surfaceM2": 14,
        "isVefa": false
      }
    ]
  },
  "7d96b35ed87b": {
    "id": "7d96b35ed87b",
    "label": "6 RUE LAMARTINE, Dunkerque",
    "lat": 51.041602,
    "lng": 2.397555,
    "transactions": [
      {
        "date": "2022-06-07",
        "priceEur": 135000,
        "typeLocal": "Maison",
        "surfaceM2": 88,
        "isVefa": false
      }
    ]
  },
  "f5569acb24f7": {
    "id": "f5569acb24f7",
    "label": "39 RUE FRANCOIS TIXIER, Dunkerque",
    "lat": 51.043953,
    "lng": 2.398026,
    "transactions": [
      {
        "date": "2022-05-20",
        "priceEur": 350000,
        "typeLocal": "Appartement",
        "surfaceM2": 48,
        "isVefa": false
      },
      {
        "date": "2022-05-20",
        "priceEur": 350000,
        "typeLocal": "Appartement",
        "surfaceM2": 53,
        "isVefa": false
      },
      {
        "date": "2022-05-20",
        "priceEur": 350000,
        "typeLocal": "Appartement",
        "surfaceM2": 33,
        "isVefa": false
      }
    ]
  },
  "9cc4ffbbe6c9": {
    "id": "9cc4ffbbe6c9",
    "label": "22 RUE FRANCOIS TIXIER, Dunkerque",
    "lat": 51.043963,
    "lng": 2.399172,
    "transactions": [
      {
        "date": "2022-05-23",
        "priceEur": 245000,
        "typeLocal": "Maison",
        "surfaceM2": 110,
        "isVefa": false
      }
    ]
  },
  "9bb56c6aa39d": {
    "id": "9bb56c6aa39d",
    "label": "128 RUE DE ROUBAIX, Dunkerque",
    "lat": 51.044604,
    "lng": 2.399692,
    "transactions": [
      {
        "date": "2022-05-25",
        "priceEur": 77500,
        "typeLocal": "Appartement",
        "surfaceM2": 65,
        "isVefa": false
      }
    ]
  },
  "86d7076d077c": {
    "id": "86d7076d077c",
    "label": "138 RUE DE ROUBAIX, Dunkerque",
    "lat": 51.044433,
    "lng": 2.40094,
    "transactions": [
      {
        "date": "2022-06-09",
        "priceEur": 176100,
        "typeLocal": "Appartement",
        "surfaceM2": 76,
        "isVefa": false
      }
    ]
  },
  "2046141c8483": {
    "id": "2046141c8483",
    "label": "29 RUE ROUGET DE L ISLE, Dunkerque",
    "lat": 51.043161,
    "lng": 2.400324,
    "transactions": [
      {
        "date": "2022-06-08",
        "priceEur": 273000,
        "typeLocal": "Maison",
        "surfaceM2": 92,
        "isVefa": false
      }
    ]
  },
  "b1591a287ad1": {
    "id": "b1591a287ad1",
    "label": "51 RUE FELIX FAURE, Dunkerque",
    "lat": 51.042443,
    "lng": 2.400013,
    "transactions": [
      {
        "date": "2022-06-15",
        "priceEur": 135000,
        "typeLocal": "Maison",
        "surfaceM2": 85,
        "isVefa": false
      }
    ]
  },
  "f155b5655416": {
    "id": "f155b5655416",
    "label": "240 BD DE LA REPUBLIQUE MITTERRAN, Dunkerque",
    "lat": 51.044996,
    "lng": 2.405654,
    "transactions": [
      {
        "date": "2022-06-21",
        "priceEur": 41788.42,
        "typeLocal": "Maison",
        "surfaceM2": 117,
        "isVefa": false
      }
    ]
  },
  "969214005476": {
    "id": "969214005476",
    "label": "15 RUE DUVAL LEROY, Dunkerque",
    "lat": 51.046544,
    "lng": 2.399987,
    "transactions": [
      {
        "date": "2022-06-27",
        "priceEur": 228250,
        "typeLocal": "Maison",
        "surfaceM2": 88,
        "isVefa": false
      }
    ]
  },
  "551b77eba0c2": {
    "id": "551b77eba0c2",
    "label": "117 BD DE LA REPUBLIQUE MITTERRAN, Dunkerque",
    "lat": 51.045155,
    "lng": 2.404487,
    "transactions": [
      {
        "date": "2022-06-29",
        "priceEur": 271510,
        "typeLocal": "Maison",
        "surfaceM2": 80,
        "isVefa": false
      }
    ]
  },
  "a80bf9722a9a": {
    "id": "a80bf9722a9a",
    "label": "76 RUE DU GENERAL HOCHE, Dunkerque",
    "lat": 51.045089,
    "lng": 2.399648,
    "transactions": [
      {
        "date": "2022-06-30",
        "priceEur": 140000,
        "typeLocal": "Maison",
        "surfaceM2": 97,
        "isVefa": false
      }
    ]
  },
  "fa153cbfed2a": {
    "id": "fa153cbfed2a",
    "label": "10 AV KLEBER, Dunkerque",
    "lat": 51.047611,
    "lng": 2.396214,
    "transactions": [
      {
        "date": "2024-09-16",
        "priceEur": 536000,
        "typeLocal": "Maison",
        "surfaceM2": 154,
        "isVefa": false
      },
      {
        "date": "2024-05-10",
        "priceEur": 488000,
        "typeLocal": "Maison",
        "surfaceM2": 154,
        "isVefa": false
      },
      {
        "date": "2022-07-08",
        "priceEur": 410000,
        "typeLocal": "Maison",
        "surfaceM2": 154,
        "isVefa": false
      }
    ]
  },
  "ab65bf9f955e": {
    "id": "ab65bf9f955e",
    "label": "2 BD PAUL CAMBON, Dunkerque",
    "lat": 51.043456,
    "lng": 2.40455,
    "transactions": [
      {
        "date": "2022-07-05",
        "priceEur": 176000,
        "typeLocal": "Appartement",
        "surfaceM2": 104,
        "isVefa": false
      },
      {
        "date": "2022-07-05",
        "priceEur": 176000,
        "typeLocal": "Appartement",
        "surfaceM2": 74,
        "isVefa": false
      }
    ]
  },
  "be1075947f7c": {
    "id": "be1075947f7c",
    "label": "58B AV GASPARD MALO, Dunkerque",
    "lat": 51.044424,
    "lng": 2.396425,
    "transactions": [
      {
        "date": "2022-06-17",
        "priceEur": 450000,
        "typeLocal": "Maison",
        "surfaceM2": 177,
        "isVefa": false
      }
    ]
  },
  "a07364509106": {
    "id": "a07364509106",
    "label": "20 RUE FLOQUET, Dunkerque",
    "lat": 51.042266,
    "lng": 2.401473,
    "transactions": [
      {
        "date": "2022-06-30",
        "priceEur": 170000,
        "typeLocal": "Maison",
        "surfaceM2": 96,
        "isVefa": false
      }
    ]
  },
  "82972440fc45": {
    "id": "82972440fc45",
    "label": "49 ALL FABRE D EGLANTINE, Dunkerque",
    "lat": 51.047711,
    "lng": 2.405633,
    "transactions": [
      {
        "date": "2022-07-15",
        "priceEur": 389500,
        "typeLocal": "Maison",
        "surfaceM2": 138,
        "isVefa": false
      }
    ]
  },
  "11cf1cb26548": {
    "id": "11cf1cb26548",
    "label": "317 RUE ARAGO, Dunkerque",
    "lat": 51.043649,
    "lng": 2.400552,
    "transactions": [
      {
        "date": "2022-07-08",
        "priceEur": 143100,
        "typeLocal": "Maison",
        "surfaceM2": 82,
        "isVefa": false
      }
    ]
  },