{
  "9a24b20cbdf2": {
    "id": "9a24b20cbdf2",
    "label": "506 RUE ANATOLE FRANCE, Dunkerque",
    "lat": 51.041248,
    "lng": 2.397804,
    "transactions": [
      {
        "date": "2020-12-17",
        "priceEur": 174000,
        "typeLocal": "Maison",
        "surfaceM2": 78,
        "isVefa": false
      },
      {
        "date": "2020-07-15",
        "priceEur": 150000,
        "typeLocal": "Maison",
        "surfaceM2": 78,
        "isVefa": false
      }
    ]
  },
  "ac609783822f": {
    "id": "ac609783822f",
    "label": "54 RUE NAPOLEON DUBOIS, Dunkerque",
    "lat": 51.034837,
    "lng": 2.396245,
    "transactions": [
      {
        "date": "2020-07-17",
        "priceEur": 150000,
        "typeLocal": "Appartement",
        "surfaceM2": 100,
        "isVefa": false
      },
      {
        "date": "2020-07-17",
        "priceEur": 135000,
        "typeLocal": "Appartement",
        "surfaceM2": 101,
        "isVefa": false
      }
    ]
  },
  "d80ce526d6aa": {
    "id": "d80ce526d6aa",
    "label": "39 RUE PAUL DOUMER, Dunkerque",
    "lat": 51.04113,
    "lng": 2.401251,
    "transactions": [
      {
        "date": "2020-07-02",
        "priceEur": 164000,
        "typeLocal": "Maison",
        "surfaceM2": 90,
        "isVefa": false
      }
    ]
  },
  "60efeafb7be7": {
    "id": "60efeafb7be7",
    "label": "92 RUE DU PONT NEUF, Dunkerque",
    "lat": 51.035173,
    "lng": 2.401077,
    "transactions": [
      {
        "date": "2020-07-31",
        "priceEur": 231500,
        "typeLocal": "Maison",
        "surfaceM2": 123,
        "isVefa": false
      }
    ]
  },
  "6cb8ede5bc72": {
    "id": "6cb8ede5bc72",
    "label": "362 RUE ANATOLE FRANCE, Dunkerque",
    "lat": 51.040899,
    "lng": 2.395731,
    "transactions": [
      {
        "date": "2020-07-22",
        "priceEur": 272000,
        "typeLocal": "Maison",
        "surfaceM2": 162,
        "isVefa": false
      }
    ]
  },
  "457c076ddf48": {
    "id": "457c076ddf48",
    "label": "23 RUE GANDHI, Dunkerque",
    "lat": 51.041135,
    "lng": 2.397564,
    "transactions": [
      {
        "date": "2023-07-28",
        "priceEur": 190000,
        "typeLocal": "Maison",
        "surfaceM2": 116,
        "isVefa": false
      },
      {
        "date": "2020-08-17",
        "priceEur": 180700,
        "typeLocal": "Maison",
        "surfaceM2": 116,
        "isVefa": false
      }
    ]
  },
  "be93c6613003": {
    "id": "be93c6613003",
    "label": "5 RUE JULES DEGROOTE, Dunkerque",
    "lat": 51.039803,
    "lng": 2.401913,
    "transactions": [
      {
        "date": "2020-08-13",
        "priceEur": 358705,
        "typeLocal": "Maison",
        "surfaceM2": 145,
        "isVefa": false
      }
    ]
  },
  "001a8a04fd2b": {
    "id": "001a8a04fd2b",
    "label": "1229 AV DE ROSENDAEL J COLLACHE, Dunkerque",
    "lat": 51.039706,
    "lng": 2.401913,
    "transactions": [
      {
        "date": "2020-08-17",
        "priceEur": 167500,
        "typeLocal": "Maison",
        "surfaceM2": 172,
        "isVefa": false
      }
    ]
  },
  "d78ec708d786": {
    "id": "d78ec708d786",
    "label": "1185 AV DE ROSENDAEL J COLLACHE, Dunkerque",
    "lat": 51.039405,
    "lng": 2.401547,
    "transactions": [
      {
        "date": "2022-05-19",
        "priceEur": 260000,
        "typeLocal": "Maison",
        "surfaceM2": 126,
        "isVefa": false
      },
      {
        "date": "2020-08-13",
        "priceEur": 210300,
        "typeLocal": "Maison",
        "surfaceM2": 126,
        "isVefa": false
      }
    ]
  },
  "298724c6f5e4": {
    "id": "298724c6f5e4",
    "label": "120B RUE DES CYCLAMENS, Dunkerque",
    "lat": 51.036038,
    "lng": 2.3991,
    "transactions": [
      {
        "date": "2021-12-02",
        "priceEur": 60000,
        "typeLocal": "Appartement",
        "surfaceM2": 24,
        "isVefa": false
      },
      {
        "date": "2021-03-15",
        "priceEur": 110550,
        "typeLocal": "Appartement",
        "surfaceM2": 39,
        "isVefa": false
      },
      {
        "date": "2020-09-01",
        "priceEur": 50500,
        "typeLocal": "Appartement",
        "surfaceM2": 38,
        "isVefa": false
      }
    ]
  },
  "f45f2aa52d97": {
    "id": "f45f2aa52d97",
    "label": "128 RUE DES ANC COMBATTANTS AFN, Dunkerque",
    "lat": 51.037638,
    "lng": 2.404977,
    "transactions": [
      {
        "date": "2020-09-30",
        "priceEur": 180000,
        "typeLocal": "Maison",
        "surfaceM2": 101,
        "isVefa": false
      }
    ]
  },
  "a1ba555d0524": {
    "id": "a1ba555d0524",
    "label": "166 RUE JULES GUESDE, Dunkerque",
    "lat": 51.040107,
    "lng": 2.404985,
    "transactions": [
      {
        "date": "2023-03-17",
        "priceEur": 66500,
        "typeLocal": "Appartement",
        "surfaceM2": 54,
        "isVefa": false
      },
      {
        "date": "2020-09-25",
        "priceEur": 75500,
        "typeLocal": "Appartement",
        "surfaceM2": 64,
        "isVefa": false
      }
    ]
  },
  "57ffc10a25eb": {
    "id": "57ffc10a25eb",
    "label": "348B AV PIERRE MENDES FRANCE, Dunkerque",
    "lat": 51.040107,
    "lng": 2.404985,
    "transactions": [
      {
        "date": "2025-02-28",
        "priceEur": 91000,
        "typeLocal": "Appartement",
        "surfaceM2": 64,
        "isVefa": false
      },
      {
        "date": "2022-12-08",
        "priceEur": 62200,
        "typeLocal": "Appartement",
        "surfaceM2": 64,
        "isVefa": false
      },
      {
        "date": "2022-11-25",
        "priceEur": 75000,
        "typeLocal": "Appartement",
        "surfaceM2": 54,
        "isVefa": false
      },
      {
        "date": "2021-11-30",
        "priceEur": 73000,
        "typeLocal": "Appartement",
        "surfaceM2": 64,
        "isVefa": false
      },
      {
        "date": "2021-06-18",
        "priceEur": 71500,
        "typeLocal": "Appartement",
        "surfaceM2": 64,
        "isVefa": false
      },
      {
        "date": "2020-11-02",
        "priceEur": 38000,
        "typeLocal": "Appartement",
        "surfaceM2": 54,
        "isVefa": false
      }
    ]
  },
  "35ff34201f6f": {
    "id": "35ff34201f6f",
    "label": "163 RUE JULES GUESDE, Dunkerque",
    "lat": 51.040107,
    "lng": 2.404985,
    "transactions": [
      {
        "date": "2025-04-18",
        "priceEur": 113050,
        "typeLocal": "Appartement",
        "surfaceM2": 64,
        "isVefa": false
      },
      {
        "date": "2023-03-31",
        "priceEur": 80000,
        "typeLocal": "Appartement",
        "surfaceM2": 54,
        "isVefa": false
      },
      {
        "date": "2022-03-22",
        "priceEur": 67550,
        "typeLocal": "Appartement",
        "surfaceM2": 64,
        "isVefa": false
      },
      {
        "date": "2020-12-30",
        "priceEur": 57000,
        "typeLocal": "Appartement",
        "surfaceM2": 54,
        "isVefa": false
      },
      {
        "date": "2020-10-21",
        "priceEur": 68930,
        "typeLocal": "Appartement",
        "surfaceM2": 64,
        "isVefa": false
      }
    ]
  },
  "ede4368b1a6b": {
    "id": "ede4368b1a6b",
    "label": "22 RUE PHILIPPE SCHODDUYN, Dunkerque",
    "lat": 51.041073,
    "lng": 2.402913,
    "transactions": [
      {
        "date": "2020-11-13",
        "priceEur": 211100,
        "typeLocal": "Maison",
        "surfaceM2": 124,
        "isVefa": false
      }
    ]
  },
  "6286e5cdb818": {
    "id": "6286e5cdb818",
    "label": "143 RUE JULES GUESDE, Dunkerque",
    "lat": 51.040107,
    "lng": 2.404985,
    "transactions": [
      {
        "date": "2024-06-12",
        "priceEur": 63300,
        "typeLocal": "Appartement",
        "surfaceM2": 64,
        "isVefa": false
      },
      {
        "date": "2024-06-03",
        "priceEur": 79000,
        "typeLocal": "Appartement",
        "surfaceM2": 54,
        "isVefa": false
      },
      {
        "date": "2022-03-04",
        "priceEur": 102000,
        "typeLocal": "Appartement",
        "surfaceM2": 64,
        "isVefa": false
      },
      {
        "date": "2021-09-21",
        "priceEur": 70000,
        "typeLocal": "Appartement",
        "surfaceM2": 64,
        "isVefa": false
      },
      {
        "date": "2021-06-28",
        "priceEur": 77000,
        "typeLocal": "Appartement",
        "surfaceM2": 64,
        "isVefa": false
      },
      {
        "date": "2020-11-06",
        "priceEur": 57000,
        "typeLocal": "Appartement",
        "surfaceM2": 54,
        "isVefa": false
      }
    ]
  },
  "26b5f536a12f": {
    "id": "26b5f536a12f",
    "label": "10 RUE PAUL DOUMER, Dunkerque",
    "lat": 51.040516,
    "lng": 2.399877,
    "transactions": [
      {
        "date": "2020-11-13",
        "priceEur": 103000,
        "typeLocal": "Appartement",
        "surfaceM2": 55,
        "isVefa": false
      }
    ]
  },
  "4659373a4558": {
    "id": "4659373a4558",
    "label": "1096 AV DE ROSENDAEL J COLLACHE, Dunkerque",
    "lat": 51.038522,
    "lng": 2.401176,
    "transactions": [
      {
        "date": "2023-06-07",
        "priceEur": 112950,
        "typeLocal": "Appartement",
        "surfaceM2": 55,
        "isVefa": false
      },
      {
        "date": "2022-09-21",
        "priceEur": 107950,
        "typeLocal": "Appartement",
        "surfaceM2": 51,
        "isVefa": false
      },
      {
        "date": "2022-02-11",
        "priceEur": 107650,
        "typeLocal": "Appartement",
        "surfaceM2": 59,
        "isVefa": false
      },
      {
        "date": "2021-12-23",
        "priceEur": 94830,
        "typeLocal": "Appartement",
        "surfaceM2": 50,
        "isVefa": false
      },
      {
        "date": "2020-11-27",
        "priceEur": 88830,
        "typeLocal": "Appartement",
        "surfaceM2": 50,
        "isVefa": false
      },
      {
        "date": "2020-11-17",
        "priceEur": 112000,
        "typeLocal": "Appartement",
        "surfaceM2": 55,
        "isVefa": false
      }
    ]
  },
  "6f933dd75e45": {
    "id": "6f933dd75e45",
    "label": "264A AV PIERRE MENDES FRANCE, Dunkerque",
    "lat": 51.040107,
    "lng": 2.404985,
    "transactions": [
      {
        "date": "2024-12-27",
        "priceEur": 105350,
        "typeLocal": "Appartement",
        "surfaceM2": 78,
        "isVefa": false
      },
      {
        "date": "2023-12-11",
        "priceEur": 102500,
        "typeLocal": "Appartement",
        "surfaceM2": 78,
        "isVefa": false
      },
      {
        "date": "2023-07-04",
        "priceEur": 91680,
        "typeLocal": "Appartement",
        "surfaceM2": 78,
        "isVefa": false
      },
      {
        "date": "2022-12-09",
        "priceEur": 96000,
        "typeLocal": "Appartement",
        "surfaceM2": 78,
        "isVefa": false
      },
      {
        "date": "2022-01-06",
        "priceEur": 84850,
        "typeLocal": "Appartement",
        "surfaceM2": 78,
        "isVefa": false
      },
      {
        "date": "2021-10-27",
        "priceEur": 41500,
        "typeLocal": "Appartement",
        "surfaceM2": 42,
        "isVefa": false
      },
      {
        "date": "2021-08-26",
        "priceEur": 46000,
        "typeLocal": "Appartement",
        "surfaceM2": 42,
        "isVefa": false
      },
      {
        "date": "2020-12-09",
        "priceEur": 88000,
        "typeLocal": "Appartement",
        "surfaceM2": 78,
        "isVefa": false
      },
      {
        "date": "2020-11-27",
        "priceEur": 58000,
        "typeLocal": "Appartement",
        "surfaceM2": 42,
        "isVefa": false
      }
    ]
  },
  "20e80cfc06fe": {
    "id": "20e80cfc06fe",
    "label": "348A AV PIERRE MENDES FRANCE, Dunkerque",
    "lat": 51.040107,
    "lng": 2.404985,
    "transactions": [
      {
        "date": "2025-03-14",
        "priceEur": 99999,
        "typeLocal": "Appartement",
        "surfaceM2": 64,
        "isVefa": false
      },
      {
        "date": "2024-12-16",
        "priceEur": 92100,
        "typeLocal": "Appartement",
        "surfaceM2": 54,
        "isVefa": false
      },
      {
        "date": "2023-12-22",
        "priceEur": 69000,
        "typeLocal": "Appartement",
        "surfaceM2": 54,
        "isVefa": false
      },
      {
        "date": "2022-08-26",
        "priceEur": 70625,
        "typeLocal": "Appartement",
        "surfaceM2": 54,
        "isVefa": false
      },
      {
        "date": "2021-01-20",
        "priceEur": 76500,
        "typeLocal": "Appartement",
        "surfaceM2": 64,
        "isVefa": false
      },
      {
        "date": "2020-11-20",
        "priceEur": 87800,
        "typeLocal": "Appartement",
        "surfaceM2": 54,
        "isVefa": false
      }
    ]
  },
  "66bcdfe9d9f6": {
    "id": "66bcdfe9d9f6",
    "label": "120C RUE DES CYCLAMENS, Dunkerque",
    "lat": 51.036038,
    "lng": 2.3991,
    "transactions": [
      {
        "date": "2023-10-09",
        "priceEur": 132100,
        "typeLocal": "Appartement",
        "surfaceM2": 47,
        "isVefa": false
      },
      {
        "date": "2022-05-23",
        "priceEur": 110000,
        "typeLocal": "Appartement",
        "surfaceM2": 50,
        "isVefa": false
      },
      {
        "date": "2020-12-08",
        "priceEur": 65000,
        "typeLocal": "Appartement",
        "surfaceM2": 60,
        "isVefa": false
      }
    ]
  },
  "3cded99dbe10": {
    "id": "3cded99dbe10",
    "label": "112 RUE JULES GUESDE, Dunkerque",
    "lat": 51.040107,
    "lng": 2.404985,
    "transactions": [
      {
        "date": "2021-08-02",
        "priceEur": 67500,
        "typeLocal": "Appartement",
        "surfaceM2": 54,
        "isVefa": false
      },
      {
        "date": "2021-04-06",
        "priceEur": 69500,
        "typeLocal": "Appartement",
        "surfaceM2": 54,
        "isVefa": false
      },
      {
        "date": "2020-10-02",
        "priceEur": 52000,
        "typeLocal": "Appartement",
        "surfaceM2": 78,
        "isVefa": false
      }
    ]
  },
  "c8832d712222": {
    "id": "c8832d712222",
    "label": "14 RUE JULES FERRY, Dunkerque",
    "lat": 51.041275,
    "lng": 2.399741,
    "transactions": [
      {
        "date": "2020-11-27",
        "priceEur": 222000,
        "typeLocal": "Maison",
        "surfaceM2": 108,
        "isVefa": false
      }
    ]
  },
  "dde10204caf6": {
    "id": "dde10204caf6",
    "label": "18 RUE MARCEAU, Dunkerque",
    "lat": 51.036137,
    "lng": 2.39619,
    "transactions": [
      {
        "date": "2020-12-15",
        "priceEur": 307000,
        "typeLocal": "Maison",
        "surfaceM2": 124,
        "isVefa": false
      }
    ]
  },
  "66d56d04f410": {
    "id": "66d56d04f410",
    "label": "7 IMP LEON PLANCKEEL, Dunkerque",
    "lat": 51.040348,
    "lng": 2.400262,
    "transactions": [
      {
        "date": "2020-12-09",
        "priceEur": 175000,
        "typeLocal": "Appartement",
        "surfaceM2": 76,
        "isVefa": false
      }
    ]
  },
  "a041101f06cd": {
    "id": "a041101f06cd",
    "label": "86 RUE YVON LAMAND, Dunkerque",
    "lat": 51.039159,
    "lng": 2.403315,
    "transactions": [
      {
        "date": "2023-12-28",
        "priceEur": 89000,
        "typeLocal": "Appartement",
        "surfaceM2": 72,
        "isVefa": false
      },
      {
        "date": "2021-05-31",
        "priceEur": 70000,
        "typeLocal": "Appartement",
        "surfaceM2": 55,
        "isVefa": false
      },
      {
        "date": "2020-12-08",
        "priceEur": 89000,
        "typeLocal": "Appartement",
        "surfaceM2": 72,
        "isVefa": false
      }
    ]
  },
  "41a14f7d3043": {
    "id": "41a14f7d3043",
    "label": "264C AV PIERRE MENDES FRANCE, Dunkerque",
    "lat": 51.040107,
    "lng": 2.404985,
    "transactions": [
      {
        "date": "2025-04-24",
        "priceEur": 85000,
        "typeLocal": "Appartement",
        "surfaceM2": 64,
        "isVefa": false
      },
      {
        "date": "2023-09-15",
        "priceEur": 68000,
        "typeLocal": "Appartement",
        "surfaceM2": 54,
        "isVefa": false
      },
      {
        "date": "2021-12-16",
        "priceEur": 71100,
        "typeLocal": "Appartement",
        "surfaceM2": 64,
        "isVefa": false
      },
      {
        "date": "2021-05-20",
        "priceEur": 72000,
        "typeLocal": "Appartement",
        "surfaceM2": 54,
        "isVefa": false
      },
      {
        "date": "2021-02-25",
        "priceEur": 55000,
        "typeLocal": "Appartement",
        "surfaceM2": 54,
        "isVefa": false
      },
      {
        "date": "2020-12-04",
        "priceEur": 64000,
        "typeLocal": "Appartement",
        "surfaceM2": 54,
        "isVefa": false
      }
    ]
  },
  "661444b89e9f": {
    "id": "661444b89e9f",
    "label": "73 RUE JEAN JACQUES ROUSSEAU, Dunkerque",
    "lat": 51.039929,
    "lng": 2.397831,
    "transactions": [
      {
        "date": "2020-12-11",
        "priceEur": 61000,
        "typeLocal": "Maison",
        "surfaceM2": 42,
        "isVefa": false
      }
    ]
  },
  "c2dee93924f9": {
    "id": "c2dee93924f9",
    "label": "9 PL MARTYRS DE RESISTANCE, Dunkerque",
    "lat": 51.041237,
    "lng": 2.40425,
    "transactions": [
      {
        "date": "2020-12-31",
        "priceEur": 400000,
        "typeLocal": "Maison",
        "surfaceM2": 292,
        "isVefa": false
      }
    ]
  },
  "01f5b5dd7dcd": {
    "id": "01f5b5dd7dcd",
    "label": "24B RUE PHILIPPE SCHODDUYN, Dunkerque",
    "lat": 51.041106,
    "lng": 2.402617,
    "transactions": [
      {
        "date": "2020-12-28",
        "priceEur": 165000,
        "typeLocal": "Maison",
        "surfaceM2": 82,
        "isVefa": false
      }
    ]
  },
  "f1b7489d7389": {
    "id": "f1b7489d7389",
    "label": "107 RUE JULES GUESDE, Dunkerque",
    "lat": 51.040107,
    "lng": 2.404985,
    "transactions": [
      {
        "date": "2024-04-17",
        "priceEur": 50000,
        "typeLocal": "Appartement",
        "surfaceM2": 64,
        "isVefa": false
      },
      {
        "date": "2023-10-20",
        "priceEur": 76000,
        "typeLocal": "Appartement",
        "surfaceM2": 54,
        "isVefa": false
      },
      {
        "date": "2022-07-27",
        "priceEur": 70000,
        "typeLocal": "Appartement",
        "surfaceM2": 64,
        "isVefa": false
      },
      {
        "date": "2021-10-14",
        "priceEur": 55000,
        "typeLocal": "Appartement",
        "surfaceM2": 54,
        "isVefa": false
      },
      {
        "date": "2021-07-29",
        "priceEur": 93350,
        "typeLocal": "Appartement",
        "surfaceM2": 54,
        "isVefa": false
      },
      {
        "date": "2020-12-31",
        "priceEur": 45000,
        "typeLocal": "Appartement",
        "surfaceM2": 54,
        "isVefa": false
      }
    ]
  },
  "2f9a8919bbf0": {
    "id": "2f9a8919bbf0",
    "label": "94 RUE JULES GUESDE, Dunkerque",
    "lat": 51.040107,
    "lng": 2.404985,
    "transactions": [
      {
        "date": "2022-06-24",
        "priceEur": 80950,
        "typeLocal": "Appartement",
        "surfaceM2": 64,
        "isVefa": false
      },
      {
        "date": "2021-05-27",
        "priceEur": 70000,
        "typeLocal": "Appartement",
        "surfaceM2": 64,
        "isVefa": false
      },
      {
        "date": "2021-05-14",
        "priceEur": 64600,
        "typeLocal": "Appartement",
        "surfaceM2": 64,
        "isVefa": false
      },
      {
        "date": "2021-01-20",
        "priceEur": 94000,
        "typeLocal": "Appartement",
        "surfaceM2": 64,
        "isVefa": false
      }
    ]
  },
  "35f658a0f153": {
    "id": "35f658a0f153",
    "label": "124 RUE ARISTIDE BRIAND, Dunkerque",
    "lat": 51.035269,
    "lng": 2.405015,
    "transactions": [
      {
        "date": "2021-01-28",
        "priceEur": 140000,
        "typeLocal": "Maison",
        "surfaceM2": 82,
        "isVefa": false
      }
    ]
  },
  "baf8c362df5a": {
    "id": "baf8c362df5a",
    "label": "202 RUE DES CYCLAMENS, Dunkerque",
    "lat": 51.035165,
    "lng": 2.399712,
    "transactions": [
      {
        "date": "2021-01-18",
        "priceEur": 445000,
        "typeLocal": "Maison",
        "surfaceM2": 228,
        "isVefa": false
      }
    ]
  },
  "485a17d75e6c": {
    "id": "485a17d75e6c",
    "label": "44 RUE DES PECHEURS, Dunkerque",
    "lat": 51.039953,
    "lng": 2.396991,
    "transactions": [
      {
        "date": "2021-01-12",
        "priceEur": 110000,
        "typeLocal": "Maison",
        "surfaceM2": 60,
        "isVefa": false
      }
    ]
  },
  "b014012f68d6": {
    "id": "b014012f68d6",
    "label": "1116 AV DE ROSENDAEL J COLLACHE, Dunkerque",
    "lat": 51.038669,
    "lng": 2.401084,
    "transactions": [
      {
        "date": "2022-08-02",
        "priceEur": 84750,
        "typeLocal": "Appartement",
        "surfaceM2": 70,
        "isVefa": false
      },
      {
        "date": "2021-03-18",
        "priceEur": 90500,
        "typeLocal": "Appartement",
        "surfaceM2": 67,
        "isVefa": false
      },
      {
        "date": "2021-01-25",
        "priceEur": 103000,
        "typeLocal": "Appartement",
        "surfaceM2": 68,
        "isVefa": false
      }
    ]
  },
  "820765e97976": {
    "id": "820765e97976",
    "label": "51 PL DE LA VALLEE DES ROSES, Dunkerque",
    "lat": 51.040299,
    "lng": 2.404473,
    "transactions": [
      {
        "date": "2023-07-04",
        "priceEur": 111900,
        "typeLocal": "Appartement",
        "surfaceM2": 63,
        "isVefa": false
      },
      {
        "date": "2022-07-26",
        "priceEur": 130000,
        "typeLocal": "Appartement",
        "surfaceM2": 73,
        "isVefa": false
      },
      {
        "date": "2021-06-30",
        "priceEur": 100000,
        "typeLocal": "Appartement",
        "surfaceM2": 50,
        "isVefa": false
      },
      {
        "date": "2021-02-18",
        "priceEur": 125000,
        "typeLocal": "Appartement",
        "surfaceM2": 86,
        "isVefa": false
      }
    ]
  },
  "ef32002d3a58": {
    "id": "ef32002d3a58",
    "label": "266 RUE WINSTON CHURCHILL, Dunkerque",
    "lat": 51.040956,
    "lng": 2.399287,
    "transactions": [
      {
        "date": "2025-01-16",
        "priceEur": 200300,
        "typeLocal": "Appartement",
        "surfaceM2": 88,
        "isVefa": false
      },
      {
        "date": "2022-02-01",
        "priceEur": 157500,
        "typeLocal": "Appartement",
        "surfaceM2": 88,
        "isVefa": false
      },
      {
        "date": "2021-02-12",
        "priceEur": 195000,
        "typeLocal": "Appartement",
        "surfaceM2": 97,
        "isVefa": false
      }
    ]
  },
  "dad13cee9cbd": {
    "id": "dad13cee9cbd",
    "label": "5 RUE PHILIPPE SCHODDUYN, Dunkerque",
    "lat": 51.040447,
    "lng": 2.402784,
    "transactions": [
      {
        "date": "2021-02-25",
        "priceEur": 260000,
        "typeLocal": "Maison",
        "surfaceM2": 130,
        "isVefa": false
      }
    ]
  },
  "7c7555f51068": {
    "id": "7c7555f51068",
    "label": "103 RUE ARISTIDE BOUREL, Dunkerque",
    "lat": 51.039159,
    "lng": 2.403315,
    "transactions": [
      {
        "date": "2024-06-26",
        "priceEur": 70000,
        "typeLocal": "Appartement",
        "surfaceM2": 55,
        "isVefa": false
      },
      {
        "date": "2021-06-24",
        "priceEur": 75500,
        "typeLocal": "Appartement",
        "surfaceM2": 55,
        "isVefa": false
      },
      {
        "date": "2021-02-18",
        "priceEur": 98000,
        "typeLocal": "Appartement",
        "surfaceM2": 72,
        "isVefa": false
      }
    ]
  },
  "d1bed02e8748": {
    "id": "d1bed02e8748",
    "label": "127 RUE DES PECHEURS, Dunkerque",
    "lat": 51.040556,
    "lng": 2.398708,
    "transactions": [
      {
        "date": "2021-02-22",
        "priceEur": 195000,
        "typeLocal": "Maison",
        "surfaceM2": 80,
        "isVefa": false
      }
    ]
  },
  "30f432d3abdf": {
    "id": "30f432d3abdf",
    "label": "64 RUE DES PECHEURS, Dunkerque",
    "lat": 51.040095,
    "lng": 2.397938,
    "transactions": [
      {
        "date": "2021-04-16",
        "priceEur": 152500,
        "typeLocal": "Maison",
        "surfaceM2": 103,
        "isVefa": false
      },
      {
        "date": "2021-02-19",
        "priceEur": 105000,
        "typeLocal": "Maison",
        "surfaceM2": 103,
        "isVefa": false
      }
    ]
  },
  "1eef5876155c": {
    "id": "1eef5876155c",
    "label": "91 RUE JULES GUESDE, Dunkerque",
    "lat": 51.040107,
    "lng": 2.404985,
    "transactions": [
      {
        "date": "2024-06-28",
        "priceEur": 70500,
        "typeLocal": "Appartement",
        "surfaceM2": 64,
        "isVefa": false
      },
      {
        "date": "2023-04-14",
        "priceEur": 74500,
        "typeLocal": "Appartement",
        "surfaceM2": 54,
        "isVefa": false
      },
      {
        "date": "2021-03-09",
        "priceEur": 58900,
        "typeLocal": "Appartement",
        "surfaceM2": 64,
        "isVefa": false
      }
    ]
  },
  "6556d890bae8": {
    "id": "6556d890bae8",
    "label": "25 RUE JULES LANERY, Dunkerque",
    "lat": 51.035962,
    "lng": 2.402238,
    "transactions": [
      {
        "date": "2021-03-17",
        "priceEur": 143100,
        "typeLocal": "Maison",
        "surfaceM2": 109,
        "isVefa": false
      }
    ]
  },
  "d429a8242df8": {
    "id": "d429a8242df8",
    "label": "103 RUE ARISTIDE BRIAND, Dunkerque",
    "lat": 51.036352,
    "lng": 2.40454,
    "transactions": [
      {
        "date": "2021-03-03",
        "priceEur": 268000,
        "typeLocal": "Maison",
        "surfaceM2": 128,
        "isVefa": false
      }
    ]
  },
  "109a97453fa0": {
    "id": "109a97453fa0",
    "label": "348C AV PIERRE MENDES FRANCE, Dunkerque",
    "lat": 51.040107,
    "lng": 2.404985,
    "transactions": [
      {
        "date": "2021-03-10",
        "priceEur": 40000,
        "typeLocal": "Appartement",
        "surfaceM2": 42,
        "isVefa": false
      }
    ]
  },
  "f43053969512": {
    "id": "f43053969512",
    "label": "94 RUE ARISTIDE BRIAND, Dunkerque",
    "lat": 51.036236,
    "lng": 2.403846,
    "transactions": [
      {
        "date": "2023-07-20",
        "priceEur": 224000,
        "typeLocal": "Maison",
        "surfaceM2": 76,
        "isVefa": false
      },
      {
        "date": "2021-02-26",
        "priceEur": 158000,
        "typeLocal": "Maison",
        "surfaceM2": 76,
        "isVefa": false
      }
    ]
  },
  "67a21726eeb1": {
    "id": "67a21726eeb1",
    "label": "110 RUE ARISTIDE BRIAND, Dunkerque",
    "lat": 51.035754,
    "lng": 2.404535,
    "transactions": [
      {
        "date": "2021-03-04",
        "priceEur": 160500,
        "typeLocal": "Maison",
        "surfaceM2": 59,
        "isVefa": false
      }
    ]
  },
  "fa8d8ad513ff": {
    "id": "fa8d8ad513ff",
    "label": "264B AV PIERRE MENDES FRANCE, Dunkerque",
    "lat": 51.040107,
    "lng": 2.404985,
    "transactions": [
      {
        "date": "2023-09-25",
        "priceEur": 75000,
        "typeLocal": "Appartement",
        "surfaceM2": 64,
        "isVefa": false
      },
      {
        "date": "2022-05-23",
        "priceEur": 80112,
        "typeLocal": "Appartement",
        "surfaceM2": 54,
        "isVefa": false
      },
      {
        "date": "2021-10-14",
        "priceEur": 62000,
        "typeLocal": "Appartement",
        "surfaceM2": 64,
        "isVefa": false
      },
      {
        "date": "2021-07-16",
        "priceEur": 60000,
        "typeLocal": "Appartement",
        "surfaceM2": 54,
        "isVefa": false
      },
      {
        "date": "2021-05-17",
        "priceEur": 47500,
        "typeLocal": "Appartement",
        "surfaceM2": 54,
        "isVefa": false
      },
      {
        "date": "2021-03-12",
        "priceEur": 58500,
        "typeLocal": "Appartement",
        "surfaceM2": 54,
        "isVefa": false
      }
    ]
  },
  "e9c8e6514857": {
    "id": "e9c8e6514857",
    "label": "50 PL DE LA VALLEE DES ROSES, Dunkerque",
    "lat": 51.040299,
    "lng": 2.404473,
    "transactions": [
      {
        "date": "2023-07-21",
        "priceEur": 155236,
        "typeLocal": "Appartement",
        "surfaceM2": 103,
        "isVefa": false
      },
      {
        "date": "2022-09-06",
        "priceEur": 55000,
        "typeLocal": "Appartement",
        "surfaceM2": 32,
        "isVefa": false
      },
      {
        "date": "2022-04-29",
        "priceEur": 149490,
        "typeLocal": "Appartement",
        "surfaceM2": 103,
        "isVefa": false
      },
      {
        "date": "2021-03-12",
        "priceEur": 65000,
        "typeLocal": "Appartement",
        "surfaceM2": 33,
        "isVefa": false
      }
    ]
  },
  "3aa456474d0f": {
    "id": "3aa456474d0f",
    "label": "1260 AV DE ROSENDAEL J COLLACHE, Dunkerque",
    "lat": 51.039605,
    "lng": 2.402679,
    "transactions": [
      {
        "date": "2021-03-31",
        "priceEur": 233000,
        "typeLocal": "Maison",
        "surfaceM2": 105,
        "isVefa": false
      }
    ]
  },
  "8e837576f3ba": {
    "id": "8e837576f3ba",
    "label": "3 RUE ARISTIDE BRIAND, Dunkerque",
    "lat": 51.038739,
    "lng": 2.401435,
    "transactions": [
      {
        "date": "2021-03-26",
        "priceEur": 173800,
        "typeLocal": "Maison",
        "surfaceM2": 85,
        "isVefa": false
      }
    ]
  },
  "c3be19cf3dc0": {
    "id": "c3be19cf3dc0",
    "label": "18 RUE DES PECHEURS, Dunkerque",
    "lat": 51.039796,
    "lng": 2.395276,
    "transactions": [
      {
        "date": "2021-03-31",
        "priceEur": 610000,
        "typeLocal": "Maison",
        "surfaceM2": 290,
        "isVefa": false
      }
    ]
  },
  "2d2c4fe26191": {
    "id": "2d2c4fe26191",
    "label": "1 RUE DES ROSES, Dunkerque",
    "lat": 51.040647,
    "lng": 2.39851,
    "transactions": [
      {
        "date": "2021-03-29",
        "priceEur": 191000,
        "typeLocal": "Maison",
        "surfaceM2": 69,
        "isVefa": false
      }
    ]
  },
  "e1dc4ae16858": {
    "id": "e1dc4ae16858",
    "label": "114 RUE DU PONT NEUF, Dunkerque",
    "lat": 51.034673,
    "lng": 2.401675,
    "transactions": [
      {
        "date": "2021-04-23",
        "priceEur": 60000,
        "typeLocal": "Maison",
        "surfaceM2": 105,
        "isVefa": false
      }
    ]
  },
  "d44fa96d58f4": {
    "id": "d44fa96d58f4",
    "label": "9 IMP LEPEZ, Dunkerque",
    "lat": 51.037813,
    "lng": 2.40153,
    "transactions": [
      {
        "date": "2021-04-27",
        "priceEur": 115000,
        "typeLocal": "Maison",
        "surfaceM2": 110,
        "isVefa": false
      }
    ]
  },
  "e7bcdad5c7cf": {
    "id": "e7bcdad5c7cf",
    "label": "29 RUE HENRI LE SIDANER, Dunkerque",
    "lat": 51.0395,
    "lng": 2.40298,
    "transactions": [
      {
        "date": "2021-04-29",
        "priceEur": 207800,
        "typeLocal": "Maison",
        "surfaceM2": 113,
        "isVefa": false
      }
    ]
  },
  "70a3fe62fe90": {
    "id": "70a3fe62fe90",
    "label": "2 RUE JULES DEGROOTE, Dunkerque",
    "lat": 51.039851,
    "lng": 2.402286,
    "transactions": [
      {
        "date": "2024-10-01",
        "priceEur": 400000,
        "typeLocal": "Maison",
        "surfaceM2": 62,
        "isVefa": false
      },
      {
        "date": "2021-04-30",
        "priceEur": 360000,
        "typeLocal": "Maison",
        "surfaceM2": 62,
        "isVefa": false
      }
    ]
  },
  "d6e230d45d1b": {
    "id": "d6e230d45d1b",
    "label": "9 RUE DES ROSES, Dunkerque",
    "lat": 51.040854,
    "lng": 2.398407,
    "transactions": [
      {
        "date": "2021-05-06",
        "priceEur": 100000,
        "typeLocal": "Maison",
        "surfaceM2": 69,
        "isVefa": false
      }
    ]
  },
  "dae09b4fc2e7": {
    "id": "dae09b4fc2e7",
    "label": "4 RUE DES ROSES, Dunkerque",
    "lat": 51.040615,
    "lng": 2.398079,
    "transactions": [
      {
        "date": "2021-04-30",
        "priceEur": 192900,
        "typeLocal": "Maison",
        "surfaceM2": 73,
        "isVefa": false
      }
    ]
  },
  "7dc948a982fc": {
    "id": "7dc948a982fc",
    "label": "19 RUE GANDHI, Dunkerque",
    "lat": 51.041108,
    "lng": 2.397714,
    "transactions": [
      {
        "date": "2023-03-31",
        "priceEur": 169500,
        "typeLocal": "Maison",
        "surfaceM2": 80,
        "isVefa": false
      },
      {
        "date": "2021-05-14",
        "priceEur": 144600,
        "typeLocal": "Maison",
        "surfaceM2": 80,
        "isVefa": false
      }
    ]
  },
  "7a578a14c3d2": {
    "id": "7a578a14c3d2",
    "label": "148 RUE JULES GUESDE, Dunkerque",
    "lat": 51.040107,
    "lng": 2.404985,
    "transactions": [
      {
        "date": "2024-12-16",
        "priceEur": 90000,
        "typeLocal": "Appartement",
        "surfaceM2": 54,
        "isVefa": false
      },
      {
        "date": "2021-12-13",
        "priceEur": 60000,
        "typeLocal": "Appartement",
        "surfaceM2": 54,
        "isVefa": false
      },
      {
        "date": "2021-05-20",
        "priceEur": 45000,
        "typeLocal": "Appartement",
        "surfaceM2": 64,
        "isVefa": false
      }
    ]
  },
  "c7de752dca28": {
    "id": "c7de752dca28",
    "label": "4 RUE JULES DEGROOTE, Dunkerque",
    "lat": 51.039998,
    "lng": 2.402323,
    "transactions": [
      {
        "date": "2021-06-01",
        "priceEur": 520000,
        "typeLocal": "Maison",
        "surfaceM2": 240,
        "isVefa": false
      }
    ]
  },
  "6ed4e7de2045": {
    "id": "6ed4e7de2045",
    "label": "43 RUE DES PECHEURS, Dunkerque",
    "lat": 51.040242,
    "lng": 2.395955,
    "transactions": [
      {
        "date": "2021-05-25",
        "priceEur": 185000,
        "typeLocal": "Maison",
        "surfaceM2": 85,
        "isVefa": false
      }
    ]
  },
  "5972b01020d2": {
    "id": "5972b01020d2",
    "label": "41 RUE DE LIEGE, Dunkerque",
    "lat": 51.03663,
    "lng": 2.402369,
    "transactions": [
      {
        "date": "2021-06-10",
        "priceEur": 168000,
        "typeLocal": "Maison",
        "surfaceM2": 92,
        "isVefa": false
      }
    ]
  },
  "4801e7d9b81f": {
    "id": "4801e7d9b81f",
    "label": "105 RUE WINSTON CHURCHILL, Dunkerque",
    "lat": 51.039452,
    "lng": 2.399751,
    "transactions": [
      {
        "date": "2021-06-16",
        "priceEur": 260000,
        "typeLocal": "Maison",
        "surfaceM2": 163,
        "isVefa": false
      }
    ]
  },
  "2f015d8064d3": {
    "id": "2f015d8064d3",
    "label": "12 RUE CHARLES DUFRESNE, Dunkerque",
    "lat": 51.040335,
    "lng": 2.397531,
    "transactions": [
      {
        "date": "2021-06-25",
        "priceEur": 100700,
        "typeLocal": "Appartement",
        "surfaceM2": 120,
        "isVefa": false
      }
    ]
  },
  "08ce7ea71568": {
    "id": "08ce7ea71568",
    "label": "21 RUE PAUL DOUMER, Dunkerque",
    "lat": 51.040956,
    "lng": 2.400472,
    "transactions": [
      {
        "date": "2021-07-12",
        "priceEur": 247850,
        "typeLocal": "Maison",
        "surfaceM2": 124,
        "isVefa": false
      }
    ]
  },
  "343cfe497a2a": {
    "id": "343cfe497a2a",
    "label": "41 RUE PAUL DOUMER, Dunkerque",
    "lat": 51.041161,
    "lng": 2.401324,
    "transactions": [
      {
        "date": "2022-02-15",
        "priceEur": 285000,
        "typeLocal": "Maison",
        "surfaceM2": 100,
        "isVefa": false
      },
      {
        "date": "2021-07-12",
        "priceEur": 240000,
        "typeLocal": "Maison",
        "surfaceM2": 100,
        "isVefa": false
      }
    ]
  },
  "984658fd0cb2": {
    "id": "984658fd0cb2",
    "label": "127 RUE JULES GUESDE, Dunkerque",
    "lat": 51.040107,
    "lng": 2.404985,
    "transactions": [
      {
        "date": "2024-11-13",
        "priceEur": 95000,
        "typeLocal": "Appartement",
        "surfaceM2": 64,
        "isVefa": false
      },
      {
        "date": "2022-09-30",
        "priceEur": 106470,
        "typeLocal": "Appartement",
        "surfaceM2": 64,
        "isVefa": false
      },
      {
        "date": "2022-08-12",
        "priceEur": 80000,
        "typeLocal": "Appartement",
        "surfaceM2": 54,
        "isVefa": false
      },
      {
        "date": "2021-07-12",
        "priceEur": 49000,
        "typeLocal": "Appartement",
        "surfaceM2": 54,
        "isVefa": false
      }
    ]
  },
  "6c6d5b924468": {
    "id": "6c6d5b924468",
    "label": "20 PL DE LA VALLEE DES ROSES, Dunkerque",
    "lat": 51.040299,
    "lng": 2.404473,
    "transactions": [
      {
        "date": "2021-12-07",
        "priceEur": 107750,
        "typeLocal": "Appartement",
        "surfaceM2": 76,
        "isVefa": false
      },
      {
        "date": "2021-07-23",
        "priceEur": 89652,
        "typeLocal": "Appartement",
        "surfaceM2": 65,
        "isVefa": false
      }
    ]
  },
  "392e64350ebd": {
    "id": "392e64350ebd",
    "label": "242 RUE WINSTON CHURCHILL, Dunkerque",
    "lat": 51.040738,
    "lng": 2.399303,
    "transactions": [
      {
        "date": "2021-07-21",
        "priceEur": 170000,
        "typeLocal": "Maison",
        "surfaceM2": 78,
        "isVefa": false
      }
    ]
  },
  "9a736a37fca1": {
    "id": "9a736a37fca1",
    "label": "1295 AV DE ROSENDAEL J COLLACHE, Dunkerque",
    "lat": 51.04014,
    "lng": 2.402512,
    "transactions": [
      {
        "date": "2021-07-29",
        "priceEur": 290000,
        "typeLocal": "Maison",
        "surfaceM2": 156,
        "isVefa": false
      }
    ]
  },
  "0519595e7613": {
    "id": "0519595e7613",
    "label": "82 RUE HENRI LE SIDANER, Dunkerque",
    "lat": 51.039159,
    "lng": 2.403315,
    "transactions": [
      {
        "date": "2024-09-18",
        "priceEur": 159850,
        "typeLocal": "Appartement",
        "surfaceM2": 72,
        "isVefa": false
      },
      {
        "date": "2023-08-28",
        "priceEur": 95000,
        "typeLocal": "Appartement",
        "surfaceM2": 72,
        "isVefa": false
      },
      {
        "date": "2023-05-11",
        "priceEur": 72006,
        "typeLocal": "Appartement",
        "surfaceM2": 48,
        "isVefa": false
      },
      {
        "date": "2021-09-13",
        "priceEur": 100500,
        "typeLocal": "Appartement",
        "surfaceM2": 72,
        "isVefa": false
      },
      {
        "date": "2021-07-26",
        "priceEur": 76500,
        "typeLocal": "Appartement",
        "surfaceM2": 55,
        "isVefa": false
      }
    ]
  },
  "1c087ba2a7e7": {
    "id": "1c087ba2a7e7",
    "label": "24 RUE JULES DEGROOTE, Dunkerque",
    "lat": 51.040626,
    "lng": 2.401876,
    "transactions": [
      {
        "date": "2021-08-12",
        "priceEur": 300000,
        "typeLocal": "Appartement",
        "surfaceM2": 30,
        "isVefa": false
      },
      {
        "date": "2021-08-12",
        "priceEur": 300000,
        "typeLocal": "Appartement",
        "surfaceM2": 53,
        "isVefa": false
      },
      {
        "date": "2021-08-12",
        "priceEur": 300000,
        "typeLocal": "Appartement",
        "surfaceM2": 70,
        "isVefa": false
      }
    ]
  },
  "de316df26cfd": {
    "id": "de316df26cfd",
    "label": "15 RUE ARISTIDE BRIAND, Dunkerque",
    "lat": 51.038485,
    "lng": 2.401936,
    "transactions": [
      {
        "date": "2021-09-02",
        "priceEur": 156808,
        "typeLocal": "Maison",
        "surfaceM2": 134,
        "isVefa": false
      }
    ]
  },
  "abd8b6f1b858": {
    "id": "abd8b6f1b858",
    "label": "42 RUE DU PONT NEUF, Dunkerque",
    "lat": 51.036385,
    "lng": 2.39956,
    "transactions": [
      {
        "date": "2021-08-27",
        "priceEur": 250000,
        "typeLocal": "Maison",
        "surfaceM2": 115,
        "isVefa": false
      }
    ]
  },
  "7593ce1964e7": {
    "id": "7593ce1964e7",
    "label": "179 RUE JULES GUESDE, Dunkerque",
    "lat": 51.040107,
    "lng": 2.404985,
    "transactions": [
      {
        "date": "2025-03-03",
        "priceEur": 50000,
        "typeLocal": "Appartement",
        "surfaceM2": 54,
        "isVefa": false
      },
      {
        "date": "2024-03-22",
        "priceEur": 103000,
        "typeLocal": "Appartement",
        "surfaceM2": 64,
        "isVefa": false
      },
      {
        "date": "2022-08-23",
        "priceEur": 65500,
        "typeLocal": "Appartement",
        "surfaceM2": 64,
        "isVefa": false
      },
      {
        "date": "2021-09-14",
        "priceEur": 84000,
        "typeLocal": "Appartement",
        "surfaceM2": 64,
        "isVefa": false
      }
    ]
  },
  "e1b6449b5189": {
    "id": "e1b6449b5189",
    "label": "61 RUE NAPOLEON DUBOIS, Dunkerque",
    "lat": 51.034805,
    "lng": 2.397356,
    "transactions": [
      {
        "date": "2024-09-23",
        "priceEur": 266000,
        "typeLocal": "Appartement",
        "surfaceM2": 75,
        "isVefa": false
      },
      {
        "date": "2023-04-21",
        "priceEur": 408420,
        "typeLocal": "Appartement",
        "surfaceM2": 142,
        "isVefa": false
      },
      {
        "date": "2021-09-15",
        "priceEur": 220000,
        "typeLocal": "Appartement",
        "surfaceM2": 75,
        "isVefa": false
      }
    ]
  },
  "5eb23117b2a6": {
    "id": "5eb23117b2a6",
    "label": "58 RUE DU PONT NEUF, Dunkerque",
    "lat": 51.035981,
    "lng": 2.400056,
    "transactions": [
      {
        "date": "2021-09-16",
        "priceEur": 433400,
        "typeLocal": "Maison",
        "surfaceM2": 238,
        "isVefa": false
      }
    ]
  },
  "a7c5365b1f96": {
    "id": "a7c5365b1f96",
    "label": "42 RUE DES PECHEURS, Dunkerque",
    "lat": 51.039947,
    "lng": 2.396922,
    "transactions": [
      {
        "date": "2021-09-20",
        "priceEur": 195600,
        "typeLocal": "Maison",
        "surfaceM2": 51,
        "isVefa": false
      }
    ]
  },
  "5c3dda065c39": {
    "id": "5c3dda065c39",
    "label": "113 RUE DES CYCLAMENS, Dunkerque",
    "lat": 51.035926,
    "lng": 2.399509,
    "transactions": [
      {
        "date": "2021-09-27",
        "priceEur": 430000,
        "typeLocal": "Maison",
        "surfaceM2": 120,
        "isVefa": false
      }
    ]
  },
  "e8eed25638e5": {
    "id": "e8eed25638e5",
    "label": "867 QUAI AUX FLEURS, Dunkerque",
    "lat": 51.034533,
    "lng": 2.401974,
    "transactions": [
      {
        "date": "2021-09-28",
        "priceEur": 197700,
        "typeLocal": "Maison",
        "surfaceM2": 98,
        "isVefa": false
      }
    ]
  },
  "476c039c7115": {
    "id": "476c039c7115",
    "label": "85 RUE WINSTON CHURCHILL, Dunkerque",
    "lat": 51.039298,
    "lng": 2.399903,
    "transactions": [
      {
        "date": "2021-09-23",
        "priceEur": 380000,
        "typeLocal": "Maison",
        "surfaceM2": 193,
        "isVefa": false
      }
    ]
  },
  "b974a8c3fe9b": {
    "id": "b974a8c3fe9b",
    "label": "57 AV LOUIS HERBEAUX, Dunkerque",
    "lat": 51.037284,
    "lng": 2.395811,
    "transactions": [
      {
        "date": "2022-06-14",
        "priceEur": 114530,
        "typeLocal": "Appartement",
        "surfaceM2": 86,
        "isVefa": false
      },
      {
        "date": "2021-10-12",
        "priceEur": 128500,
        "typeLocal": "Appartement",
        "surfaceM2": 86,
        "isVefa": false
      }
    ]
  },
  "dffe72d55207": {
    "id": "dffe72d55207",
    "label": "81 AV LOUIS HERBEAUX, Dunkerque",
    "lat": 51.037284,
    "lng": 2.395811,
    "transactions": [
      {
        "date": "2023-09-14",
        "priceEur": 140000,
        "typeLocal": "Appartement",
        "surfaceM2": 96,
        "isVefa": false
      },
      {
        "date": "2022-10-12",
        "priceEur": 131000,
        "typeLocal": "Appartement",
        "surfaceM2": 86,
        "isVefa": false
      },
      {
        "date": "2021-09-27",
        "priceEur": 113870,
        "typeLocal": "Appartement",
        "surfaceM2": 86,
        "isVefa": false
      }
    ]
  },
  "3cd51bfc951f": {
    "id": "3cd51bfc951f",
    "label": "468 RUE ANATOLE FRANCE, Dunkerque",
    "lat": 51.041121,
    "lng": 2.397316,
    "transactions": [
      {
        "date": "2021-10-13",
        "priceEur": 85000,
        "typeLocal": "Maison",
        "surfaceM2": 62,
        "isVefa": false
      }
    ]
  },
  "c72fdeb4a1e0": {
    "id": "c72fdeb4a1e0",
    "label": "20 RUE DES PECHEURS, Dunkerque",
    "lat": 51.039672,
    "lng": 2.395626,
    "transactions": [
      {
        "date": "2025-06-16",
        "priceEur": 90000,
        "typeLocal": "Appartement",
        "surfaceM2": 55,
        "isVefa": false
      },
      {
        "date": "2025-05-12",
        "priceEur": 139000,
        "typeLocal": "Appartement",
        "surfaceM2": 67,
        "isVefa": false
      },
      {
        "date": "2023-03-06",
        "priceEur": 83100,
        "typeLocal": "Appartement",
        "surfaceM2": 37,
        "isVefa": false
      },
      {
        "date": "2022-11-08",
        "priceEur": 65000,
        "typeLocal": "Appartement",
        "surfaceM2": 25,
        "isVefa": false
      },
      {
        "date": "2021-10-06",
        "priceEur": 48500,
        "typeLocal": "Appartement",
        "surfaceM2": 26,
        "isVefa": false
      }
    ]
  },
  "9794ad616a5b": {
    "id": "9794ad616a5b",
    "label": "19 RUE ARISTIDE BRIAND, Dunkerque",
    "lat": 51.038399,
    "lng": 2.402062,
    "transactions": [
      {
        "date": "2021-10-28",
        "priceEur": 175000,
        "typeLocal": "Maison",
        "surfaceM2": 120,
        "isVefa": false
      }
    ]
  },
  "653e5885f374": {
    "id": "653e5885f374",
    "label": "52 RUE PAUL DOUMER, Dunkerque",
    "lat": 51.04101,
    "lng": 2.402036,
    "transactions": [
      {
        "date": "2021-11-05",
        "priceEur": 210000,
        "typeLocal": "Maison",
        "surfaceM2": 173,
        "isVefa": false
      }
    ]
  },
  "63654ff9453e": {
    "id": "63654ff9453e",
    "label": "691 AV DE ROSENDAEL J COLLACHE, Dunkerque",
    "lat": 51.037284,
    "lng": 2.395811,
    "transactions": [
      {
        "date": "2023-01-16",
        "priceEur": 183500,
        "typeLocal": "Appartement",
        "surfaceM2": 76,
        "isVefa": false
      },
      {
        "date": "2021-10-26",
        "priceEur": 85000,
        "typeLocal": "Appartement",
        "surfaceM2": 76,
        "isVefa": false
      }
    ]
  },
  "99e33a0da4bc": {
    "id": "99e33a0da4bc",
    "label": "184 RUE JULES GUESDE, Dunkerque",
    "lat": 51.040107,
    "lng": 2.404985,
    "transactions": [
      {
        "date": "2025-04-17",
        "priceEur": 100000,
        "typeLocal": "Appartement",
        "surfaceM2": 54,
        "isVefa": false
      },
      {
        "date": "2022-11-05",
        "priceEur": 104500,
        "typeLocal": "Appartement",
        "surfaceM2": 78,
        "isVefa": false
      },
      {
        "date": "2022-09-13",
        "priceEur": 80000,
        "typeLocal": "Appartement",
        "surfaceM2": 78,
        "isVefa": false
      },
      {
        "date": "2021-11-02",
        "priceEur": 112350,
        "typeLocal": "Appartement",
        "surfaceM2": 78,
        "isVefa": false
      }
    ]
  },
  "8f4794909939": {
    "id": "8f4794909939",
    "label": "38 RUE DES PECHEURS, Dunkerque",
    "lat": 51.039915,
    "lng": 2.396793,
    "transactions": [
      {
        "date": "2021-11-18",
        "priceEur": 145600,
        "typeLocal": "Maison",
        "surfaceM2": 67,
        "isVefa": false
      }
    ]
  },
  "c08ab347fbc0": {
    "id": "c08ab347fbc0",
    "label": "32 RUE JULES LANERY, Dunkerque",
    "lat": 51.035762,
    "lng": 2.402856,
    "transactions": [
      {
        "date": "2021-11-29",
        "priceEur": 140000,
        "typeLocal": "Maison",
        "surfaceM2": 104,
        "isVefa": false
      }
    ]
  },
  "997460cea172": {
    "id": "997460cea172",
    "label": "20 RUE PAUL DOUMER, Dunkerque",
    "lat": 51.040628,
    "lng": 2.4004,
    "transactions": [
      {
        "date": "2021-12-14",
        "priceEur": 162400,
        "typeLocal": "Maison",
        "surfaceM2": 87,
        "isVefa": false
      }
    ]
  },
  "4e12abf6ebbc": {
    "id": "4e12abf6ebbc",
    "label": "57 RUE JULES LANERY, Dunkerque",
    "lat": 51.036438,
    "lng": 2.403419,
    "transactions": [
      {
        "date": "2023-10-09",
        "priceEur": 265000,
        "typeLocal": "Maison",
        "surfaceM2": 71,
        "isVefa": false
      },
      {
        "date": "2021-12-03",
        "priceEur": 234000,
        "typeLocal": "Maison",
        "surfaceM2": 71,
        "isVefa": false
      }
    ]
  },
  "a07b7ba7a976": {
    "id": "a07b7ba7a976",
    "label": "41 RUE DES PECHEURS, Dunkerque",
    "lat": 51.040119,
    "lng": 2.395956,
    "transactions": [
      {
        "date": "2021-12-17",
        "priceEur": 205000,
        "typeLocal": "Maison",
        "surfaceM2": 70,
        "isVefa": false
      }
    ]
  },
  "f33e70bad4d6": {
    "id": "f33e70bad4d6",
    "label": "92 RUE ARISTIDE BRIAND, Dunkerque",
    "lat": 51.036309,
    "lng": 2.403873,
    "transactions": [
      {
        "date": "2021-12-02",
        "priceEur": 182500,
        "typeLocal": "Maison",
        "surfaceM2": 78,
        "isVefa": false
      }
    ]
  },
  "ff0c2e7424e2": {
    "id": "ff0c2e7424e2",
    "label": "40 RUE YVON LAMAND, Dunkerque",
    "lat": 51.039595,
    "lng": 2.403181,
    "transactions": [
      {
        "date": "2021-12-15",
        "priceEur": 150000,
        "typeLocal": "Maison",
        "surfaceM2": 91,
        "isVefa": false
      },
      {
        "date": "2021-12-15",
        "priceEur": 150000,
        "typeLocal": "Maison",
        "surfaceM2": 109,
        "isVefa": false
      }
    ]
  },
  "65f114ffaf06": {
    "id": "65f114ffaf06",
    "label": "46 RUE DU PONT NEUF, Dunkerque",
    "lat": 51.03629,
    "lng": 2.39967,
    "transactions": [
      {
        "date": "2021-12-29",
        "priceEur": 300000,
        "typeLocal": "Maison",
        "surfaceM2": 132,
        "isVefa": false
      }
    ]
  },
  "e9f383c91f32": {
    "id": "e9f383c91f32",
    "label": "16 RUE ARISTIDE BRIAND, Dunkerque",
    "lat": 51.038175,
    "lng": 2.401649,
    "transactions": [
      {
        "date": "2022-01-12",
        "priceEur": 240000,
        "typeLocal": "Maison",
        "surfaceM2": 102,
        "isVefa": false
      }
    ]
  },
  "031ef0c62f9f": {
    "id": "031ef0c62f9f",
    "label": "11 RUE ARISTIDE BRIAND, Dunkerque",
    "lat": 51.038622,
    "lng": 2.40174,
    "transactions": [
      {
        "date": "2022-01-21",
        "priceEur": 190000,
        "typeLocal": "Maison",
        "surfaceM2": 107,
        "isVefa": false
      }
    ]
  },
  "2aaf2cc38b2e": {
    "id": "2aaf2cc38b2e",
    "label": "24 RUE PHILIPPE SCHODDUYN, Dunkerque",
    "lat": 51.041112,
    "lng": 2.402761,
    "transactions": [
      {
        "date": "2022-02-16",
        "priceEur": 134000,
        "typeLocal": "Appartement",
        "surfaceM2": 73,
        "isVefa": false
      },
      {
        "date": "2022-01-14",
        "priceEur": 116000,
        "typeLocal": "Appartement",
        "surfaceM2": 53,
        "isVefa": false
      }
    ]
  },
  "f2526787c3c5": {
    "id": "f2526787c3c5",
    "label": "15 RUE DU PONT NEUF, Dunkerque",
    "lat": 51.036129,
    "lng": 2.400511,
    "transactions": [
      {
        "date": "2022-01-24",
        "priceEur": 184900,
        "typeLocal": "Appartement",
        "surfaceM2": 97,
        "isVefa": false
      }
    ]
  },
  "e1f2488c82b1": {
    "id": "e1f2488c82b1",
    "label": "48 RUE DU PONT NEUF, Dunkerque",
    "lat": 51.036213,
    "lng": 2.399678,
    "transactions": [
      {
        "date": "2022-02-17",
        "priceEur": 307000,
        "typeLocal": "Maison",
        "surfaceM2": 107,
        "isVefa": false
      }
    ]
  },
  "cbaf09ba8e8e": {
    "id": "cbaf09ba8e8e",
    "label": "111 RUE DES ANC COMBATTANTS AFN, Dunkerque",
    "lat": 51.037311,
    "lng": 2.40505,
    "transactions": [
      {
        "date": "2022-02-22",
        "priceEur": 278400,
        "typeLocal": "Maison",
        "surfaceM2": 127,
        "isVefa": false
      }
    ]
  },
  "ba564607aaab": {
    "id": "ba564607aaab",
    "label": "669 AV DE ROSENDAEL J COLLACHE, Dunkerque",
    "lat": 51.037284,
    "lng": 2.395811,
    "transactions": [
      {
        "date": "2022-03-07",
        "priceEur": 130000,
        "typeLocal": "Appartement",
        "surfaceM2": 76,
        "isVefa": false
      }
    ]
  },
  "ad8b18f416f7": {
    "id": "ad8b18f416f7",
    "label": "42 RUE HENRI LE SIDANER, Dunkerque",
    "lat": 51.039159,
    "lng": 2.403315,
    "transactions": [
      {
        "date": "2022-07-05",
        "priceEur": 76010,
        "typeLocal": "Appartement",
        "surfaceM2": 48,
        "isVefa": false
      },
      {
        "date": "2022-05-24",
        "priceEur": 93000,
        "typeLocal": "Appartement",
        "surfaceM2": 72,
        "isVefa": false
      },
      {
        "date": "2022-02-28",
        "priceEur": 90500,
        "typeLocal": "Appartement",
        "surfaceM2": 55,
        "isVefa": false
      }
    ]
  },
  "1581f2342da2": {
    "id": "1581f2342da2",
    "label": "31 AV LOUIS HERBEAUX, Dunkerque",
    "lat": 51.037284,
    "lng": 2.395811,
    "transactions": [
      {
        "date": "2025-06-27",
        "priceEur": 133000,
        "typeLocal": "Appartement",
        "surfaceM2": 96,
        "isVefa": false
      },
      {
        "date": "2024-02-22",
        "priceEur": 173530,
        "typeLocal": "Appartement",
        "surfaceM2": 86,
        "isVefa": false
      },
      {
        "date": "2022-04-21",
        "priceEur": 138000,
        "typeLocal": "Appartement",
        "surfaceM2": 86,
        "isVefa": false
      }
    ]
  },
  "6fc188dd29f3": {
    "id": "6fc188dd29f3",
    "label": "1386 AV DE ROSENDAEL J COLLACHE, Dunkerque",
    "lat": 51.040333,
    "lng": 2.404007,
    "transactions": [
      {
        "date": "2022-05-02",
        "priceEur": 475000,
        "typeLocal": "Maison",
        "surfaceM2": 126,
        "isVefa": false
      }
    ]
  },
  "431916685423": {
    "id": "431916685423",
    "label": "161 RUE WINSTON CHURCHILL, Dunkerque",
    "lat": 51.039909,
    "lng": 2.39926,
    "transactions": [
      {
        "date": "2025-01-20",
        "priceEur": 360000,
        "typeLocal": "Maison",
        "surfaceM2": 135,
        "isVefa": false
      },
      {
        "date": "2022-05-09",
        "priceEur": 345000,
        "typeLocal": "Maison",
        "surfaceM2": 135,
        "isVefa": false
      }
    ]
  },
  "4059a389f259": {
    "id": "4059a389f259",
    "label": "37 RUE PAUL DOUMER, Dunkerque",
    "lat": 51.041064,
    "lng": 2.40118,
    "transactions": [
      {
        "date": "2022-05-25",
        "priceEur": 158250,
        "typeLocal": "Maison",
        "surfaceM2": 80,
        "isVefa": false
      }
    ]
  },
  "8bdd20e52ec8": {
    "id": "8bdd20e52ec8",
    "label": "130 RUE JULES GUESDE, Dunkerque",
    "lat": 51.040107,
    "lng": 2.404985,
    "transactions": [
      {
        "date": "2024-04-19",
        "priceEur": 79800,
        "typeLocal": "Appartement",
        "surfaceM2": 54,
        "isVefa": false
      },
      {
        "date": "2023-10-18",
        "priceEur": 95000,
        "typeLocal": "Appartement",
        "surfaceM2": 54,
        "isVefa": false
      },
      {
        "date": "2022-05-16",
        "priceEur": 68500,
        "typeLocal": "Appartement",
        "surfaceM2": 54,
        "isVefa": false
      }
    ]
  },
  "cf90c55a3df8": {
    "id": "cf90c55a3df8",
    "label": "50 RUE PAUL DOUMER, Dunkerque",
    "lat": 51.041004,
    "lng": 2.401956,
    "transactions": [
      {
        "date": "2022-06-01",
        "priceEur": 230000,
        "typeLocal": "Maison",
        "surfaceM2": 85,
        "isVefa": false
      }
    ]
  },
  "c6ace1ed6584": {
    "id": "c6ace1ed6584",
    "label": "935 QUAI AUX FLEURS, Dunkerque",
    "lat": 51.034748,
    "lng": 2.402711,
    "transactions": [
      {
        "date": "2022-06-09",
        "priceEur": 186000,
        "typeLocal": "Appartement",
        "surfaceM2": 71,
        "isVefa": false
      }
    ]
  },
  "1ec2f4806d25": {
    "id": "1ec2f4806d25",
    "label": "1081 AV DE ROSENDAEL J COLLACHE, Dunkerque",
    "lat": 51.038765,
    "lng": 2.40048,
    "transactions": [
      {
        "date": "2022-07-01",
        "priceEur": 285000,
        "typeLocal": "Appartement",
        "surfaceM2": 59,
        "isVefa": false
      },
      {
        "date": "2022-07-01",
        "priceEur": 285000,
        "typeLocal": "Appartement",
        "surfaceM2": 92,
        "isVefa": false
      },
      {
        "date": "2022-07-01",
        "priceEur": 285000,
        "typeLocal": "Appartement",
        "surfaceM2": 62,
        "isVefa": false
      }
    ]
  },
  "8032d1b08ce7": {
    "id": "8032d1b08ce7",
    "label": "107 RUE DES PECHEURS, Dunkerque",
    "lat": 51.040347,
    "lng": 2.397807,
    "transactions": [
      {
        "date": "2022-07-11",
        "priceEur": 157500,
        "typeLocal": "Maison",
        "surfaceM2": 68,
        "isVefa": false
      }
    ]
  },
  "ba5f84ca39c6": {
    "id": "ba5f84ca39c6",
    "label": "206 RUE WINSTON CHURCHILL, Dunkerque",
    "lat": 51.040397,
    "lng": 2.399477,
    "transactions": [
      {
        "date": "2022-07-08",
        "priceEur": 215000,
        "typeLocal": "Maison",
        "surfaceM2": 148,
        "isVefa": false
      }
    ]
  },
  "2c6e5d4db3d4": {
    "id": "2c6e5d4db3d4",
    "label": "106 RUE CHARLES DUFRESNE, Dunkerque",
    "lat": 51.041076,
    "lng": 2.397218,
    "transactions": [
      {
        "date": "2022-07-22",
        "priceEur": 170000,
        "typeLocal": "Maison",
        "surfaceM2": 84,
        "isVefa": false
      }
    ]
  },
  "f074e029cf31": {
    "id": "f074e029cf31",
    "label": "120A RUE DES CYCLAMENS, Dunkerque",
    "lat": 51.036038,
    "lng": 2.3991,
    "transactions": [
      {
        "date": "2025-04-29",
        "priceEur": 281400,
        "typeLocal": "Appartement",
        "surfaceM2": 99,
        "isVefa": false
      },
      {
        "date": "2023-10-06",
        "priceEur": 270000,
        "typeLocal": "Appartement",
        "surfaceM2": 99,
        "isVefa": false
      },
      {
        "date": "2022-10-28",
        "priceEur": 235000,
        "typeLocal": "Appartement",
        "surfaceM2": 99,
        "isVefa": false
      },
      {
        "date": "2022-07-18",
        "priceEur": 261000,
        "typeLocal": "Appartement",
        "surfaceM2": 106,
        "isVefa": false
      }
    ]
  },
  "274f9e53e0ce": {
    "id": "274f9e53e0ce",
    "label": "299 RUE WINSTON CHURCHILL, Dunkerque",
    "lat": 51.04109,
    "lng": 2.398607,
    "transactions": [
      {
        "date": "2022-07-21",
        "priceEur": 250000,
        "typeLocal": "Maison",
        "surfaceM2": 52,
        "isVefa": false
      }
    ]
  },
  "24303ce58721": {
    "id": "24303ce58721",
    "label": "20 RUE DE LIEGE, Dunkerque",
    "lat": 51.03597,
    "lng": 2.401907,
    "transactions": [
      {
        "date": "2022-07-22",
        "priceEur": 235000,
        "typeLocal": "Maison",
        "surfaceM2": 132,
        "isVefa": false
      }
    ]
  },
  "247a6f70a10e": {
    "id": "247a6f70a10e",
    "label": "3 RUE DES ROSES, Dunkerque",
    "lat": 51.040687,
    "lng": 2.398502,
    "transactions": [
      {
        "date": "2022-08-08",
        "priceEur": 178650,
        "typeLocal": "Maison",
        "surfaceM2": 59,
        "isVefa": false
      }
    ]
  },
  "51bc84be9366": {
    "id": "51bc84be9366",
    "label": "1199 AV DE ROSENDAEL J COLLACHE, Dunkerque",
    "lat": 51.039458,
    "lng": 2.40168,
    "transactions": [
      {
        "date": "2022-08-05",
        "priceEur": 202000,
        "typeLocal": "Maison",
        "surfaceM2": 103,
        "isVefa": false
      }
    ]
  },
  "39557bb97c83": {
    "id": "39557bb97c83",
    "label": "54 RUE ARISTIDE BRIAND, Dunkerque",
    "lat": 51.037254,
    "lng": 2.402437,
    "transactions": [
      {
        "date": "2025-04-08",
        "priceEur": 105000,
        "typeLocal": "Maison",
        "surfaceM2": 85,
        "isVefa": false
      },
      {
        "date": "2022-08-17",
        "priceEur": 165000,
        "typeLocal": "Maison",
        "surfaceM2": 85,
        "isVefa": false
      }
    ]
  },
  "bc12382634c9": {
    "id": "bc12382634c9",
    "label": "59 RUE JEAN JACQUES ROUSSEAU, Dunkerque",
    "lat": 51.039825,
    "lng": 2.397254,
    "transactions": [
      {
        "date": "2022-08-31",
        "priceEur": 127000,
        "typeLocal": "Maison",
        "surfaceM2": 54,
        "isVefa": false
      }
    ]
  },
  "73618d0268f4": {
    "id": "73618d0268f4",
    "label": "34 RUE DES PECHEURS, Dunkerque",
    "lat": 51.039874,
    "lng": 2.396641,
    "transactions": [
      {
        "date": "2025-06-04",
        "priceEur": 352000,
        "typeLocal": "Maison",
        "surfaceM2": 133,
        "isVefa": false
      },
      {
        "date": "2022-09-01",
        "priceEur": 307600,
        "typeLocal": "Maison",
        "surfaceM2": 133,
        "isVefa": false
      }
    ]
  },
  "40e8f00a0c4a": {
    "id": "40e8f00a0c4a",
    "label": "9 RUE PAUL MACHY, Dunkerque",
    "lat": 51.041228,
    "lng": 2.404584,
    "transactions": [
      {
        "date": "2022-08-23",
        "priceEur": 143000,
        "typeLocal": "Appartement",
        "surfaceM2": 111,
        "isVefa": false
      }
    ]
  },
  "1e530c713fe3": {
    "id": "1e530c713fe3",
    "label": "7 RUE JULES DEGROOTE, Dunkerque",
    "lat": 51.039836,
    "lng": 2.40184,
    "transactions": [
      {
        "date": "2024-11-13",
        "priceEur": 155000,
        "typeLocal": "Maison",
        "surfaceM2": 110,
        "isVefa": false
      },
      {
        "date": "2022-09-12",
        "priceEur": 275500,
        "typeLocal": "Maison",
        "surfaceM2": 110,
        "isVefa": false
      }
    ]
  },
  "00a39a198022": {
    "id": "00a39a198022",
    "label": "93 RUE HENRI LE SIDANER, Dunkerque",
    "lat": 51.038802,
    "lng": 2.402981,
    "transactions": [
      {
        "date": "2022-09-06",
        "priceEur": 150100,
        "typeLocal": "Maison",
        "surfaceM2": 109,
        "isVefa": false
      },
      {
        "date": "2022-09-06",
        "priceEur": 150100,
        "typeLocal": "Maison",
        "surfaceM2": 113,
        "isVefa": false
      }
    ]
  },
  "031d9b91447c": {
    "id": "031d9b91447c",
    "label": "18 RUE JULES FERRY, Dunkerque",
    "lat": 51.04128,
    "lng": 2.399903,
    "transactions": [
      {
        "date": "2022-09-14",
        "priceEur": 215806,
        "typeLocal": "Maison",
        "surfaceM2": 82,
        "isVefa": false
      }
    ]
  },
  "4c18399814af": {
    "id": "4c18399814af",
    "label": "40 RUE MAURICE RAVEL, Dunkerque",
    "lat": 51.039905,
    "lng": 2.396377,
    "transactions": [
      {
        "date": "2022-09-20",
        "priceEur": 260000,
        "typeLocal": "Appartement",
        "surfaceM2": 33,
        "isVefa": false
      },
      {
        "date": "2022-09-20",
        "priceEur": 260000,
        "typeLocal": "Appartement",
        "surfaceM2": 36,
        "isVefa": false
      },
      {
        "date": "2022-09-20",
        "priceEur": 260000,
        "typeLocal": "Appartement",
        "surfaceM2": 37,
        "isVefa": false
      }
    ]
  },
  "e0001882f5e4": {
    "id": "e0001882f5e4",
    "label": "1060 AV DE ROSENDAEL J COLLACHE, Dunkerque",
    "lat": 51.038328,
    "lng": 2.400769,
    "transactions": [
      {
        "date": "2022-09-30",
        "priceEur": 369600,
        "typeLocal": "Maison",
        "surfaceM2": 127,
        "isVefa": false
      }
    ]
  },
  "d0cb9c66815e": {
    "id": "d0cb9c66815e",
    "label": "12 RUE PHILIPPE SCHODDUYN, Dunkerque",
    "lat": 51.040718,
    "lng": 2.403028,
    "transactions": [
      {
        "date": "2022-10-31",
        "priceEur": 280000,
        "typeLocal": "Maison",
        "surfaceM2": 125,
        "isVefa": false
      }
    ]
  },
  "77eaab1cf80a": {
    "id": "77eaab1cf80a",
    "label": "36 RUE DU DOC ROBERT BREYNAERT, Dunkerque",
    "lat": 51.037507,
    "lng": 2.403941,
    "transactions": [
      {
        "date": "2022-10-26",
        "priceEur": 260000,
        "typeLocal": "Maison",
        "surfaceM2": 120,
        "isVefa": false
      }
    ]
  },
  "621ff7b1e7c0": {
    "id": "621ff7b1e7c0",
    "label": "10 RUE FELIX FAURE, Dunkerque",
    "lat": 51.041333,
    "lng": 2.401104,
    "transactions": [
      {
        "date": "2022-10-21",
        "priceEur": 135000,
        "typeLocal": "Maison",
        "surfaceM2": 97,
        "isVefa": false
      }
    ]
  },
  "058d47179f4f": {
    "id": "058d47179f4f",
    "label": "61 RUE ARISTIDE BRIAND, Dunkerque",
    "lat": 51.037385,
    "lng": 2.403401,
    "transactions": [
      {
        "date": "2022-11-08",
        "priceEur": 197000,
        "typeLocal": "Maison",
        "surfaceM2": 91,
        "isVefa": false
      }
    ]
  },
  "b9b5d33876f1": {
    "id": "b9b5d33876f1",
    "label": "316 RUE WINSTON CHURCHILL, Dunkerque",
    "lat": 51.041343,
    "lng": 2.398939,
    "transactions": [
      {
        "date": "2022-11-03",
        "priceEur": 230000,
        "typeLocal": "Maison",
        "surfaceM2": 84,
        "isVefa": false
      }
    ]
  },
  "12df67384c42": {
    "id": "12df67384c42",
    "label": "711 AV DE ROSENDAEL J COLLACHE, Dunkerque",
    "lat": 51.037284,
    "lng": 2.395811,
    "transactions": [
      {
        "date": "2023-09-25",
        "priceEur": 89000,
        "typeLocal": "Appartement",
        "surfaceM2": 96,
        "isVefa": false
      },
      {
        "date": "2022-10-31",
        "priceEur": 142775,
        "typeLocal": "Appartement",
        "surfaceM2": 96,
        "isVefa": false
      }
    ]
  },
  "a4f0489379d9": {
    "id": "a4f0489379d9",
    "label": "91 RUE DES PECHEURS, Dunkerque",
    "lat": 51.040333,
    "lng": 2.397661,
    "transactions": [
      {
        "date": "2022-11-02",
        "priceEur": 225900,
        "typeLocal": "Maison",
        "surfaceM2": 124,
        "isVefa": false
      }
    ]
  },
  "db782f1d60bd": {
    "id": "db782f1d60bd",
    "label": "10 RUE PAUL MACHY, Dunkerque",
    "lat": 51.040832,
    "lng": 2.404923,
    "transactions": [
      {
        "date": "2022-12-16",
        "priceEur": 105000,
        "typeLocal": "Appartement",
        "surfaceM2": 60,
        "isVefa": false
      },
      {
        "date": "2022-11-10",
        "priceEur": 114000,
        "typeLocal": "Appartement",
        "surfaceM2": 60,
        "isVefa": false
      }
    ]
  },
  "cf398b7d305f": {
    "id": "cf398b7d305f",
    "label": "46 RUE DES PECHEURS, Dunkerque",
    "lat": 51.039941,
    "lng": 2.397086,
    "transactions": [
      {
        "date": "2022-12-01",
        "priceEur": 236000,
        "typeLocal": "Maison",
        "surfaceM2": 71,
        "isVefa": false
      }
    ]
  },
  "f7076a6cb6ad": {
    "id": "f7076a6cb6ad",
    "label": "10 RUE DES ROSES, Dunkerque",
    "lat": 51.040783,
    "lng": 2.397986,
    "transactions": [
      {
        "date": "2023-01-05",
        "priceEur": 170000,
        "typeLocal": "Maison",
        "surfaceM2": 69,
        "isVefa": false
      }
    ]
  },
  "26dd213858c0": {
    "id": "26dd213858c0",
    "label": "9 RUE PAUL DOUMER, Dunkerque",
    "lat": 51.040835,
    "lng": 2.399864,
    "transactions": [
      {
        "date": "2023-01-27",
        "priceEur": 228000,
        "typeLocal": "Maison",
        "surfaceM2": 112,
        "isVefa": false
      }
    ]
  },
  "700a1ddd1eb8": {
    "id": "700a1ddd1eb8",
    "label": "14 RUE DE LA GLACIERE, Dunkerque",
    "lat": 51.035527,
    "lng": 2.403968,
    "transactions": [
      {
        "date": "2023-01-27",
        "priceEur": 340000,
        "typeLocal": "Maison",
        "surfaceM2": 108,
        "isVefa": false
      }
    ]
  },
  "5593d826b045": {
    "id": "5593d826b045",
    "label": "50 RUE JULES LANERY, Dunkerque",
    "lat": 51.03607,
    "lng": 2.403476,
    "transactions": [
      {
        "date": "2023-02-15",
        "priceEur": 255350,
        "typeLocal": "Maison",
        "surfaceM2": 110,
        "isVefa": false
      }
    ]
  },
  "9f5ec18ac877": {
    "id": "9f5ec18ac877",
    "label": "11 RUE FELIX FAURE, Dunkerque",
    "lat": 51.041288,
    "lng": 2.400478,
    "transactions": [
      {
        "date": "2023-02-10",
        "priceEur": 256000,
        "typeLocal": "Maison",
        "surfaceM2": 154,
        "isVefa": false
      }
    ]
  },
  "e4bf5f0b2d29": {
    "id": "e4bf5f0b2d29",
    "label": "12 RUE JULES LANERY, Dunkerque",
    "lat": 51.035455,
    "lng": 2.402103,
    "transactions": [
      {
        "date": "2023-02-21",
        "priceEur": 263050,
        "typeLocal": "Maison",
        "surfaceM2": 87,
        "isVefa": false
      }
    ]
  },
  "dad81ec93f83": {
    "id": "dad81ec93f83",
    "label": "52 RUE DU PONT NEUF, Dunkerque",
    "lat": 51.036107,
    "lng": 2.399819,
    "transactions": [
      {
        "date": "2023-02-28",
        "priceEur": 305000,
        "typeLocal": "Maison",
        "surfaceM2": 125,
        "isVefa": false
      }
    ]
  },
  "a1f892bcefd6": {
    "id": "a1f892bcefd6",
    "label": "55 RUE JEAN JACQUES ROUSSEAU, Dunkerque",
    "lat": 51.039811,
    "lng": 2.397034,
    "transactions": [
      {
        "date": "2023-03-16",
        "priceEur": 330000,
        "typeLocal": "Maison",
        "surfaceM2": 151,
        "isVefa": false
      }
    ]
  },
  "2ae73086c485": {
    "id": "2ae73086c485",
    "label": "47 RUE MARCEAU, Dunkerque",
    "lat": 51.036332,
    "lng": 2.397176,
    "transactions": [
      {
        "date": "2023-03-31",
        "priceEur": 3399286,
        "typeLocal": "Maison",
        "surfaceM2": 55,
        "isVefa": false
      },
      {
        "date": "2023-03-31",
        "priceEur": 3399286,
        "typeLocal": "Appartement",
        "surfaceM2": 45,
        "isVefa": false
      },
      {
        "date": "2023-03-31",
        "priceEur": 3399286,
        "typeLocal": "Maison",
        "surfaceM2": 50,
        "isVefa": false
      },
      {
        "date": "2023-03-31",
        "priceEur": 3399286,
        "typeLocal": "Appartement",
        "surfaceM2": 43,
        "isVefa": false
      },
      {
        "date": "2023-03-31",
        "priceEur": 3399286,
        "typeLocal": "Appartement",
        "surfaceM2": 46,
        "isVefa": false
      },
      {
        "date": "2023-03-31",
        "priceEur": 3399286,
        "typeLocal": "Appartement",
        "surfaceM2": 41,
        "isVefa": false
      },
      {
        "date": "2023-03-31",
        "priceEur": 3399286,
        "typeLocal": "Appartement",
        "surfaceM2": 51,
        "isVefa": false
      },
      {
        "date": "2023-03-31",
        "priceEur": 3399286,
        "typeLocal": "Appartement",
        "surfaceM2": 24,
        "isVefa": false
      },
      {
        "date": "2023-03-31",
        "priceEur": 3399286,
        "typeLocal": "Maison",
        "surfaceM2": 23,
        "isVefa": false
      },
      {
        "date": "2023-03-31",
        "priceEur": 3399286,
        "typeLocal": "Maison",
        "surfaceM2": 30,
        "isVefa": false
      },
      {
        "date": "2023-03-31",
        "priceEur": 3399286,
        "typeLocal": "Maison",
        "surfaceM2": 27,
        "isVefa": false
      },
      {
        "date": "2023-03-31",
        "priceEur": 3399286,
        "typeLocal": "Appartement",
        "surfaceM2": 18,
        "isVefa": false
      },
      {
        "date": "2023-03-31",
        "priceEur": 3399286,
        "typeLocal": "Maison",
        "surfaceM2": 33,
        "isVefa": false
      },
      {
        "date": "2023-03-31",
        "priceEur": 3399286,
        "typeLocal": "Maison",
        "surfaceM2": 25,
        "isVefa": false
      },
      {
        "date": "2023-03-31",
        "priceEur": 3399286,
        "typeLocal": "Appartement",
        "surfaceM2": 22,
        "isVefa": false
      },
      {
        "date": "2023-03-31",
        "priceEur": 3399286,
        "typeLocal": "Maison",
        "surfaceM2": 41,
        "isVefa": false
      },
      {
        "date": "2023-03-31",
        "priceEur": 3399286,
        "typeLocal": "Maison",
        "surfaceM2": 42,
        "isVefa": false
      },
      {
        "date": "2023-03-31",
        "priceEur": 3399286,
        "typeLocal": "Appartement",
        "surfaceM2": 20,
        "isVefa": false
      },
      {
        "date": "2023-03-31",
        "priceEur": 3399286,
        "typeLocal": "Appartement",
        "surfaceM2": 21,
        "isVefa": false
      }
    ]
  },
  "35c2bae6269c": {
    "id": "35c2bae6269c",
    "label": "100 RUE ARISTIDE BRIAND, Dunkerque",
    "lat": 51.03605,
    "lng": 2.404111,
    "transactions": [
      {
        "date": "2023-04-17",
        "priceEur": 690000,
        "typeLocal": "Maison",
        "surfaceM2": 216,
        "isVefa": false
      }
    ]
  },
  "6196acb3a286": {
    "id": "6196acb3a286",
    "label": "20 RUE PHILIPPE SCHODDUYN, Dunkerque",
    "lat": 51.041005,
    "lng": 2.402951,
    "transactions": [
      {
        "date": "2023-04-17",
        "priceEur": 280000,
        "typeLocal": "Maison",
        "surfaceM2": 110,
        "isVefa": false
      }
    ]
  },
  "2f3bcb7abcc2": {
    "id": "2f3bcb7abcc2",
    "label": "59 RUE DU PONT NEUF, Dunkerque",
    "lat": 51.034929,
    "lng": 2.402099,
    "transactions": [
      {
        "date": "2023-05-10",
        "priceEur": 268000,
        "typeLocal": "Maison",
        "surfaceM2": 104,
        "isVefa": false
      }
    ]
  },
  "796e1609be6c": {
    "id": "796e1609be6c",
    "label": "7 IMP LEPEZ, Dunkerque",
    "lat": 51.037833,
    "lng": 2.40163,
    "transactions": [
      {
        "date": "2023-05-25",
        "priceEur": 200000,
        "typeLocal": "Maison",
        "surfaceM2": 58,
        "isVefa": false
      }
    ]
  },
  "a1e6346edac3": {
    "id": "a1e6346edac3",
    "label": "55 RUE HENRI LE SIDANER, Dunkerque",
    "lat": 51.039157,
    "lng": 2.402593,
    "transactions": [
      {
        "date": "2023-05-24",
        "priceEur": 150000,
        "typeLocal": "Maison",
        "surfaceM2": 109,
        "isVefa": false
      }
    ]
  },
  "0c1a6905d474": {
    "id": "0c1a6905d474",
    "label": "17 RUE MICHEL KOGGE, Dunkerque",
    "lat": 51.037931,
    "lng": 2.405421,
    "transactions": [
      {
        "date": "2023-06-23",
        "priceEur": 206300,
        "typeLocal": "Maison",
        "surfaceM2": 101,
        "isVefa": false
      }
    ]
  },
  "c8200f562c52": {
    "id": "c8200f562c52",
    "label": "16C RUE ARISTIDE BRIAND, Dunkerque",
    "lat": 51.038111,
    "lng": 2.401429,
    "transactions": [
      {
        "date": "2023-06-28",
        "priceEur": 125000,
        "typeLocal": "Maison",
        "surfaceM2": 73,
        "isVefa": false
      }
    ]
  },
  "fd2a3aa118bd": {
    "id": "fd2a3aa118bd",
    "label": "15 PL GANDHI, Dunkerque",
    "lat": 51.041147,
    "lng": 2.397868,
    "transactions": [
      {
        "date": "2023-08-07",
        "priceEur": 125450,
        "typeLocal": "Maison",
        "surfaceM2": 66,
        "isVefa": false
      }
    ]
  },
  "1aa84e9491f0": {
    "id": "1aa84e9491f0",
    "label": "34 RUE DE LIEGE, Dunkerque",
    "lat": 51.036189,
    "lng": 2.402414,
    "transactions": [
      {
        "date": "2023-08-01",
        "priceEur": 230000,
        "typeLocal": "Appartement",
        "surfaceM2": 65,
        "isVefa": false
      },
      {
        "date": "2023-08-01",
        "priceEur": 230000,
        "typeLocal": "Appartement",
        "surfaceM2": 53,
        "isVefa": false
      },
      {
        "date": "2023-08-01",
        "priceEur": 230000,
        "typeLocal": "Appartement",
        "surfaceM2": 38,
        "isVefa": false
      }
    ]
  },
  "ade809aa6860": {
    "id": "ade809aa6860",
    "label": "49 RUE JEAN JACQUES ROUSSEAU, Dunkerque",
    "lat": 51.039755,
    "lng": 2.39674,
    "transactions": [
      {
        "date": "2023-08-23",
        "priceEur": 145000,
        "typeLocal": "Maison",
        "surfaceM2": 71,
        "isVefa": false
      }
    ]
  },
  "e3fa73212908": {
    "id": "e3fa73212908",
    "label": "104 RUE HENRI LE SIDANER, Dunkerque",
    "lat": 51.039159,
    "lng": 2.403315,
    "transactions": [
      {
        "date": "2024-11-04",
        "priceEur": 110400,
        "typeLocal": "Appartement",
        "surfaceM2": 72,
        "isVefa": false
      },
      {
        "date": "2023-08-10",
        "priceEur": 91500,
        "typeLocal": "Appartement",
        "surfaceM2": 55,
        "isVefa": false
      }
    ]
  },
  "514a1fdfb3cf": {
    "id": "514a1fdfb3cf",
    "label": "55 RUE NAPOLEON DUBOIS, Dunkerque",
    "lat": 51.034946,
    "lng": 2.396903,
    "transactions": [
      {
        "date": "2023-08-03",
        "priceEur": 230000,
        "typeLocal": "Maison",
        "surfaceM2": 136,
        "isVefa": false
      }
    ]
  },
  "f81591570887": {
    "id": "f81591570887",
    "label": "114 RUE DU DOC ROBERT BREYNAERT, Dunkerque",
    "lat": 51.038017,
    "lng": 2.40431,
    "transactions": [
      {
        "date": "2023-08-31",
        "priceEur": 153000,
        "typeLocal": "Maison",
        "surfaceM2": 119,
        "isVefa": false
      }
    ]
  },
  "413554e40a21": {
    "id": "413554e40a21",
    "label": "97 RUE ARISTIDE BRIAND, Dunkerque",
    "lat": 51.036501,
    "lng": 2.404383,
    "transactions": [
      {
        "date": "2023-09-05",
        "priceEur": 170000,
        "typeLocal": "Maison",
        "surfaceM2": 98,
        "isVefa": false
      }
    ]
  },
  "0b128b50c369": {
    "id": "0b128b50c369",
    "label": "166 RUE WINSTON CHURCHILL, Dunkerque",
    "lat": 51.040214,
    "lng": 2.399875,
    "transactions": [
      {
        "date": "2023-09-08",
        "priceEur": 490000,
        "typeLocal": "Maison",
        "surfaceM2": 140,
        "isVefa": false
      }
    ]
  },
  "2f2a9f4a7de6": {
    "id": "2f2a9f4a7de6",
    "label": "55 RUE MARCEAU, Dunkerque",
    "lat": 51.035533,
    "lng": 2.39777,
    "transactions": [
      {
        "date": "2023-09-14",
        "priceEur": 410000,
        "typeLocal": "Maison",
        "surfaceM2": 142,
        "isVefa": false
      }
    ]
  },
  "9c666f80a5f4": {
    "id": "9c666f80a5f4",
    "label": "88 RUE DU PONT NEUF, Dunkerque",
    "lat": 51.035245,
    "lng": 2.400886,
    "transactions": [
      {
        "date": "2023-09-29",
        "priceEur": 134000,
        "typeLocal": "Maison",
        "surfaceM2": 80,
        "isVefa": false
      }
    ]
  },
  "71ba9b9f4cee": {
    "id": "71ba9b9f4cee",
    "label": "52 RUE DE LIEGE, Dunkerque",
    "lat": 51.036467,
    "lng": 2.40304,
    "transactions": [
      {
        "date": "2023-10-19",
        "priceEur": 127500,
        "typeLocal": "Maison",
        "surfaceM2": 96,
        "isVefa": false
      }
    ]
  },
  "a582e9e64fac": {
    "id": "a582e9e64fac",
    "label": "530 RUE ANATOLE FRANCE, Dunkerque",
    "lat": 51.041347,
    "lng": 2.398237,
    "transactions": [
      {
        "date": "2023-10-04",
        "priceEur": 220000,
        "typeLocal": "Maison",
        "surfaceM2": 96,
        "isVefa": false
      }
    ]
  },
  "923631e036d6": {
    "id": "923631e036d6",
    "label": "12 RUE LEON BLUM, Dunkerque",
    "lat": 51.040061,
    "lng": 2.395873,
    "transactions": [
      {
        "date": "2023-10-25",
        "priceEur": 105000,
        "typeLocal": "Maison",
        "surfaceM2": 92,
        "isVefa": false
      }
    ]
  },
  "d3d324c7c0b8": {
    "id": "d3d324c7c0b8",
    "label": "7 RUE PAUL DOUMER, Dunkerque",
    "lat": 51.040764,
    "lng": 2.399822,
    "transactions": [
      {
        "date": "2023-10-18",
        "priceEur": 91100,
        "typeLocal": "Appartement",
        "surfaceM2": 50,
        "isVefa": false
      }
    ]
  },
  "c05ac37307ab": {
    "id": "c05ac37307ab",
    "label": "45 RUE DES PECHEURS, Dunkerque",
    "lat": 51.040158,
    "lng": 2.396078,
    "transactions": [
      {
        "date": "2023-11-10",
        "priceEur": 225000,
        "typeLocal": "Maison",
        "surfaceM2": 85,
        "isVefa": false
      }
    ]
  },
  "89cc9ff89858": {
    "id": "89cc9ff89858",
    "label": "2 RUE ARISTIDE BRIAND, Dunkerque",
    "lat": 51.038708,
    "lng": 2.401152,
    "transactions": [
      {
        "date": "2023-12-01",
        "priceEur": 102000,
        "typeLocal": "Maison",
        "surfaceM2": 68,
        "isVefa": false
      }
    ]
  },
  "66fa7b6d8a85": {
    "id": "66fa7b6d8a85",
    "label": "51 RUE JULES LANERY, Dunkerque",
    "lat": 51.036376,
    "lng": 2.403199,
    "transactions": [
      {
        "date": "2023-11-30",
        "priceEur": 205500,
        "typeLocal": "Maison",
        "surfaceM2": 105,
        "isVefa": false
      }
    ]
  },
  "f06ec762cb81": {
    "id": "f06ec762cb81",
    "label": "33 RUE PAUL DOUMER, Dunkerque",
    "lat": 51.041075,
    "lng": 2.40078,
    "transactions": [
      {
        "date": "2023-11-29",
        "priceEur": 224750,
        "typeLocal": "Maison",
        "surfaceM2": 120,
        "isVefa": false
      }
    ]
  },
  "9f5d14d75f6f": {
    "id": "9f5d14d75f6f",
    "label": "67 RUE DES PECHEURS, Dunkerque",
    "lat": 51.040265,
    "lng": 2.396714,
    "transactions": [
      {
        "date": "2023-12-01",
        "priceEur": 135000,
        "typeLocal": "Maison",
        "surfaceM2": 98,
        "isVefa": false
      }
    ]
  },
  "922a7e396c72": {
    "id": "922a7e396c72",
    "label": "13 RUE DE LA GLACIERE, Dunkerque",
    "lat": 51.035333,
    "lng": 2.40424,
    "transactions": [
      {
        "date": "2023-12-14",
        "priceEur": 200000,
        "typeLocal": "Maison",
        "surfaceM2": 98,
        "isVefa": false
      }
    ]
  },
  "59c0f4d5be05": {
    "id": "59c0f4d5be05",
    "label": "9 RUE ARISTIDE BRIAND, Dunkerque",
    "lat": 51.038668,
    "lng": 2.401652,
    "transactions": [
      {
        "date": "2023-12-15",
        "priceEur": 183600,
        "typeLocal": "Maison",
        "surfaceM2": 84,
        "isVefa": false
      }
    ]
  },
  "d8453702f2df": {
    "id": "d8453702f2df",
    "label": "1050 AV DE ROSENDAEL J COLLACHE, Dunkerque",
    "lat": 51.038254,
    "lng": 2.400513,
    "transactions": [
      {
        "date": "2023-12-29",
        "priceEur": 213300,
        "typeLocal": "Appartement",
        "surfaceM2": 44,
        "isVefa": false
      },
      {
        "date": "2023-12-29",
        "priceEur": 213300,
        "typeLocal": "Appartement",
        "surfaceM2": 14,
        "isVefa": false
      },
      {
        "date": "2023-12-29",
        "priceEur": 213300,
        "typeLocal": "Appartement",
        "surfaceM2": 37,
        "isVefa": false
      }
    ]
  },
  "dffef7230f2f": {
    "id": "dffef7230f2f",
    "label": "27 RUE GANDHI, Dunkerque",
    "lat": 51.041038,
    "lng": 2.397351,
    "transactions": [
      {
        "date": "2023-12-29",
        "priceEur": 80000,
        "typeLocal": "Maison",
        "surfaceM2": 55,
        "isVefa": false
      }
    ]
  },
  "8963707a52f3": {
    "id": "8963707a52f3",
    "label": "1400 AV DE ROSENDAEL J COLLACHE, Dunkerque",
    "lat": 51.040456,
    "lng": 2.404026,
    "transactions": [
      {
        "date": "2023-12-28",
        "priceEur": 250000,
        "typeLocal": "Appartement",
        "surfaceM2": 38,
        "isVefa": false
      },
      {
        "date": "2023-12-28",
        "priceEur": 250000,
        "typeLocal": "Appartement",
        "surfaceM2": 58,
        "isVefa": false
      },
      {
        "date": "2023-12-28",
        "priceEur": 250000,
        "typeLocal": "Appartement",
        "surfaceM2": 76,
        "isVefa": false
      }
    ]
  },
  "1b50dec9af32": {
    "id": "1b50dec9af32",
    "label": "132 RUE WINSTON CHURCHILL, Dunkerque",
    "lat": 51.039938,
    "lng": 2.400105,
    "transactions": [
      {
        "date": "2024-01-09",
        "priceEur": 215000,
        "typeLocal": "Maison",
        "surfaceM2": 122,
        "isVefa": false
      }
    ]
  },
  "9860c3721191": {
    "id": "9860c3721191",
    "label": "137 RUE DES ANC COMBATTANTS AFN, Dunkerque",
    "lat": 51.0374,
    "lng": 2.405399,
    "transactions": [
      {
        "date": "2024-01-08",
        "priceEur": 295000,
        "typeLocal": "Maison",
        "surfaceM2": 101,
        "isVefa": false
      }
    ]
  },
  "2e8cb45c3c0e": {
    "id": "2e8cb45c3c0e",
    "label": "40 RUE ARISTIDE BRIAND, Dunkerque",
    "lat": 51.037573,
    "lng": 2.402151,
    "transactions": [
      {
        "date": "2024-01-09",
        "priceEur": 234200,
        "typeLocal": "Maison",
        "surfaceM2": 92,
        "isVefa": false
      }
    ]
  },
  "f7c02e2d1d5e": {
    "id": "f7c02e2d1d5e",
    "label": "38 RUE DE LIEGE, Dunkerque",
    "lat": 51.036253,
    "lng": 2.40255,
    "transactions": [
      {
        "date": "2024-01-17",
        "priceEur": 195000,
        "typeLocal": "Maison",
        "surfaceM2": 98,
        "isVefa": false
      }
    ]
  },
  "adfbd5e4fe20": {
    "id": "adfbd5e4fe20",
    "label": "86 RUE LEON BLUM, Dunkerque",
    "lat": 51.040788,
    "lng": 2.39574,
    "transactions": [
      {
        "date": "2024-02-12",
        "priceEur": 277400,
        "typeLocal": "Maison",
        "surfaceM2": 110,
        "isVefa": false
      }
    ]
  },
  "7e8006362450": {
    "id": "7e8006362450",
    "label": "77 RUE JEAN JACQUES ROUSSEAU, Dunkerque",
    "lat": 51.039998,
    "lng": 2.398083,
    "transactions": [
      {
        "date": "2024-02-26",
        "priceEur": 165720,
        "typeLocal": "Maison",
        "surfaceM2": 49,
        "isVefa": false
      }
    ]
  },
  "c0b971dfa810": {
    "id": "c0b971dfa810",
    "label": "162 RUE DES CYCLAMENS, Dunkerque",
    "lat": 51.035447,
    "lng": 2.399132,
    "transactions": [
      {
        "date": "2024-02-29",
        "priceEur": 500000,
        "typeLocal": "Maison",
        "surfaceM2": 141,
        "isVefa": false
      }
    ]
  },
  "0e5ca89ac89b": {
    "id": "0e5ca89ac89b",
    "label": "24 RUE JULES FERRY, Dunkerque",
    "lat": 51.041301,
    "lng": 2.400164,
    "transactions": [
      {
        "date": "2024-04-06",
        "priceEur": 209230,
        "typeLocal": "Maison",
        "surfaceM2": 116,
        "isVefa": false
      }
    ]
  },
  "f0727b24dede": {
    "id": "f0727b24dede",
    "label": "26 RUE PAUL DOUMER, Dunkerque",
    "lat": 51.040725,
    "lng": 2.400607,
    "transactions": [
      {
        "date": "2024-03-21",
        "priceEur": 198450,
        "typeLocal": "Maison",
        "surfaceM2": 78,
        "isVefa": false
      }
    ]
  },
  "82903037ce59": {
    "id": "82903037ce59",
    "label": "94 RUE DU PONT NEUF, Dunkerque",
    "lat": 51.035108,
    "lng": 2.401086,
    "transactions": [
      {
        "date": "2024-03-29",
        "priceEur": 305000,
        "typeLocal": "Maison",
        "surfaceM2": 101,
        "isVefa": false
      }
    ]
  },
  "5dec70c30ed3": {
    "id": "5dec70c30ed3",
    "label": "117 RUE DES PECHEURS, Dunkerque",
    "lat": 51.040443,
    "lng": 2.398154,
    "transactions": [
      {
        "date": "2024-04-12",
        "priceEur": 170000,
        "typeLocal": "Maison",
        "surfaceM2": 72,
        "isVefa": false
      }
    ]
  },
  "368aef6cb425": {
    "id": "368aef6cb425",
    "label": "46 RUE JULES LANERY, Dunkerque",
    "lat": 51.036024,
    "lng": 2.403309,
    "transactions": [
      {
        "date": "2024-04-18",
        "priceEur": 160340,
        "typeLocal": "Maison",
        "surfaceM2": 95,
        "isVefa": false
      }
    ]
  },
  "402af8d56924": {
    "id": "402af8d56924",
    "label": "30 RUE DES PECHEURS, Dunkerque",
    "lat": 51.039907,
    "lng": 2.39644,
    "transactions": [
      {
        "date": "2024-04-26",
        "priceEur": 170000,
        "typeLocal": "Maison",
        "surfaceM2": 90,
        "isVefa": false
      }
    ]
  },
  "b4377f73bb4c": {
    "id": "b4377f73bb4c",
    "label": "59 RUE WINSTON CHURCHILL, Dunkerque",
    "lat": 51.039088,
    "lng": 2.400088,
    "transactions": [
      {
        "date": "2024-05-23",
        "priceEur": 220000,
        "typeLocal": "Maison",
        "surfaceM2": 100,
        "isVefa": false
      }
    ]
  },
  "16a613a47120": {
    "id": "16a613a47120",
    "label": "712 AV DE ROSENDAEL J COLLACHE, Dunkerque",
    "lat": 51.036764,
    "lng": 2.396199,
    "transactions": [
      {
        "date": "2024-05-07",
        "priceEur": 301600,
        "typeLocal": "Maison",
        "surfaceM2": 132,
        "isVefa": false
      }
    ]
  },
  "7ee475a6880b": {
    "id": "7ee475a6880b",
    "label": "44 RUE JULES LANERY, Dunkerque",
    "lat": 51.036,
    "lng": 2.403242,
    "transactions": [
      {
        "date": "2024-05-07",
        "priceEur": 250000,
        "typeLocal": "Maison",
        "surfaceM2": 81,
        "isVefa": false
      }
    ]
  },
  "d527ade6e7bb": {
    "id": "d527ade6e7bb",
    "label": "52 RUE JULES LANERY, Dunkerque",
    "lat": 51.036099,
    "lng": 2.403559,
    "transactions": [
      {
        "date": "2024-06-06",
        "priceEur": 220000,
        "typeLocal": "Maison",
        "surfaceM2": 79,
        "isVefa": false
      }
    ]
  },
  "ddb53b2bae9b": {
    "id": "ddb53b2bae9b",
    "label": "61 RUE JULES LANERY, Dunkerque",
    "lat": 51.036474,
    "lng": 2.403721,
    "transactions": [
      {
        "date": "2024-06-18",
        "priceEur": 1325500,
        "typeLocal": "Appartement",
        "surfaceM2": 63,
        "isVefa": false
      }
    ]
  },
  "2be20255523e": {
    "id": "2be20255523e",
    "label": "42 RUE DE LIEGE, Dunkerque",
    "lat": 51.036313,
    "lng": 2.402689,
    "transactions": [
      {
        "date": "2024-06-14",
        "priceEur": 188000,
        "typeLocal": "Maison",
        "surfaceM2": 108,
        "isVefa": false
      }
    ]
  },
  "4aaa4edb8463": {
    "id": "4aaa4edb8463",
    "label": "87 RUE ARISTIDE BRIAND, Dunkerque",
    "lat": 51.036739,
    "lng": 2.404053,
    "transactions": [
      {
        "date": "2024-08-06",
        "priceEur": 305000,
        "typeLocal": "Maison",
        "surfaceM2": 146,
        "isVefa": false
      }
    ]
  },
  "4a4aadf77490": {
    "id": "4a4aadf77490",
    "label": "47 RUE DU PONT NEUF, Dunkerque",
    "lat": 51.035207,
    "lng": 2.401807,
    "transactions": [
      {
        "date": "2024-08-20",
        "priceEur": 365000,
        "typeLocal": "Maison",
        "surfaceM2": 124,
        "isVefa": false
      }
    ]
  },
  "8d0aa4760347": {
    "id": "8d0aa4760347",
    "label": "1086 AV DE ROSENDAEL J COLLACHE, Dunkerque",
    "lat": 51.038445,
    "lng": 2.400937,
    "transactions": [
      {
        "date": "2024-08-22",
        "priceEur": 230000,
        "typeLocal": "Appartement",
        "surfaceM2": 65,
        "isVefa": false
      }
    ]
  },
  "3b7fa9283c99": {
    "id": "3b7fa9283c99",
    "label": "60 RUE ARISTIDE BRIAND, Dunkerque",
    "lat": 51.03716,
    "lng": 2.402725,
    "transactions": [
      {
        "date": "2024-09-12",
        "priceEur": 149000,
        "typeLocal": "Maison",
        "surfaceM2": 98,
        "isVefa": false
      }
    ]
  },
  "74622bf90158": {
    "id": "74622bf90158",
    "label": "11B RUE DE LA GLACIERE, Dunkerque",
    "lat": 51.035355,
    "lng": 2.404303,
    "transactions": [
      {
        "date": "2024-09-19",
        "priceEur": 168050,
        "typeLocal": "Maison",
        "surfaceM2": 97,
        "isVefa": false
      }
    ]
  },
  "bad2656fda9e": {
    "id": "bad2656fda9e",
    "label": "93 RUE JEAN JACQUES ROUSSEAU, Dunkerque",
    "lat": 51.04025,
    "lng": 2.399022,
    "transactions": [
      {
        "date": "2024-09-04",
        "priceEur": 298000,
        "typeLocal": "Appartement",
        "surfaceM2": 42,
        "isVefa": false
      },
      {
        "date": "2024-09-04",
        "priceEur": 298000,
        "typeLocal": "Appartement",
        "surfaceM2": 65,
        "isVefa": false
      },
      {
        "date": "2024-09-04",
        "priceEur": 298000,
        "typeLocal": "Appartement",
        "surfaceM2": 56,
        "isVefa": false
      }
    ]
  },
  "196ed05f4f66": {
    "id": "196ed05f4f66",
    "label": "1 RUE ROBERT VANGHELUWE, Dunkerque",
    "lat": 51.041325,
    "lng": 2.404919,
    "transactions": [
      {
        "date": "2024-09-10",
        "priceEur": 619000,
        "typeLocal": "Maison",
        "surfaceM2": 218,
        "isVefa": false
      }
    ]
  },
  "461579086d3f": {
    "id": "461579086d3f",
    "label": "1166 AV DE ROSENDAEL J COLLACHE, Dunkerque",
    "lat": 51.039063,
    "lng": 2.401645,
    "transactions": [
      {
        "date": "2024-09-12",
        "priceEur": 130000,
        "typeLocal": "Appartement",
        "surfaceM2": 43,
        "isVefa": false
      },
      {
        "date": "2024-09-12",
        "priceEur": 130000,
        "typeLocal": "Appartement",
        "surfaceM2": 34,
        "isVefa": false
      }
    ]
  },
  "70acf979c4f9": {
    "id": "70acf979c4f9",
    "label": "55 RUE ARISTIDE BRIAND, Dunkerque",
    "lat": 51.037533,
    "lng": 2.403162,
    "transactions": [
      {
        "date": "2024-09-17",
        "priceEur": 282000,
        "typeLocal": "Maison",
        "surfaceM2": 108,
        "isVefa": false
      }
    ]
  },
  "79c72eac190d": {
    "id": "79c72eac190d",
    "label": "64 RUE ARISTIDE BRIAND, Dunkerque",
    "lat": 51.037034,
    "lng": 2.402897,
    "transactions": [
      {
        "date": "2024-09-25",
        "priceEur": 150000,
        "typeLocal": "Maison",
        "surfaceM2": 98,
        "isVefa": false
      }
    ]
  },
  "b1624ba04352": {
    "id": "b1624ba04352",
    "label": "76 RUE LEON BLUM, Dunkerque",
    "lat": 51.040644,
    "lng": 2.395875,
    "transactions": [
      {
        "date": "2024-10-03",
        "priceEur": 350000,
        "typeLocal": "Maison",
        "surfaceM2": 107,
        "isVefa": false
      }
    ]
  },
  "72ac17279129": {
    "id": "72ac17279129",
    "label": "1 RUE DE LA GLACIERE, Dunkerque",
    "lat": 51.035546,
    "lng": 2.404706,
    "transactions": [
      {
        "date": "2024-10-11",
        "priceEur": 150000,
        "typeLocal": "Maison",
        "surfaceM2": 90,
        "isVefa": false
      }
    ]
  },
  "5ae3162702d7": {
    "id": "5ae3162702d7",
    "label": "24 RUE DES PECHEURS, Dunkerque",
    "lat": 51.039774,
    "lng": 2.395858,
    "transactions": [
      {
        "date": "2024-10-07",
        "priceEur": 740000,
        "typeLocal": "Maison",
        "surfaceM2": 250,
        "isVefa": false
      }
    ]
  },
  "add1b30b70fd": {
    "id": "add1b30b70fd",
    "label": "12 RUE DE LIEGE, Dunkerque",
    "lat": 51.035843,
    "lng": 2.401633,
    "transactions": [
      {
        "date": "2024-11-18",
        "priceEur": 160000,
        "typeLocal": "Maison",
        "surfaceM2": 106,
        "isVefa": false
      }
    ]
  },
  "82da2e938fb7": {
    "id": "82da2e938fb7",
    "label": "44 RUE ARISTIDE BRIAND, Dunkerque",
    "lat": 51.037476,
    "lng": 2.402307,
    "transactions": [
      {
        "date": "2024-11-08",
        "priceEur": 180000,
        "typeLocal": "Maison",
        "surfaceM2": 70,
        "isVefa": false
      }
    ]
  },
  "d36bf4073b1f": {
    "id": "d36bf4073b1f",
    "label": "232 RUE WINSTON CHURCHILL, Dunkerque",
    "lat": 51.040636,
    "lng": 2.399361,
    "transactions": [
      {
        "date": "2024-11-18",
        "priceEur": 125000,
        "typeLocal": "Appartement",
        "surfaceM2": 31,
        "isVefa": false
      }
    ]
  },
  "fee80cfe3540": {
    "id": "fee80cfe3540",
    "label": "98 RUE PAUL MARTENS, Dunkerque",
    "lat": 51.036611,
    "lng": 2.405606,
    "transactions": [
      {
        "date": "2024-12-05",
        "priceEur": 374000,
        "typeLocal": "Maison",
        "surfaceM2": 114,
        "isVefa": false
      }
    ]
  },
  "95b47cdb8a9a": {
    "id": "95b47cdb8a9a",
    "label": "107 RUE ARISTIDE BRIAND, Dunkerque",
    "lat": 51.036265,
    "lng": 2.404681,
    "transactions": [
      {
        "date": "2024-12-19",
        "priceEur": 200000,
        "typeLocal": "Maison",
        "surfaceM2": 98,
        "isVefa": false
      }
    ]
  },
  "3b5f191c17f4": {
    "id": "3b5f191c17f4",
    "label": "5 IMP FLOREALE, Dunkerque",
    "lat": 51.036201,
    "lng": 2.400589,
    "transactions": [
      {
        "date": "2024-12-18",
        "priceEur": 230000,
        "typeLocal": "Maison",
        "surfaceM2": 112,
        "isVefa": false
      }
    ]
  },
  "d4acdf24757b": {
    "id": "d4acdf24757b",
    "label": "60 RUE DU PONT NEUF, Dunkerque",
    "lat": 51.035908,
    "lng": 2.400161,
    "transactions": [
      {
        "date": "2024-12-27",
        "priceEur": 247700,
        "typeLocal": "Maison",
        "surfaceM2": 135,
        "isVefa": false
      }
    ]
  },
  "38554cd817d0": {
    "id": "38554cd817d0",
    "label": "14 RUE PHILIPPE SCHODDUYN, Dunkerque",
    "lat": 51.040821,
    "lng": 2.403117,
    "transactions": [
      {
        "date": "2025-01-20",
        "priceEur": 372500,
        "typeLocal": "Maison",
        "surfaceM2": 93,
        "isVefa": false
      }
    ]
  },
  "e67336a91a7f": {
    "id": "e67336a91a7f",
    "label": "57 RUE JEAN JACQUES ROUSSEAU, Dunkerque",
    "lat": 51.039819,
    "lng": 2.397176,
    "transactions": [
      {
        "date": "2025-01-16",
        "priceEur": 80000,
        "typeLocal": "Maison",
        "surfaceM2": 118,
        "isVefa": false
      }
    ]
  },
  "d6d32933831d": {
    "id": "d6d32933831d",
    "label": "56 RUE ARISTIDE BRIAND, Dunkerque",
    "lat": 51.037167,
    "lng": 2.402382,
    "transactions": [
      {
        "date": "2025-01-10",
        "priceEur": 150000,
        "typeLocal": "Maison",
        "surfaceM2": 79,
        "isVefa": false
      }
    ]
  },
  "d93530cea695": {
    "id": "d93530cea695",
    "label": "15 RUE MAURICE RAVEL, Dunkerque",
    "lat": 51.039631,
    "lng": 2.396083,
    "transactions": [
      {
        "date": "2025-01-20",
        "priceEur": 225000,
        "typeLocal": "Maison",
        "surfaceM2": 63,
        "isVefa": false
      }
    ]
  },
  "ea673df330c0": {
    "id": "ea673df330c0",
    "label": "6 RUE JULES DEGROOTE, Dunkerque",
    "lat": 51.040118,
    "lng": 2.402196,
    "transactions": [
      {
        "date": "2025-02-17",
        "priceEur": 205000,
        "typeLocal": "Maison",
        "surfaceM2": 197,
        "isVefa": false
      }
    ]
  },
  "c4958090811d": {
    "id": "c4958090811d",
    "label": "43 RUE PAUL DOUMER, Dunkerque",
    "lat": 51.041202,
    "lng": 2.401437,
    "transactions": [
      {
        "date": "2025-02-13",
        "priceEur": 269800,
        "typeLocal": "Maison",
        "surfaceM2": 144,
        "isVefa": false
      }
    ]
  },