{
  "9c107391f6a1": {
    "id": "9c107391f6a1",
    "label": "11 LES LONGS CHAMPS, Mesnil-Raoul",
    "lat": 49.389243,
    "lng": 1.275013,
    "transactions": [
      {
        "date": "2020-08-05",
        "priceEur": 76000,
        "typeLocal": "Maison",
        "surfaceM2": 131,
        "isVefa": false
      }
    ]
  },
  "3806a129bf86": {
    "id": "3806a129bf86",
    "label": "690 RTE DE PARIS, Mesnil-Raoul",
    "lat": 49.387406,
    "lng": 1.279839,
    "transactions": [
      {
        "date": "2020-11-25",
        "priceEur": 140000,
        "typeLocal": "Maison",
        "surfaceM2": 77,
        "isVefa": false
      }
    ]
  },
  "b95f12b13756": {
    "id": "b95f12b13756",
    "label": "4 CLOS LES HAUTS DU MESNIL, Mesnil-Raoul",
    "lat": 49.388854,
    "lng": 1.274641,
    "transactions": [
      {
        "date": "2021-07-16",
        "priceEur": 230000,
        "typeLocal": "Maison",
        "surfaceM2": 148,
        "isVefa": false
      }
    ]
  },
  "9c55902f4c65": {
    "id": "9c55902f4c65",
    "label": "4 LE VAL AUX PRETRES, Mesnil-Raoul",
    "lat": 49.387958,
    "lng": 1.277268,
    "transactions": [
      {
        "date": "2021-09-01",
        "priceEur": 216220,
        "typeLocal": "Maison",
        "surfaceM2": 80,
        "isVefa": false
      }
    ]
  },
  "90995dcb1831": {
    "id": "90995dcb1831",
    "label": "317 RTE DE PARIS, Mesnil-Raoul",
    "lat": 49.387175,
    "lng": 1.274851,
    "transactions": [
      {
        "date": "2021-09-23",
        "priceEur": 173000,
        "typeLocal": "Maison",
        "surfaceM2": 80,
        "isVefa": false
      }
    ]
  },
  "90c653d5f119": {
    "id": "90c653d5f119",
    "label": "445 RTE DE PARIS, Mesnil-Raoul",
    "lat": 49.387339,
    "lng": 1.27657,
    "transactions": [
      {
        "date": "2022-02-25",
        "priceEur": 228000,
        "typeLocal": "Maison",
        "surfaceM2": 160,
        "isVefa": false
      }
    ]
  },
  "ec9bf270c972": {
    "id": "ec9bf270c972",
    "label": "9 CLOS LES HAUTS DU MESNIL, Mesnil-Raoul",
    "lat": 49.388377,
    "lng": 1.275664,
    "transactions": [
      {
        "date": "2024-06-19",
        "priceEur": 199500,
        "typeLocal": "Maison",
        "surfaceM2": 70,
        "isVefa": false
      }
    ]
  },
  "a159d34da3fe": {
    "id": "a159d34da3fe",
    "label": "121 RUE DU MESNIL, Mesnil-Raoul",
    "lat": 49.389017,
    "lng": 1.274524,
    "transactions": [
      {
        "date": "2024-06-24",
        "priceEur": 190730,
        "typeLocal": "Maison",
        "surfaceM2": 85,
        "isVefa": false
      }
    ]
  }
}