{
  "4fdc8159b911": {
    "id": "4fdc8159b911",
    "label": "10 RUE COBERGHER, Ghyvelde",
    "lat": 51.014261,
    "lng": 2.550368,
    "transactions": [
      {
        "date": "2020-09-23",
        "priceEur": 130000,
        "typeLocal": "Maison",
        "surfaceM2": 77,
        "isVefa": false
      }
    ]
  },
  "ee923a741eee": {
    "id": "ee923a741eee",
    "label": "39B RUE NATIONALE LES MOERES, Ghyvelde",
    "lat": 51.016111,
    "lng": 2.550987,
    "transactions": [
      {
        "date": "2020-11-24",
        "priceEur": 255000,
        "typeLocal": "Maison",
        "surfaceM2": 184,
        "isVefa": false
      }
    ]
  },
  "acc4ede707c9": {
    "id": "acc4ede707c9",
    "label": "50 RUE NATIONALE LES MOERES, Ghyvelde",
    "lat": 51.015222,
    "lng": 2.550845,
    "transactions": [
      {
        "date": "2020-12-18",
        "priceEur": 132000,
        "typeLocal": "Maison",
        "surfaceM2": 75,
        "isVefa": false
      }
    ]
  },
  "9a6ad4d8c5eb": {
    "id": "9a6ad4d8c5eb",
    "label": "43 RUE NATIONALE LES MOERES, Ghyvelde",
    "lat": 51.015371,
    "lng": 2.551636,
    "transactions": [
      {
        "date": "2021-03-25",
        "priceEur": 138000,
        "typeLocal": "Maison",
        "surfaceM2": 85,
        "isVefa": false
      }
    ]
  },
  "543c9b969a0a": {
    "id": "543c9b969a0a",
    "label": "1 RUE DU STADE, Ghyvelde",
    "lat": 51.014202,
    "lng": 2.54898,
    "transactions": [
      {
        "date": "2022-12-31",
        "priceEur": 211200,
        "typeLocal": "Maison",
        "surfaceM2": 70,
        "isVefa": false
      },
      {
        "date": "2021-04-02",
        "priceEur": 158000,
        "typeLocal": "Maison",
        "surfaceM2": 70,
        "isVefa": false
      }
    ]
  },
  "613384e1c399": {
    "id": "613384e1c399",
    "label": "56 RUE NATIONALE LES MOERES, Ghyvelde",
    "lat": 51.014946,
    "lng": 2.550455,
    "transactions": [
      {
        "date": "2021-04-30",
        "priceEur": 118000,
        "typeLocal": "Maison",
        "surfaceM2": 107,
        "isVefa": false
      }
    ]
  },
  "860ab1e74bcf": {
    "id": "860ab1e74bcf",
    "label": "48 RUE NATIONALE LES MOERES, Ghyvelde",
    "lat": 51.015281,
    "lng": 2.551003,
    "transactions": [
      {
        "date": "2021-05-25",
        "priceEur": 125000,
        "typeLocal": "Maison",
        "surfaceM2": 97,
        "isVefa": false
      }
    ]
  },
  "5e4e2b171319": {
    "id": "5e4e2b171319",
    "label": "4 CHV N3 DIT DE GHYVELDE, Ghyvelde",
    "lat": 51.014552,
    "lng": 2.553145,
    "transactions": [
      {
        "date": "2021-06-21",
        "priceEur": 40000,
        "typeLocal": "Maison",
        "surfaceM2": 64,
        "isVefa": false
      }
    ]
  },
  "6aa7ce925d29": {
    "id": "6aa7ce925d29",
    "label": "59 RUE NATIONALE LES MOERES, Ghyvelde",
    "lat": 51.014963,
    "lng": 2.550047,
    "transactions": [
      {
        "date": "2021-10-08",
        "priceEur": 220000,
        "typeLocal": "Maison",
        "surfaceM2": 98,
        "isVefa": false
      }
    ]
  },
  "347dd50a6f64": {
    "id": "347dd50a6f64",
    "label": "19 GRAND PLACE, Ghyvelde",
    "lat": 51.015441,
    "lng": 2.549311,
    "transactions": [
      {
        "date": "2021-10-21",
        "priceEur": 211500,
        "typeLocal": "Maison",
        "surfaceM2": 115,
        "isVefa": false
      }
    ]
  },
  "6871efe2cc9b": {
    "id": "6871efe2cc9b",
    "label": "16 GRAND PLACE, Ghyvelde",
    "lat": 51.014795,
    "lng": 2.549396,
    "transactions": [
      {
        "date": "2022-03-30",
        "priceEur": 180000,
        "typeLocal": "Maison",
        "surfaceM2": 116,
        "isVefa": false
      }
    ]
  },
  "180e0d1a52a8": {
    "id": "180e0d1a52a8",
    "label": "8 RUE COBERGHER, Ghyvelde",
    "lat": 51.013877,
    "lng": 2.550395,
    "transactions": [
      {
        "date": "2022-12-21",
        "priceEur": 210000,
        "typeLocal": "Maison",
        "surfaceM2": 132,
        "isVefa": false
      }
    ]
  },
  "c116e6282014": {
    "id": "c116e6282014",
    "label": "51 RUE NATIONALE LES MOERES, Ghyvelde",
    "lat": 51.015219,
    "lng": 2.550759,
    "transactions": [
      {
        "date": "2023-06-30",
        "priceEur": 167000,
        "typeLocal": "Maison",
        "surfaceM2": 104,
        "isVefa": false
      }
    ]
  },
  "58ff3793d3cc": {
    "id": "58ff3793d3cc",
    "label": "5 RUE SAINT ANTOINE, Ghyvelde",
    "lat": 51.015867,
    "lng": 2.55322,
    "transactions": [
      {
        "date": "2023-08-16",
        "priceEur": 173000,
        "typeLocal": "Maison",
        "surfaceM2": 83,
        "isVefa": false
      }
    ]
  },
  "8b5814f45bae": {
    "id": "8b5814f45bae",
    "label": "19T GRAND PLACE, Ghyvelde",
    "lat": 51.015495,
    "lng": 2.549351,
    "transactions": [
      {
        "date": "2024-01-19",
        "priceEur": 345000,
        "typeLocal": "Maison",
        "surfaceM2": 241,
        "isVefa": false
      }
    ]
  },
  "0a058fcc55ef": {
    "id": "0a058fcc55ef",
    "label": "42 RUE NATIONALE LES MOERES, Ghyvelde",
    "lat": 51.015406,
    "lng": 2.551721,
    "transactions": [
      {
        "date": "2024-09-09",
        "priceEur": 123000,
        "typeLocal": "Maison",
        "surfaceM2": 91,
        "isVefa": false
      }
    ]
  }
}