{
  "44066e988a74": {
    "id": "44066e988a74",
    "label": "5319 FRESNOY, Fresnoy-Folny",
    "lat": 49.887798,
    "lng": 1.430568,
    "transactions": [
      {
        "date": "2021-01-25",
        "priceEur": 163000,
        "typeLocal": "Maison",
        "surfaceM2": 77,
        "isVefa": false
      }
    ]
  },
  "80a55387b82f": {
    "id": "80a55387b82f",
    "label": "5013 FRESNOY, Fresnoy-Folny",
    "lat": 49.890156,
    "lng": 1.42923,
    "transactions": [
      {
        "date": "2022-02-08",
        "priceEur": 165000,
        "typeLocal": "Maison",
        "surfaceM2": 170,
        "isVefa": false
      }
    ]
  },
  "6f2a9571dcd1": {
    "id": "6f2a9571dcd1",
    "label": "5063 FRESNOY, Fresnoy-Folny",
    "lat": 49.88793,
    "lng": 1.43182,
    "transactions": [
      {
        "date": "2023-06-09",
        "priceEur": 192500,
        "typeLocal": "Maison",
        "surfaceM2": 220,
        "isVefa": false
      }
    ]
  },
  "3144dd3d03ed": {
    "id": "3144dd3d03ed",
    "label": "7 LA FROIDE RUE, Fresnoy-Folny",
    "lat": 49.889598,
    "lng": 1.435896,
    "transactions": [
      {
        "date": "2023-07-05",
        "priceEur": 95000,
        "typeLocal": "Maison",
        "surfaceM2": 185,
        "isVefa": false
      }
    ]
  },
  "b5df2e85f59b": {
    "id": "b5df2e85f59b",
    "label": "12 CHEM DE LA BRIQUETERIE, Fresnoy-Folny",
    "lat": 49.891756,
    "lng": 1.429194,
    "transactions": [
      {
        "date": "2023-10-24",
        "priceEur": 147000,
        "typeLocal": "Maison",
        "surfaceM2": 84,
        "isVefa": false
      }
    ]
  },
  "3ba60f6f18a1": {
    "id": "3ba60f6f18a1",
    "label": "5203 FRESNOY, Fresnoy-Folny",
    "lat": 49.888799,
    "lng": 1.429724,
    "transactions": [
      {
        "date": "2024-03-26",
        "priceEur": 115000,
        "typeLocal": "Maison",
        "surfaceM2": 100,
        "isVefa": false
      }
    ]
  },
  "f8bb71d6a460": {
    "id": "f8bb71d6a460",
    "label": "3 RUE DE TOUFFECAL, Fresnoy-Folny",
    "lat": 49.893189,
    "lng": 1.432834,
    "transactions": [
      {
        "date": "2024-07-11",
        "priceEur": 139000,
        "typeLocal": "Maison",
        "surfaceM2": 70,
        "isVefa": false
      }
    ]
  },
  "e2c557a73c81": {
    "id": "e2c557a73c81",
    "label": "11 RUE LES CHARMILLES, Fresnoy-Folny",
    "lat": 49.890614,
    "lng": 1.42826,
    "transactions": [
      {
        "date": "2024-12-23",
        "priceEur": 230000,
        "typeLocal": "Maison",
        "surfaceM2": 111,
        "isVefa": false
      }
    ]
  },
  "425e174ae98e": {
    "id": "425e174ae98e",
    "label": "4 RUE DE TOUFFECAL, Fresnoy-Folny",
    "lat": 49.891207,
    "lng": 1.42974,
    "transactions": [
      {
        "date": "2025-02-25",
        "priceEur": 210000,
        "typeLocal": "Maison",
        "surfaceM2": 94,
        "isVefa": false
      }
    ]
  },
  "e7893356beed": {
    "id": "e7893356beed",
    "label": "3 RUE DE L'EGLISE, Fresnoy-Folny",
    "lat": 49.887921,
    "lng": 1.428984,
    "transactions": [
      {
        "date": "2025-04-23",
        "priceEur": 79150,
        "typeLocal": "Maison",
        "surfaceM2": 68,
        "isVefa": false
      }
    ]
  }
}