{
  "32473f1a8f5f": {
    "id": "32473f1a8f5f",
    "label": "48 RTE DE BOLBEC, Nointot",
    "lat": 49.597955,
    "lng": 0.477464,
    "transactions": [
      {
        "date": "2020-11-13",
        "priceEur": 181850,
        "typeLocal": "Maison",
        "surfaceM2": 130,
        "isVefa": false
      }
    ]
  },
  "0730231e5144": {
    "id": "0730231e5144",
    "label": "9 RES DES PRES, Nointot",
    "lat": 49.598889,
    "lng": 0.481522,
    "transactions": [
      {
        "date": "2020-11-23",
        "priceEur": 177800,
        "typeLocal": "Maison",
        "surfaceM2": 70,
        "isVefa": false
      }
    ]
  },
  "40e195573259": {
    "id": "40e195573259",
    "label": "2 IMP DES PRES, Nointot",
    "lat": 49.599042,
    "lng": 0.480913,
    "transactions": [
      {
        "date": "2021-05-27",
        "priceEur": 181250,
        "typeLocal": "Maison",
        "surfaceM2": 79,
        "isVefa": false
      }
    ]
  },
  "d6dcf1994449": {
    "id": "d6dcf1994449",
    "label": "12 RES LES HETRES, Nointot",
    "lat": 49.600071,
    "lng": 0.482306,
    "transactions": [
      {
        "date": "2021-06-25",
        "priceEur": 228500,
        "typeLocal": "Maison",
        "surfaceM2": 113,
        "isVefa": false
      }
    ]
  },
  "58434763ad9a": {
    "id": "58434763ad9a",
    "label": "9 RES LA FONTAINE, Nointot",
    "lat": 49.598604,
    "lng": 0.475312,
    "transactions": [
      {
        "date": "2021-07-09",
        "priceEur": 197000,
        "typeLocal": "Maison",
        "surfaceM2": 103,
        "isVefa": false
      }
    ]
  },
  "b2d6879668df": {
    "id": "b2d6879668df",
    "label": "14 IMP DU CALVAIRE, Nointot",
    "lat": 49.596683,
    "lng": 0.480763,
    "transactions": [
      {
        "date": "2021-10-29",
        "priceEur": 137650,
        "typeLocal": "Maison",
        "surfaceM2": 90,
        "isVefa": false
      }
    ]
  },
  "ba2d57940749": {
    "id": "ba2d57940749",
    "label": "16 RTE DE BACLAIR, Nointot",
    "lat": 49.59736,
    "lng": 0.480562,
    "transactions": [
      {
        "date": "2021-11-15",
        "priceEur": 140000,
        "typeLocal": "Maison",
        "surfaceM2": 95,
        "isVefa": false
      }
    ]
  },
  "b15eae05bbfc": {
    "id": "b15eae05bbfc",
    "label": "7 RES DU VILLAGE, Nointot",
    "lat": 49.59813,
    "lng": 0.480518,
    "transactions": [
      {
        "date": "2021-12-16",
        "priceEur": 171000,
        "typeLocal": "Maison",
        "surfaceM2": 85,
        "isVefa": false
      }
    ]
  },
  "f84c46d21ddc": {
    "id": "f84c46d21ddc",
    "label": "7 RES DU CHENE, Nointot",
    "lat": 49.597007,
    "lng": 0.48081,
    "transactions": [
      {
        "date": "2022-02-22",
        "priceEur": 240100,
        "typeLocal": "Maison",
        "surfaceM2": 85,
        "isVefa": false
      }
    ]
  },
  "61b9dd784ae8": {
    "id": "61b9dd784ae8",
    "label": "48 IMP DES PRES, Nointot",
    "lat": 49.597999,
    "lng": 0.479806,
    "transactions": [
      {
        "date": "2022-06-17",
        "priceEur": 112000,
        "typeLocal": "Maison",
        "surfaceM2": 74,
        "isVefa": false
      }
    ]
  },
  "a8e9c43f420b": {
    "id": "a8e9c43f420b",
    "label": "5037 RTE DE BACLAIR, Nointot",
    "lat": 49.597245,
    "lng": 0.480778,
    "transactions": [
      {
        "date": "2023-01-16",
        "priceEur": 203000,
        "typeLocal": "Maison",
        "surfaceM2": 80,
        "isVefa": false
      }
    ]
  },
  "975c7f182253": {
    "id": "975c7f182253",
    "label": "2 PL DU PRESBYTERE, Nointot",
    "lat": 49.598738,
    "lng": 0.478462,
    "transactions": [
      {
        "date": "2023-02-24",
        "priceEur": 178500,
        "typeLocal": "Maison",
        "surfaceM2": 100,
        "isVefa": false
      }
    ]
  },
  "24c2ae5eb047": {
    "id": "24c2ae5eb047",
    "label": "8 PL DE L'EGLISE, Nointot",
    "lat": 49.598856,
    "lng": 0.476966,
    "transactions": [
      {
        "date": "2023-03-30",
        "priceEur": 150000,
        "typeLocal": "Maison",
        "surfaceM2": 82,
        "isVefa": false
      }
    ]
  },
  "d82f80f54270": {
    "id": "d82f80f54270",
    "label": "16 RES DU BOIS JOUEN, Nointot",
    "lat": 49.597784,
    "lng": 0.475644,
    "transactions": [
      {
        "date": "2023-07-21",
        "priceEur": 221480,
        "typeLocal": "Maison",
        "surfaceM2": 103,
        "isVefa": false
      }
    ]
  },
  "624652d89800": {
    "id": "624652d89800",
    "label": "258 RTE DE LA GARE, Nointot",
    "lat": 49.59679,
    "lng": 0.480364,
    "transactions": [
      {
        "date": "2023-07-27",
        "priceEur": 180000,
        "typeLocal": "Maison",
        "surfaceM2": 86,
        "isVefa": false
      }
    ]
  },
  "596683d8fa1d": {
    "id": "596683d8fa1d",
    "label": "87 RTE DE LA GARE, Nointot",
    "lat": 49.598178,
    "lng": 0.479133,
    "transactions": [
      {
        "date": "2023-10-13",
        "priceEur": 60000,
        "typeLocal": "Maison",
        "surfaceM2": 65,
        "isVefa": false
      }
    ]
  },
  "bcd6bbc52b0d": {
    "id": "bcd6bbc52b0d",
    "label": "3 RES DU VILLAGE, Nointot",
    "lat": 49.597906,
    "lng": 0.480148,
    "transactions": [
      {
        "date": "2023-10-31",
        "priceEur": 87500,
        "typeLocal": "Maison",
        "surfaceM2": 93,
        "isVefa": false
      }
    ]
  },
  "4332e10335e9": {
    "id": "4332e10335e9",
    "label": "238 RTE DE LA GARE, Nointot",
    "lat": 49.597261,
    "lng": 0.480095,
    "transactions": [
      {
        "date": "2023-12-14",
        "priceEur": 197406.4,
        "typeLocal": "Maison",
        "surfaceM2": 104,
        "isVefa": false
      }
    ]
  },
  "c6c55dffccac": {
    "id": "c6c55dffccac",
    "label": "6 PL DU PRESBYTERE, Nointot",
    "lat": 49.599163,
    "lng": 0.478566,
    "transactions": [
      {
        "date": "2023-12-27",
        "priceEur": 290000,
        "typeLocal": "Maison",
        "surfaceM2": 113,
        "isVefa": false
      }
    ]
  },
  "07a763f7cf0a": {
    "id": "07a763f7cf0a",
    "label": "138 IMP DES HETRES, Nointot",
    "lat": 49.599061,
    "lng": 0.483296,
    "transactions": [
      {
        "date": "2024-12-23",
        "priceEur": 149000,
        "typeLocal": "Maison",
        "surfaceM2": 76,
        "isVefa": false
      }
    ]
  },
  "4452b6f110bd": {
    "id": "4452b6f110bd",
    "label": "125 RTE DE BOLBEC, Nointot",
    "lat": 49.597199,
    "lng": 0.477795,
    "transactions": [
      {
        "date": "2025-03-17",
        "priceEur": 304500,
        "typeLocal": "Maison",
        "surfaceM2": 146,
        "isVefa": false
      }
    ]
  }
}