{
  "c983239e5a2a": {
    "id": "c983239e5a2a",
    "label": "16 RUE ABRAHAM MAZEL, Béziers",
    "lat": 43.351313,
    "lng": 3.243414,
    "transactions": [
      {
        "date": "2020-07-20",
        "priceEur": 145000,
        "typeLocal": "Maison",
        "surfaceM2": 90,
        "isVefa": false
      }
    ]
  },
  "e54c42bd9fd4": {
    "id": "e54c42bd9fd4",
    "label": "411 RUE FERNAND ARVIEU, Béziers",
    "lat": 43.350408,
    "lng": 3.24868,
    "transactions": [
      {
        "date": "2020-07-24",
        "priceEur": 83000,
        "typeLocal": "Maison",
        "surfaceM2": 109,
        "isVefa": false
      }
    ]
  },
  "f26466fc25c9": {
    "id": "f26466fc25c9",
    "label": "8 IMP FRANCOIS MAURIAC, Béziers",
    "lat": 43.355748,
    "lng": 3.249372,
    "transactions": [
      {
        "date": "2020-07-15",
        "priceEur": 153000,
        "typeLocal": "Maison",
        "surfaceM2": 75,
        "isVefa": false
      }
    ]
  },
  "9a9f12c00742": {
    "id": "9a9f12c00742",
    "label": "289 RUE FERNAND TAILLEFER, Béziers",
    "lat": 43.350884,
    "lng": 3.247511,
    "transactions": [
      {
        "date": "2020-08-19",
        "priceEur": 322370,
        "typeLocal": "Maison",
        "surfaceM2": 135,
        "isVefa": false
      }
    ]
  },
  "ee40cca6a15e": {
    "id": "ee40cca6a15e",
    "label": "9 RUE LEO DELIBES, Béziers",
    "lat": 43.353868,
    "lng": 3.241569,
    "transactions": [
      {
        "date": "2020-08-21",
        "priceEur": 228000,
        "typeLocal": "Maison",
        "surfaceM2": 134,
        "isVefa": false
      }
    ]
  },
  "82e7aef1f68e": {
    "id": "82e7aef1f68e",
    "label": "29 RUE CESAR FRANCK, Béziers",
    "lat": 43.353122,
    "lng": 3.241096,
    "transactions": [
      {
        "date": "2020-09-14",
        "priceEur": 84000,
        "typeLocal": "Appartement",
        "surfaceM2": 61,
        "isVefa": false
      }
    ]
  },
  "66978873b512": {
    "id": "66978873b512",
    "label": "40 AV DE BADONES, Béziers",
    "lat": 43.353245,
    "lng": 3.245497,
    "transactions": [
      {
        "date": "2020-09-17",
        "priceEur": 128000,
        "typeLocal": "Appartement",
        "surfaceM2": 40,
        "isVefa": true
      }
    ]
  },
  "22b0ea53942d": {
    "id": "22b0ea53942d",
    "label": "55 RUE FERNAND ARVIEU, Béziers",
    "lat": 43.353595,
    "lng": 3.247195,
    "transactions": [
      {
        "date": "2023-01-03",
        "priceEur": 67000,
        "typeLocal": "Appartement",
        "surfaceM2": 25,
        "isVefa": false
      },
      {
        "date": "2021-09-30",
        "priceEur": 145000,
        "typeLocal": "Appartement",
        "surfaceM2": 52,
        "isVefa": false
      },
      {
        "date": "2020-09-03",
        "priceEur": 145000,
        "typeLocal": "Appartement",
        "surfaceM2": 53,
        "isVefa": true
      }
    ]
  },
  "bb3236067de4": {
    "id": "bb3236067de4",
    "label": "5 RUE LAURENS RAVANEL, Béziers",
    "lat": 43.349704,
    "lng": 3.24134,
    "transactions": [
      {
        "date": "2020-10-22",
        "priceEur": 176100,
        "typeLocal": "Maison",
        "surfaceM2": 99,
        "isVefa": false
      }
    ]
  },
  "7d1eb52b85c0": {
    "id": "7d1eb52b85c0",
    "label": "26 RUE VINCENT D INDY, Béziers",
    "lat": 43.355508,
    "lng": 3.244126,
    "transactions": [
      {
        "date": "2020-10-21",
        "priceEur": 220000,
        "typeLocal": "Maison",
        "surfaceM2": 158,
        "isVefa": false
      }
    ]
  },
  "c4e778ead095": {
    "id": "c4e778ead095",
    "label": "144 RUE FERNAND ARVIEU, Béziers",
    "lat": 43.352638,
    "lng": 3.248104,
    "transactions": [
      {
        "date": "2020-10-05",
        "priceEur": 278450,
        "typeLocal": "Maison",
        "surfaceM2": 105,
        "isVefa": false
      }
    ]
  },
  "83109d4c8fc0": {
    "id": "83109d4c8fc0",
    "label": "13 RUE MOHANDAS KARAMCHAND GANDHI, Béziers",
    "lat": 43.351506,
    "lng": 3.245314,
    "transactions": [
      {
        "date": "2022-01-07",
        "priceEur": 379000,
        "typeLocal": "Maison",
        "surfaceM2": 137,
        "isVefa": false
      },
      {
        "date": "2020-10-09",
        "priceEur": 293000,
        "typeLocal": "Maison",
        "surfaceM2": 137,
        "isVefa": false
      }
    ]
  },
  "b0a724f532b5": {
    "id": "b0a724f532b5",
    "label": "58 RUE DARIUS MILHAUD, Béziers",
    "lat": 43.356447,
    "lng": 3.244362,
    "transactions": [
      {
        "date": "2020-10-30",
        "priceEur": 246000,
        "typeLocal": "Maison",
        "surfaceM2": 111,
        "isVefa": false
      }
    ]
  },
  "afab630113b6": {
    "id": "afab630113b6",
    "label": "12 RUE ZAMENHOFF LUDOVIC LAZARE, Béziers",
    "lat": 43.355042,
    "lng": 3.245451,
    "transactions": [
      {
        "date": "2020-10-20",
        "priceEur": 198000,
        "typeLocal": "Maison",
        "surfaceM2": 101,
        "isVefa": false
      }
    ]
  },
  "92f3a86ac3ba": {
    "id": "92f3a86ac3ba",
    "label": "82 RUE DE LA CROUZETTE, Béziers",
    "lat": 43.356783,
    "lng": 3.248918,
    "transactions": [
      {
        "date": "2020-10-27",
        "priceEur": 176000,
        "typeLocal": "Maison",
        "surfaceM2": 128,
        "isVefa": false
      }
    ]
  },
  "3e89402f4ded": {
    "id": "3e89402f4ded",
    "label": "204 RUE FERNAND ARVIEU, Béziers",
    "lat": 43.352076,
    "lng": 3.248135,
    "transactions": [
      {
        "date": "2020-11-18",
        "priceEur": 319000,
        "typeLocal": "Maison",
        "surfaceM2": 122,
        "isVefa": false
      }
    ]
  },
  "b5b6b7b359ed": {
    "id": "b5b6b7b359ed",
    "label": "15 RUE LO PERDIGAL, Béziers",
    "lat": 43.350171,
    "lng": 3.244952,
    "transactions": [
      {
        "date": "2020-11-20",
        "priceEur": 192000,
        "typeLocal": "Maison",
        "surfaceM2": 81,
        "isVefa": false
      }
    ]
  },
  "1a4180584bd4": {
    "id": "1a4180584bd4",
    "label": "15 RUE DU GENERAL MONSABERT, Béziers",
    "lat": 43.349778,
    "lng": 3.24497,
    "transactions": [
      {
        "date": "2020-11-20",
        "priceEur": 175750,
        "typeLocal": "Appartement",
        "surfaceM2": 57,
        "isVefa": false
      },
      {
        "date": "2020-11-20",
        "priceEur": 175750,
        "typeLocal": "Appartement",
        "surfaceM2": 72,
        "isVefa": false
      }
    ]
  },
  "c2c11e087cad": {
    "id": "c2c11e087cad",
    "label": "2 RUE JACQUES PREVERT, Béziers",
    "lat": 43.357077,
    "lng": 3.248421,
    "transactions": [
      {
        "date": "2020-12-17",
        "priceEur": 159000,
        "typeLocal": "Maison",
        "surfaceM2": 80,
        "isVefa": false
      }
    ]
  },
  "96ee7db8264a": {
    "id": "96ee7db8264a",
    "label": "165 RUE FERNAND ARVIEU, Béziers",
    "lat": 43.352448,
    "lng": 3.247683,
    "transactions": [
      {
        "date": "2020-12-17",
        "priceEur": 310000,
        "typeLocal": "Maison",
        "surfaceM2": 110,
        "isVefa": false
      }
    ]
  },
  "60fd9430c7ce": {
    "id": "60fd9430c7ce",
    "label": "37 RUE DE LA CROUZETTE, Béziers",
    "lat": 43.355928,
    "lng": 3.247259,
    "transactions": [
      {
        "date": "2021-01-08",
        "priceEur": 192000,
        "typeLocal": "Maison",
        "surfaceM2": 94,
        "isVefa": false
      }
    ]
  },
  "82b7f01d690f": {
    "id": "82b7f01d690f",
    "label": "23 RUE CESAR FRANCK, Béziers",
    "lat": 43.352963,
    "lng": 3.241258,
    "transactions": [
      {
        "date": "2021-04-12",
        "priceEur": 280000,
        "typeLocal": "Appartement",
        "surfaceM2": 57,
        "isVefa": false
      },
      {
        "date": "2021-04-12",
        "priceEur": 280000,
        "typeLocal": "Appartement",
        "surfaceM2": 151,
        "isVefa": false
      }
    ]
  },
  "3ad4650c645b": {
    "id": "3ad4650c645b",
    "label": "346 RUE FERNAND TAILLEFER, Béziers",
    "lat": 43.350457,
    "lng": 3.248028,
    "transactions": [
      {
        "date": "2021-04-15",
        "priceEur": 351500,
        "typeLocal": "Maison",
        "surfaceM2": 130,
        "isVefa": false
      }
    ]
  },
  "c3a665f3b654": {
    "id": "c3a665f3b654",
    "label": "47 RUE DE LA CROUZETTE, Béziers",
    "lat": 43.356451,
    "lng": 3.247127,
    "transactions": [
      {
        "date": "2021-04-12",
        "priceEur": 186000,
        "typeLocal": "Maison",
        "surfaceM2": 118,
        "isVefa": false
      }
    ]
  },
  "f9227d482f3c": {
    "id": "f9227d482f3c",
    "label": "9 RUE CLAUDE BROUSSON, Béziers",
    "lat": 43.351313,
    "lng": 3.243414,
    "transactions": [
      {
        "date": "2023-04-17",
        "priceEur": 246000,
        "typeLocal": "Maison",
        "surfaceM2": 90,
        "isVefa": false
      },
      {
        "date": "2022-05-30",
        "priceEur": 227630,
        "typeLocal": "Maison",
        "surfaceM2": 90,
        "isVefa": false
      },
      {
        "date": "2021-04-16",
        "priceEur": 140000,
        "typeLocal": "Maison",
        "surfaceM2": 90,
        "isVefa": false
      }
    ]
  },
  "b7597b7d1984": {
    "id": "b7597b7d1984",
    "label": "10 RUE FRANCOIS VIVENT, Béziers",
    "lat": 43.351313,
    "lng": 3.243414,
    "transactions": [
      {
        "date": "2021-05-07",
        "priceEur": 170500,
        "typeLocal": "Maison",
        "surfaceM2": 90,
        "isVefa": false
      }
    ]
  },
  "937917eae24f": {
    "id": "937917eae24f",
    "label": "67 BD DU GEN DE LARMINAT, Béziers",
    "lat": 43.352501,
    "lng": 3.246023,
    "transactions": [
      {
        "date": "2021-11-18",
        "priceEur": 185000,
        "typeLocal": "Maison",
        "surfaceM2": 72,
        "isVefa": false
      },
      {
        "date": "2021-05-25",
        "priceEur": 205000,
        "typeLocal": "Maison",
        "surfaceM2": 72,
        "isVefa": false
      }
    ]
  },
  "631493b78665": {
    "id": "631493b78665",
    "label": "15 RUE ANDRE TANNIERES, Béziers",
    "lat": 43.356509,
    "lng": 3.244976,
    "transactions": [
      {
        "date": "2021-06-08",
        "priceEur": 228620,
        "typeLocal": "Maison",
        "surfaceM2": 152,
        "isVefa": false
      }
    ]
  },
  "c50d7360e473": {
    "id": "c50d7360e473",
    "label": "7 RUE VAN PARYS, Béziers",
    "lat": 43.356363,
    "lng": 3.2421,
    "transactions": [
      {
        "date": "2021-06-22",
        "priceEur": 167100,
        "typeLocal": "Maison",
        "surfaceM2": 97,
        "isVefa": false
      }
    ]
  },
  "daa2ed6fac00": {
    "id": "daa2ed6fac00",
    "label": "3 RUE RAYNALDO HAHN, Béziers",
    "lat": 43.354224,
    "lng": 3.243292,
    "transactions": [
      {
        "date": "2021-06-28",
        "priceEur": 261250,
        "typeLocal": "Maison",
        "surfaceM2": 159,
        "isVefa": false
      }
    ]
  },
  "ebd0f4e437f9": {
    "id": "ebd0f4e437f9",
    "label": "20 RUE PABLO CASALS, Béziers",
    "lat": 43.354838,
    "lng": 3.244443,
    "transactions": [
      {
        "date": "2021-07-02",
        "priceEur": 271500,
        "typeLocal": "Maison",
        "surfaceM2": 140,
        "isVefa": false
      }
    ]
  },
  "4f6e3a91b1c4": {
    "id": "4f6e3a91b1c4",
    "label": "2 IMP PIERRE ESPRIT SEGUIER, Béziers",
    "lat": 43.351313,
    "lng": 3.243414,
    "transactions": [
      {
        "date": "2021-07-19",
        "priceEur": 147250,
        "typeLocal": "Maison",
        "surfaceM2": 85,
        "isVefa": false
      }
    ]
  },
  "3573290ae2f7": {
    "id": "3573290ae2f7",
    "label": "4 RUE VINCENT D INDY, Béziers",
    "lat": 43.355087,
    "lng": 3.241927,
    "transactions": [
      {
        "date": "2021-07-12",
        "priceEur": 200000,
        "typeLocal": "Maison",
        "surfaceM2": 151,
        "isVefa": false
      }
    ]
  },
  "00a54160cc1f": {
    "id": "00a54160cc1f",
    "label": "6 RUE MARIE DURAND, Béziers",
    "lat": 43.350709,
    "lng": 3.242171,
    "transactions": [
      {
        "date": "2021-07-29",
        "priceEur": 145000,
        "typeLocal": "Maison",
        "surfaceM2": 111,
        "isVefa": false
      }
    ]
  },
  "dea94593fec9": {
    "id": "dea94593fec9",
    "label": "2 IMP DU MOULIN A VENT, Béziers",
    "lat": 43.353273,
    "lng": 3.242946,
    "transactions": [
      {
        "date": "2021-08-17",
        "priceEur": 267000,
        "typeLocal": "Maison",
        "surfaceM2": 104,
        "isVefa": false
      }
    ]
  },
  "3136303dd09e": {
    "id": "3136303dd09e",
    "label": "1 IMP ARTHUR RIMBAUD, Béziers",
    "lat": 43.355752,
    "lng": 3.247849,
    "transactions": [
      {
        "date": "2024-01-30",
        "priceEur": 235650,
        "typeLocal": "Maison",
        "surfaceM2": 115,
        "isVefa": false
      },
      {
        "date": "2021-08-31",
        "priceEur": 216250,
        "typeLocal": "Maison",
        "surfaceM2": 115,
        "isVefa": false
      }
    ]
  },
  "7b0944c5bf6a": {
    "id": "7b0944c5bf6a",
    "label": "9 PL ARTHUR HONEGGER, Béziers",
    "lat": 43.354699,
    "lng": 3.241312,
    "transactions": [
      {
        "date": "2021-08-16",
        "priceEur": 235700,
        "typeLocal": "Maison",
        "surfaceM2": 100,
        "isVefa": false
      }
    ]
  },
  "80a50ece8aa8": {
    "id": "80a50ece8aa8",
    "label": "156 RUE FERNAND TAILLEFER, Béziers",
    "lat": 43.352028,
    "lng": 3.24746,
    "transactions": [
      {
        "date": "2021-09-01",
        "priceEur": 361000,
        "typeLocal": "Maison",
        "surfaceM2": 143,
        "isVefa": false
      }
    ]
  },
  "d56dd83512a6": {
    "id": "d56dd83512a6",
    "label": "53 AV DE BADONES, Béziers",
    "lat": 43.353735,
    "lng": 3.245775,
    "transactions": [
      {
        "date": "2021-09-06",
        "priceEur": 120000,
        "typeLocal": "Maison",
        "surfaceM2": 107,
        "isVefa": false
      }
    ]
  },
  "257be85fd941": {
    "id": "257be85fd941",
    "label": "12 IMP GUY DE MAUPASSANT, Béziers",
    "lat": 43.355008,
    "lng": 3.246649,
    "transactions": [
      {
        "date": "2021-08-27",
        "priceEur": 285000,
        "typeLocal": "Maison",
        "surfaceM2": 115,
        "isVefa": false
      }
    ]
  },
  "b0a79bb72efc": {
    "id": "b0a79bb72efc",
    "label": "1 IMP PIERRE ESPRIT SEGUIER, Béziers",
    "lat": 43.351313,
    "lng": 3.243414,
    "transactions": [
      {
        "date": "2021-09-27",
        "priceEur": 185000,
        "typeLocal": "Maison",
        "surfaceM2": 80,
        "isVefa": false
      }
    ]
  },
  "370d8d8d0c8c": {
    "id": "370d8d8d0c8c",
    "label": "20 RUE CLAUDE BROUSSON, Béziers",
    "lat": 43.350823,
    "lng": 3.245242,
    "transactions": [
      {
        "date": "2021-09-17",
        "priceEur": 129600,
        "typeLocal": "Maison",
        "surfaceM2": 90,
        "isVefa": false
      }
    ]
  },
  "bc738143312b": {
    "id": "bc738143312b",
    "label": "3 IMP ARTHUR RIMBAUD, Béziers",
    "lat": 43.35575,
    "lng": 3.247976,
    "transactions": [
      {
        "date": "2021-09-29",
        "priceEur": 193100,
        "typeLocal": "Maison",
        "surfaceM2": 102,
        "isVefa": false
      }
    ]
  },
  "2fef3eb9a741": {
    "id": "2fef3eb9a741",
    "label": "10 RUE ZAMENHOFF LUDOVIC LAZARE, Béziers",
    "lat": 43.354948,
    "lng": 3.245445,
    "transactions": [
      {
        "date": "2021-10-04",
        "priceEur": 230000,
        "typeLocal": "Maison",
        "surfaceM2": 138,
        "isVefa": false
      }
    ]
  },
  "b59df6282863": {
    "id": "b59df6282863",
    "label": "8 RUE MARIE DURAND, Béziers",
    "lat": 43.350709,
    "lng": 3.242171,
    "transactions": [
      {
        "date": "2023-03-13",
        "priceEur": 231000,
        "typeLocal": "Maison",
        "surfaceM2": 105,
        "isVefa": false
      },
      {
        "date": "2021-10-15",
        "priceEur": 185000,
        "typeLocal": "Maison",
        "surfaceM2": 105,
        "isVefa": false
      }
    ]
  },
  "fa6c44931c5d": {
    "id": "fa6c44931c5d",
    "label": "21 BD DU GEN KOENIG, Béziers",
    "lat": 43.355555,
    "lng": 3.245621,
    "transactions": [
      {
        "date": "2021-09-29",
        "priceEur": 200000,
        "typeLocal": "Maison",
        "surfaceM2": 118,
        "isVefa": false
      }
    ]
  },
  "b30fdde38ed8": {
    "id": "b30fdde38ed8",
    "label": "9 RUE LAURENS RAVANEL, Béziers",
    "lat": 43.34953,
    "lng": 3.241466,
    "transactions": [
      {
        "date": "2023-06-22",
        "priceEur": 251000,
        "typeLocal": "Maison",
        "surfaceM2": 127,
        "isVefa": false
      },
      {
        "date": "2021-10-29",
        "priceEur": 169000,
        "typeLocal": "Maison",
        "surfaceM2": 127,
        "isVefa": false
      }
    ]
  },
  "c72340c14ef7": {
    "id": "c72340c14ef7",
    "label": "8 IMP RAYNALDO HAHN, Béziers",
    "lat": 43.353737,
    "lng": 3.244153,
    "transactions": [
      {
        "date": "2021-10-29",
        "priceEur": 280000,
        "typeLocal": "Maison",
        "surfaceM2": 110,
        "isVefa": false
      }
    ]
  },
  "6e1debe19751": {
    "id": "6e1debe19751",
    "label": "18 IMP FRANCOIS MAURIAC, Béziers",
    "lat": 43.355882,
    "lng": 3.248832,
    "transactions": [
      {
        "date": "2021-11-04",
        "priceEur": 209000,
        "typeLocal": "Maison",
        "surfaceM2": 80,
        "isVefa": false
      }
    ]
  },
  "09fa3643e3fd": {
    "id": "09fa3643e3fd",
    "label": "1 RUE ANTONIN GROS, Béziers",
    "lat": 43.3566,
    "lng": 3.247139,
    "transactions": [
      {
        "date": "2021-11-09",
        "priceEur": 184000,
        "typeLocal": "Maison",
        "surfaceM2": 79,
        "isVefa": false
      }
    ]
  },
  "969a1d122845": {
    "id": "969a1d122845",
    "label": "25 RUE DARIUS MILHAUD, Béziers",
    "lat": 43.354779,
    "lng": 3.241437,
    "transactions": [
      {
        "date": "2021-11-09",
        "priceEur": 105000,
        "typeLocal": "Maison",
        "surfaceM2": 99,
        "isVefa": false
      }
    ]
  },
  "af9b02928d3b": {
    "id": "af9b02928d3b",
    "label": "5 RUE SALOMON COUDERC, Béziers",
    "lat": 43.350709,
    "lng": 3.242171,
    "transactions": [
      {
        "date": "2021-11-26",
        "priceEur": 179000,
        "typeLocal": "Maison",
        "surfaceM2": 85,
        "isVefa": false
      }
    ]
  },
  "45b771cef6f8": {
    "id": "45b771cef6f8",
    "label": "26 RUE PABLO CASALS, Béziers",
    "lat": 43.355444,
    "lng": 3.243888,
    "transactions": [
      {
        "date": "2021-12-15",
        "priceEur": 295000,
        "typeLocal": "Maison",
        "surfaceM2": 131,
        "isVefa": false
      }
    ]
  },
  "23b6983b510b": {
    "id": "23b6983b510b",
    "label": "200 RUE FERNAND TAILLEFER, Béziers",
    "lat": 43.351619,
    "lng": 3.247604,
    "transactions": [
      {
        "date": "2022-02-18",
        "priceEur": 403150,
        "typeLocal": "Maison",
        "surfaceM2": 147,
        "isVefa": false
      }
    ]
  },
  "04ca02a25a36": {
    "id": "04ca02a25a36",
    "label": "28 RUE LEO DELIBES, Béziers",
    "lat": 43.354578,
    "lng": 3.243542,
    "transactions": [
      {
        "date": "2022-03-09",
        "priceEur": 203000,
        "typeLocal": "Maison",
        "surfaceM2": 89,
        "isVefa": false
      }
    ]
  },
  "4bbfac735df9": {
    "id": "4bbfac735df9",
    "label": "54 BD DU GEN DE LARMINAT, Béziers",
    "lat": 43.350065,
    "lng": 3.246366,
    "transactions": [
      {
        "date": "2022-03-31",
        "priceEur": 150000,
        "typeLocal": "Maison",
        "surfaceM2": 102,
        "isVefa": false
      }
    ]
  },
  "9e9b2d14fd10": {
    "id": "9e9b2d14fd10",
    "label": "40 RUE PABLO CASALS, Béziers",
    "lat": 43.356625,
    "lng": 3.243016,
    "transactions": [
      {
        "date": "2022-04-01",
        "priceEur": 217000,
        "typeLocal": "Maison",
        "surfaceM2": 117,
        "isVefa": false
      }
    ]
  },
  "c96f3181e212": {
    "id": "c96f3181e212",
    "label": "337 RUE FERNAND ARVIEU, Béziers",
    "lat": 43.350923,
    "lng": 3.248366,
    "transactions": [
      {
        "date": "2022-04-14",
        "priceEur": 459522,
        "typeLocal": "Maison",
        "surfaceM2": 148,
        "isVefa": false
      }
    ]
  },
  "836e26d3bba9": {
    "id": "836e26d3bba9",
    "label": "66 RUE DARIUS MILHAUD, Béziers",
    "lat": 43.35679,
    "lng": 3.24508,
    "transactions": [
      {
        "date": "2022-04-29",
        "priceEur": 154000,
        "typeLocal": "Maison",
        "surfaceM2": 68,
        "isVefa": false
      }
    ]
  },
  "26a2cb685c7d": {
    "id": "26a2cb685c7d",
    "label": "8 RUE CLAUDE BROUSSON, Béziers",
    "lat": 43.350823,
    "lng": 3.245242,
    "transactions": [
      {
        "date": "2022-06-01",
        "priceEur": 214000,
        "typeLocal": "Maison",
        "surfaceM2": 90,
        "isVefa": false
      }
    ]
  },
  "1ed458af6f7b": {
    "id": "1ed458af6f7b",
    "label": "7 IMP GUY DE MAUPASSANT, Béziers",
    "lat": 43.355089,
    "lng": 3.247304,
    "transactions": [
      {
        "date": "2022-05-23",
        "priceEur": 392650,
        "typeLocal": "Maison",
        "surfaceM2": 132,
        "isVefa": false
      }
    ]
  },
  "2c18d1f82161": {
    "id": "2c18d1f82161",
    "label": "14 AV DE BADONES, Béziers",
    "lat": 43.351106,
    "lng": 3.24113,
    "transactions": [
      {
        "date": "2022-06-10",
        "priceEur": 215000,
        "typeLocal": "Maison",
        "surfaceM2": 84,
        "isVefa": false
      }
    ]
  },
  "f1303e0c1431": {
    "id": "f1303e0c1431",
    "label": "5 PL CLAUDE DEBUSSY, Béziers",
    "lat": 43.350644,
    "lng": 3.241696,
    "transactions": [
      {
        "date": "2022-05-30",
        "priceEur": 190050,
        "typeLocal": "Maison",
        "surfaceM2": 85,
        "isVefa": false
      }
    ]
  },
  "2ae10b66cce3": {
    "id": "2ae10b66cce3",
    "label": "277 RUE FERNAND ARVIEU, Béziers",
    "lat": 43.351523,
    "lng": 3.247993,
    "transactions": [
      {
        "date": "2022-07-06",
        "priceEur": 355000,
        "typeLocal": "Maison",
        "surfaceM2": 104,
        "isVefa": false
      }
    ]
  },
  "a8f4d98f7990": {
    "id": "a8f4d98f7990",
    "label": "2 IMP ANDRE CASTANET, Béziers",
    "lat": 43.351313,
    "lng": 3.243414,
    "transactions": [
      {
        "date": "2022-07-26",
        "priceEur": 254000,
        "typeLocal": "Maison",
        "surfaceM2": 110,
        "isVefa": false
      }
    ]
  },
  "95c9edfc85c5": {
    "id": "95c9edfc85c5",
    "label": "1 RUE ALFRED CORTOT, Béziers",
    "lat": 43.351794,
    "lng": 3.241787,
    "transactions": [
      {
        "date": "2023-01-26",
        "priceEur": 210000,
        "typeLocal": "Maison",
        "surfaceM2": 95,
        "isVefa": false
      },
      {
        "date": "2022-07-28",
        "priceEur": 176550,
        "typeLocal": "Maison",
        "surfaceM2": 95,
        "isVefa": false
      }
    ]
  },
  "d0a8d36afa2d": {
    "id": "d0a8d36afa2d",
    "label": "44 RUE FRANCOIS GAUBERT, Béziers",
    "lat": 43.352208,
    "lng": 3.248557,
    "transactions": [
      {
        "date": "2022-07-08",
        "priceEur": 408500,
        "typeLocal": "Maison",
        "surfaceM2": 135,
        "isVefa": false
      }
    ]
  },
  "5f5d065371a2": {
    "id": "5f5d065371a2",
    "label": "34 RUE CESAR FRANCK, Béziers",
    "lat": 43.353127,
    "lng": 3.241546,
    "transactions": [
      {
        "date": "2022-06-30",
        "priceEur": 208500,
        "typeLocal": "Maison",
        "surfaceM2": 75,
        "isVefa": false
      }
    ]
  },
  "16472923f2e4": {
    "id": "16472923f2e4",
    "label": "45 RUE FRANCOIS GAUBERT, Béziers",
    "lat": 43.351793,
    "lng": 3.248482,
    "transactions": [
      {
        "date": "2025-05-28",
        "priceEur": 375000,
        "typeLocal": "Appartement",
        "surfaceM2": 89,
        "isVefa": true
      },
      {
        "date": "2025-05-19",
        "priceEur": 179000,
        "typeLocal": "Appartement",
        "surfaceM2": 45,
        "isVefa": false
      },
      {
        "date": "2025-03-24",
        "priceEur": 114000,
        "typeLocal": "Appartement",
        "surfaceM2": 42,
        "isVefa": false
      },
      {
        "date": "2025-02-28",
        "priceEur": 256500,
        "typeLocal": "Appartement",
        "surfaceM2": 64,
        "isVefa": true
      },
      {
        "date": "2024-12-23",
        "priceEur": 168500,
        "typeLocal": "Appartement",
        "surfaceM2": 45,
        "isVefa": true
      },
      {
        "date": "2024-11-15",
        "priceEur": 178500,
        "typeLocal": "Appartement",
        "surfaceM2": 43,
        "isVefa": true
      },
      {
        "date": "2024-11-13",
        "priceEur": 380000,
        "typeLocal": "Appartement",
        "surfaceM2": 97,
        "isVefa": true
      },
      {
        "date": "2024-06-28",
        "priceEur": 225000,
        "typeLocal": "Appartement",
        "surfaceM2": 64,
        "isVefa": false
      },
      {
        "date": "2024-04-03",
        "priceEur": 240500,
        "typeLocal": "Appartement",
        "surfaceM2": 65,
        "isVefa": false
      },
      {
        "date": "2024-01-09",
        "priceEur": 141500,
        "typeLocal": "Appartement",
        "surfaceM2": 44,
        "isVefa": false
      },
      {
        "date": "2023-07-21",
        "priceEur": 156500,
        "typeLocal": "Appartement",
        "surfaceM2": 45,
        "isVefa": true
      },
      {
        "date": "2023-03-06",
        "priceEur": 159000,
        "typeLocal": "Appartement",
        "surfaceM2": 45,
        "isVefa": true
      },
      {
        "date": "2023-02-28",
        "priceEur": 231573.22,
        "typeLocal": "Appartement",
        "surfaceM2": 65,
        "isVefa": true
      },
      {
        "date": "2023-02-17",
        "priceEur": 158000,
        "typeLocal": "Appartement",
        "surfaceM2": 46,
        "isVefa": true
      },
      {
        "date": "2023-01-06",
        "priceEur": 151000,
        "typeLocal": "Appartement",
        "surfaceM2": 44,
        "isVefa": true
      },
      {
        "date": "2022-12-20",
        "priceEur": 110200,
        "typeLocal": "Appartement",
        "surfaceM2": 31,
        "isVefa": true
      },
      {
        "date": "2022-12-08",
        "priceEur": 274000,
        "typeLocal": "Appartement",
        "surfaceM2": 75,
        "isVefa": true
      },
      {
        "date": "2022-10-25",
        "priceEur": 142500,
        "typeLocal": "Appartement",
        "surfaceM2": 42,
        "isVefa": true
      },
      {
        "date": "2022-10-24",
        "priceEur": 218700,
        "typeLocal": "Appartement",
        "surfaceM2": 65,
        "isVefa": true
      },
      {
        "date": "2022-10-20",
        "priceEur": 348500,
        "typeLocal": "Appartement",
        "surfaceM2": 96,
        "isVefa": true
      },
      {
        "date": "2022-09-26",
        "priceEur": 243000,
        "typeLocal": "Appartement",
        "surfaceM2": 64,
        "isVefa": true
      },
      {
        "date": "2022-09-08",
        "priceEur": 460000,
        "typeLocal": "Appartement",
        "surfaceM2": 121,
        "isVefa": true
      }
    ]
  },
  "5f9de02ae6a9": {
    "id": "5f9de02ae6a9",
    "label": "14 IMP FRANCOIS MAURIAC, Béziers",
    "lat": 43.355839,
    "lng": 3.249041,
    "transactions": [
      {
        "date": "2022-09-08",
        "priceEur": 199000,
        "typeLocal": "Maison",
        "surfaceM2": 84,
        "isVefa": false
      }
    ]
  },
  "87cf31b40155": {
    "id": "87cf31b40155",
    "label": "7 IMP PIERRE ESPRIT SEGUIER, Béziers",
    "lat": 43.351313,
    "lng": 3.243414,
    "transactions": [
      {
        "date": "2023-05-19",
        "priceEur": 168540,
        "typeLocal": "Maison",
        "surfaceM2": 93,
        "isVefa": false
      },
      {
        "date": "2022-09-26",
        "priceEur": 55000,
        "typeLocal": "Maison",
        "surfaceM2": 93,
        "isVefa": false
      }
    ]
  },
  "e7d230e7d76c": {
    "id": "e7d230e7d76c",
    "label": "10 RUE VAN PARYS, Béziers",
    "lat": 43.356248,
    "lng": 3.241654,
    "transactions": [
      {
        "date": "2022-09-30",
        "priceEur": 230000,
        "typeLocal": "Maison",
        "surfaceM2": 120,
        "isVefa": false
      }
    ]
  },
  "7c01525a14d9": {
    "id": "7c01525a14d9",
    "label": "12 IMP FRANCOIS MAURIAC, Béziers",
    "lat": 43.355843,
    "lng": 3.24915,
    "transactions": [
      {
        "date": "2022-11-03",
        "priceEur": 160000,
        "typeLocal": "Maison",
        "surfaceM2": 57,
        "isVefa": false
      }
    ]
  },
  "d1b5b67d8158": {
    "id": "d1b5b67d8158",
    "label": "45 RUE FERNAND TAILLEFER, Béziers",
    "lat": 43.352902,
    "lng": 3.246997,
    "transactions": [
      {
        "date": "2022-10-18",
        "priceEur": 329900,
        "typeLocal": "Maison",
        "surfaceM2": 88,
        "isVefa": false
      }
    ]
  },
  "b9c2626af075": {
    "id": "b9c2626af075",
    "label": "19 RUE DE TALLEYRAND DE PERIGORD, Béziers",
    "lat": 43.349344,
    "lng": 3.243075,
    "transactions": [
      {
        "date": "2022-10-27",
        "priceEur": 170800,
        "typeLocal": "Maison",
        "surfaceM2": 93,
        "isVefa": false
      }
    ]
  },
  "f9d6562d38bf": {
    "id": "f9d6562d38bf",
    "label": "25 RUE DE TALLEYRAND DE PERIGORD, Béziers",
    "lat": 43.349581,
    "lng": 3.243265,
    "transactions": [
      {
        "date": "2022-10-25",
        "priceEur": 167400,
        "typeLocal": "Maison",
        "surfaceM2": 89,
        "isVefa": false
      }
    ]
  },
  "43d1d8ab1504": {
    "id": "43d1d8ab1504",
    "label": "3 RUE ALFRED CORTOT, Béziers",
    "lat": 43.351915,
    "lng": 3.241639,
    "transactions": [
      {
        "date": "2022-11-16",
        "priceEur": 219300,
        "typeLocal": "Maison",
        "surfaceM2": 94,
        "isVefa": false
      }
    ]
  },
  "dd117b0456a0": {
    "id": "dd117b0456a0",
    "label": "8 RUE DU GENERAL MONSABERT, Béziers",
    "lat": 43.349536,
    "lng": 3.244877,
    "transactions": [
      {
        "date": "2022-11-28",
        "priceEur": 228950,
        "typeLocal": "Maison",
        "surfaceM2": 73,
        "isVefa": false
      }
    ]
  },
  "61206e52b3b2": {
    "id": "61206e52b3b2",
    "label": "482 RUE FERNAND ARVIEU, Béziers",
    "lat": 43.350306,
    "lng": 3.249341,
    "transactions": [
      {
        "date": "2022-12-08",
        "priceEur": 245000,
        "typeLocal": "Maison",
        "surfaceM2": 84,
        "isVefa": false
      }
    ]
  },
  "8d30917eb94d": {
    "id": "8d30917eb94d",
    "label": "8 PL ARTHUR HONEGGER, Béziers",
    "lat": 43.354625,
    "lng": 3.241043,
    "transactions": [
      {
        "date": "2022-12-13",
        "priceEur": 334800,
        "typeLocal": "Maison",
        "surfaceM2": 129,
        "isVefa": false
      }
    ]
  },
  "fc6312b8b061": {
    "id": "fc6312b8b061",
    "label": "33 RUE LEO DELIBES, Béziers",
    "lat": 43.35533,
    "lng": 3.244328,
    "transactions": [
      {
        "date": "2023-01-25",
        "priceEur": 243000,
        "typeLocal": "Maison",
        "surfaceM2": 149,
        "isVefa": false
      }
    ]
  },
  "1a57a883a73d": {
    "id": "1a57a883a73d",
    "label": "21 RUE RAOUL CALAS, Béziers",
    "lat": 43.35637,
    "lng": 3.246541,
    "transactions": [
      {
        "date": "2023-10-05",
        "priceEur": 265000,
        "typeLocal": "Maison",
        "surfaceM2": 122,
        "isVefa": false
      },
      {
        "date": "2023-01-09",
        "priceEur": 267400,
        "typeLocal": "Maison",
        "surfaceM2": 122,
        "isVefa": false
      }
    ]
  },
  "babffd26db39": {
    "id": "babffd26db39",
    "label": "9003 IMP LO PERDIGAL, Béziers",
    "lat": 43.350173,
    "lng": 3.245212,
    "transactions": [
      {
        "date": "2023-01-16",
        "priceEur": 180000,
        "typeLocal": "Maison",
        "surfaceM2": 93,
        "isVefa": false
      }
    ]
  },
  "32b2492e4fd2": {
    "id": "32b2492e4fd2",
    "label": "6 RUE ALFRED CORTOT, Béziers",
    "lat": 43.352091,
    "lng": 3.241904,
    "transactions": [
      {
        "date": "2023-02-06",
        "priceEur": 243000,
        "typeLocal": "Maison",
        "surfaceM2": 94,
        "isVefa": false
      }
    ]
  },
  "0b1e5117f868": {
    "id": "0b1e5117f868",
    "label": "22 RUE SALOMON COUDERC, Béziers",
    "lat": 43.349501,
    "lng": 3.241833,
    "transactions": [
      {
        "date": "2025-02-25",
        "priceEur": 175000,
        "typeLocal": "Appartement",
        "surfaceM2": 64,
        "isVefa": false
      },
      {
        "date": "2023-09-27",
        "priceEur": 129000,
        "typeLocal": "Appartement",
        "surfaceM2": 63,
        "isVefa": false
      },
      {
        "date": "2023-04-03",
        "priceEur": 139950,
        "typeLocal": "Appartement",
        "surfaceM2": 64,
        "isVefa": false
      }
    ]
  },
  "7bef74fee03b": {
    "id": "7bef74fee03b",
    "label": "14 RUE DARIUS MILHAUD, Béziers",
    "lat": 43.353771,
    "lng": 3.243023,
    "transactions": [
      {
        "date": "2023-04-18",
        "priceEur": 301541,
        "typeLocal": "Maison",
        "surfaceM2": 130,
        "isVefa": false
      }
    ]
  },
  "8ec1586b7048": {
    "id": "8ec1586b7048",
    "label": "9 RUE CESAR FRANCK, Béziers",
    "lat": 43.352393,
    "lng": 3.241875,
    "transactions": [
      {
        "date": "2023-06-05",
        "priceEur": 204600,
        "typeLocal": "Maison",
        "surfaceM2": 79,
        "isVefa": false
      }
    ]
  },
  "0d42301abdc7": {
    "id": "0d42301abdc7",
    "label": "2 RUE LO PERDIGAL, Béziers",
    "lat": 43.350142,
    "lng": 3.245934,
    "transactions": [
      {
        "date": "2023-06-01",
        "priceEur": 195500,
        "typeLocal": "Maison",
        "surfaceM2": 89,
        "isVefa": false
      }
    ]
  },
  "535545d001a8": {
    "id": "535545d001a8",
    "label": "4 RUE MARIE DURAND, Béziers",
    "lat": 43.350709,
    "lng": 3.242171,
    "transactions": [
      {
        "date": "2023-05-31",
        "priceEur": 190500,
        "typeLocal": "Maison",
        "surfaceM2": 90,
        "isVefa": false
      }
    ]
  },
  "ec1297f1587b": {
    "id": "ec1297f1587b",
    "label": "9 RUE MARIE DURAND, Béziers",
    "lat": 43.351313,
    "lng": 3.243414,
    "transactions": [
      {
        "date": "2023-07-25",
        "priceEur": 152000,
        "typeLocal": "Maison",
        "surfaceM2": 90,
        "isVefa": false
      }
    ]
  },
  "d261d21ead7f": {
    "id": "d261d21ead7f",
    "label": "11 IMP CATINAT, Béziers",
    "lat": 43.350709,
    "lng": 3.242171,
    "transactions": [
      {
        "date": "2023-07-13",
        "priceEur": 140000,
        "typeLocal": "Maison",
        "surfaceM2": 85,
        "isVefa": false
      }
    ]
  },
  "e2e79257a286": {
    "id": "e2e79257a286",
    "label": "2 RUE BEETHOVEN, Béziers",
    "lat": 43.354162,
    "lng": 3.245869,
    "transactions": [
      {
        "date": "2023-08-04",
        "priceEur": 211800,
        "typeLocal": "Maison",
        "surfaceM2": 86,
        "isVefa": false
      }
    ]
  },
  "b12fa8bdd925": {
    "id": "b12fa8bdd925",
    "label": "10 IMP DU MOULIN A VENT, Béziers",
    "lat": 43.352736,
    "lng": 3.242686,
    "transactions": [
      {
        "date": "2024-09-25",
        "priceEur": 210000,
        "typeLocal": "Maison",
        "surfaceM2": 117,
        "isVefa": false
      },
      {
        "date": "2023-08-23",
        "priceEur": 252000,
        "typeLocal": "Maison",
        "surfaceM2": 117,
        "isVefa": false
      }
    ]
  },
  "a04183adc66d": {
    "id": "a04183adc66d",
    "label": "12 RUE CESAR FRANCK, Béziers",
    "lat": 43.352393,
    "lng": 3.242257,
    "transactions": [
      {
        "date": "2023-09-11",
        "priceEur": 193000,
        "typeLocal": "Maison",
        "surfaceM2": 96,
        "isVefa": false
      }
    ]
  },
  "385474c107f5": {
    "id": "385474c107f5",
    "label": "6 IMP PIERRE ROLAND LAPORTE, Béziers",
    "lat": 43.351313,
    "lng": 3.243414,
    "transactions": [
      {
        "date": "2023-09-14",
        "priceEur": 218940,
        "typeLocal": "Maison",
        "surfaceM2": 85,
        "isVefa": false
      }
    ]
  },
  "90bf73b7c67f": {
    "id": "90bf73b7c67f",
    "label": "15 RUE PABLO CASALS, Béziers",
    "lat": 43.354407,
    "lng": 3.244238,
    "transactions": [
      {
        "date": "2023-09-18",
        "priceEur": 256500,
        "typeLocal": "Maison",
        "surfaceM2": 98,
        "isVefa": false
      }
    ]
  },
  "4647f36f9286": {
    "id": "4647f36f9286",
    "label": "4 IMP CATINAT, Béziers",
    "lat": 43.350709,
    "lng": 3.242171,
    "transactions": [
      {
        "date": "2023-06-22",
        "priceEur": 184000,
        "typeLocal": "Maison",
        "surfaceM2": 85,
        "isVefa": false
      }
    ]
  },
  "26651fa99047": {
    "id": "26651fa99047",
    "label": "311 RUE FERNAND TAILLEFER, Béziers",
    "lat": 43.350528,
    "lng": 3.247606,
    "transactions": [
      {
        "date": "2023-10-06",
        "priceEur": 348100,
        "typeLocal": "Maison",
        "surfaceM2": 91,
        "isVefa": false
      }
    ]
  },
  "b4df8e373b99": {
    "id": "b4df8e373b99",
    "label": "16 RUE VINCENT D INDY, Béziers",
    "lat": 43.354973,
    "lng": 3.243138,
    "transactions": [
      {
        "date": "2024-12-06",
        "priceEur": 258200,
        "typeLocal": "Maison",
        "surfaceM2": 78,
        "isVefa": false
      },
      {
        "date": "2023-10-26",
        "priceEur": 220000,
        "typeLocal": "Maison",
        "surfaceM2": 78,
        "isVefa": false
      }
    ]
  },
  "e7b592a4097f": {
    "id": "e7b592a4097f",
    "label": "399 RUE FERNAND ARVIEU, Béziers",
    "lat": 43.350511,
    "lng": 3.248596,
    "transactions": [
      {
        "date": "2023-10-26",
        "priceEur": 337270,
        "typeLocal": "Maison",
        "surfaceM2": 115,
        "isVefa": false
      }
    ]
  },
  "38d572a2eb6a": {
    "id": "38d572a2eb6a",
    "label": "25 BD DU GEN KOENIG, Béziers",
    "lat": 43.355915,
    "lng": 3.245489,
    "transactions": [
      {
        "date": "2023-11-27",
        "priceEur": 219100,
        "typeLocal": "Maison",
        "surfaceM2": 104,
        "isVefa": false
      }
    ]
  },
  "8c9fac6b84c8": {
    "id": "8c9fac6b84c8",
    "label": "23 RUE LO PERDIGAL, Béziers",
    "lat": 43.350185,
    "lng": 3.244483,
    "transactions": [
      {
        "date": "2023-12-08",
        "priceEur": 155000,
        "typeLocal": "Maison",
        "surfaceM2": 64,
        "isVefa": false
      }
    ]
  },
  "2d9aed98f897": {
    "id": "2d9aed98f897",
    "label": "4 PL CLAUDE DEBUSSY, Béziers",
    "lat": 43.350585,
    "lng": 3.241249,
    "transactions": [
      {
        "date": "2023-12-14",
        "priceEur": 156000,
        "typeLocal": "Maison",
        "surfaceM2": 70,
        "isVefa": false
      }
    ]
  },
  "c48ec3ae4d88": {
    "id": "c48ec3ae4d88",
    "label": "9 IMP JEAN MALLIER, Béziers",
    "lat": 43.350709,
    "lng": 3.242171,
    "transactions": [
      {
        "date": "2023-12-30",
        "priceEur": 148000,
        "typeLocal": "Maison",
        "surfaceM2": 85,
        "isVefa": false
      }
    ]
  },
  "b236d79d5a2a": {
    "id": "b236d79d5a2a",
    "label": "21 AV DE BADONES, Béziers",
    "lat": 43.351748,
    "lng": 3.241479,
    "transactions": [
      {
        "date": "2023-12-18",
        "priceEur": 538000,
        "typeLocal": "Maison",
        "surfaceM2": 216,
        "isVefa": false
      }
    ]
  },
  "449ca55fc872": {
    "id": "449ca55fc872",
    "label": "3 IMP PIERRE ESPRIT SEGUIER, Béziers",
    "lat": 43.351313,
    "lng": 3.243414,
    "transactions": [
      {
        "date": "2023-12-28",
        "priceEur": 218500,
        "typeLocal": "Maison",
        "surfaceM2": 90,
        "isVefa": false
      }
    ]
  },
  "f13044308e23": {
    "id": "f13044308e23",
    "label": "12 RUE JACQUES PREVERT, Béziers",
    "lat": 43.356569,
    "lng": 3.248261,
    "transactions": [
      {
        "date": "2024-01-22",
        "priceEur": 245000,
        "typeLocal": "Maison",
        "surfaceM2": 118,
        "isVefa": false
      }
    ]
  },
  "e4ad9b7c2ad7": {
    "id": "e4ad9b7c2ad7",
    "label": "26 RUE JACQUES OFFENBACH, Béziers",
    "lat": 43.352067,
    "lng": 3.241198,
    "transactions": [
      {
        "date": "2024-01-29",
        "priceEur": 235000,
        "typeLocal": "Maison",
        "surfaceM2": 73,
        "isVefa": false
      }
    ]
  },
  "7697058e194a": {
    "id": "7697058e194a",
    "label": "24 RUE DARIUS MILHAUD, Béziers",
    "lat": 43.35461,
    "lng": 3.242089,
    "transactions": [
      {
        "date": "2024-02-28",
        "priceEur": 262850,
        "typeLocal": "Maison",
        "surfaceM2": 87,
        "isVefa": false
      }
    ]
  },
  "2927d4b76ee7": {
    "id": "2927d4b76ee7",
    "label": "9 RUE LO PERDIGAL, Béziers",
    "lat": 43.350393,
    "lng": 3.245277,
    "transactions": [
      {
        "date": "2024-02-29",
        "priceEur": 210000,
        "typeLocal": "Maison",
        "surfaceM2": 93,
        "isVefa": false
      }
    ]
  },
  "c85901460b71": {
    "id": "c85901460b71",
    "label": "1 RUE LO PERDIGAL, Béziers",
    "lat": 43.34992,
    "lng": 3.245831,
    "transactions": [
      {
        "date": "2024-03-22",
        "priceEur": 140000,
        "typeLocal": "Maison",
        "surfaceM2": 67,
        "isVefa": false
      }
    ]
  },
  "5d4a4522524c": {
    "id": "5d4a4522524c",
    "label": "5 IMP DU GEN ROLLET, Béziers",
    "lat": 43.350781,
    "lng": 3.245745,
    "transactions": [
      {
        "date": "2024-04-24",
        "priceEur": 200000,
        "typeLocal": "Maison",
        "surfaceM2": 107,
        "isVefa": false
      }
    ]
  },
  "e0631c5a955d": {
    "id": "e0631c5a955d",
    "label": "2 IMP LEO DELIBES, Béziers",
    "lat": 43.353567,
    "lng": 3.241505,
    "transactions": [
      {
        "date": "2024-06-03",
        "priceEur": 345900,
        "typeLocal": "Maison",
        "surfaceM2": 133,
        "isVefa": false
      }
    ]
  },
  "367186c6bb2b": {
    "id": "367186c6bb2b",
    "label": "15 IMP FRANCOIS MAURIAC, Béziers",
    "lat": 43.355622,
    "lng": 3.248787,
    "transactions": [
      {
        "date": "2024-06-10",
        "priceEur": 233200,
        "typeLocal": "Maison",
        "surfaceM2": 117,
        "isVefa": false
      }
    ]
  },
  "769f960d13ea": {
    "id": "769f960d13ea",
    "label": "12 AV DE BADONES, Béziers",
    "lat": 43.351066,
    "lng": 3.241001,
    "transactions": [
      {
        "date": "2024-05-27",
        "priceEur": 158000,
        "typeLocal": "Maison",
        "surfaceM2": 71,
        "isVefa": false
      }
    ]
  },
  "24e77e43db20": {
    "id": "24e77e43db20",
    "label": "21 RUE MARIE DURAND, Béziers",
    "lat": 43.351313,
    "lng": 3.243414,
    "transactions": [
      {
        "date": "2024-07-04",
        "priceEur": 173000,
        "typeLocal": "Maison",
        "surfaceM2": 90,
        "isVefa": false
      }
    ]
  },
  "ac45dd74d5ed": {
    "id": "ac45dd74d5ed",
    "label": "40 RUE LEO DELIBES, Béziers",
    "lat": 43.355179,
    "lng": 3.244809,
    "transactions": [
      {
        "date": "2024-07-25",
        "priceEur": 205000,
        "typeLocal": "Maison",
        "surfaceM2": 78,
        "isVefa": false
      }
    ]
  },
  "8056c725552c": {
    "id": "8056c725552c",
    "label": "32 BD DU GEN DE LARMINAT, Béziers",
    "lat": 43.349162,
    "lng": 3.24537,
    "transactions": [
      {
        "date": "2024-08-22",
        "priceEur": 274000,
        "typeLocal": "Maison",
        "surfaceM2": 138,
        "isVefa": false
      }
    ]
  },
  "50e0df763316": {
    "id": "50e0df763316",
    "label": "6 RUE CLAUDE BROUSSON, Béziers",
    "lat": 43.350823,
    "lng": 3.245242,
    "transactions": [
      {
        "date": "2024-08-29",
        "priceEur": 205000,
        "typeLocal": "Maison",
        "surfaceM2": 90,
        "isVefa": false
      }
    ]
  },
  "94b831405b79": {
    "id": "94b831405b79",
    "label": "400 RUE FERNAND ARVIEU, Béziers",
    "lat": 43.350625,
    "lng": 3.248931,
    "transactions": [
      {
        "date": "2024-09-02",
        "priceEur": 509000,
        "typeLocal": "Maison",
        "surfaceM2": 149,
        "isVefa": false
      }
    ]
  },
  "9572ec80e318": {
    "id": "9572ec80e318",
    "label": "35 RUE FERNAND TAILLEFER, Béziers",
    "lat": 43.353219,
    "lng": 3.247082,
    "transactions": [
      {
        "date": "2024-10-16",
        "priceEur": 350600,
        "typeLocal": "Maison",
        "surfaceM2": 122,
        "isVefa": false
      }
    ]
  },
  "dd438c0fe985": {
    "id": "dd438c0fe985",
    "label": "7 IMP ARTHUR RIMBAUD, Béziers",
    "lat": 43.355773,
    "lng": 3.248237,
    "transactions": [
      {
        "date": "2024-10-23",
        "priceEur": 214500,
        "typeLocal": "Maison",
        "surfaceM2": 80,
        "isVefa": false
      }
    ]
  },
  "070ff152d8f2": {
    "id": "070ff152d8f2",
    "label": "36 IMP HENRI DE BARRES, Béziers",
    "lat": 43.353376,
    "lng": 3.248148,
    "transactions": [
      {
        "date": "2025-02-17",
        "priceEur": 414029,
        "typeLocal": "Maison",
        "surfaceM2": 121,
        "isVefa": false
      }
    ]
  },
  "d46594a42bd2": {
    "id": "d46594a42bd2",
    "label": "23 AV DE BADONES, Béziers",
    "lat": 43.352055,
    "lng": 3.242251,
    "transactions": [
      {
        "date": "2025-03-03",
        "priceEur": 187500,
        "typeLocal": "Maison",
        "surfaceM2": 86,
        "isVefa": false
      }
    ]
  },
  "928ee8071b1f": {
    "id": "928ee8071b1f",
    "label": "20 RUE CESAR FRANCK, Béziers",
    "lat": 43.35274,
    "lng": 3.242219,
    "transactions": [
      {
        "date": "2025-03-18",
        "priceEur": 215700,
        "typeLocal": "Maison",
        "surfaceM2": 94,
        "isVefa": false
      }
    ]
  },
  "58abf4e88539": {
    "id": "58abf4e88539",
    "label": "219 RUE FERNAND ARVIEU, Béziers",
    "lat": 43.351921,
    "lng": 3.247815,
    "transactions": [
      {
        "date": "2025-04-28",
        "priceEur": 308500,
        "typeLocal": "Maison",
        "surfaceM2": 109,
        "isVefa": false
      }
    ]
  }
}