{
  "9421f56cafa0": {
    "id": "9421f56cafa0",
    "label": "10 IMP DE ST JULIEN, Puisserguier",
    "lat": 43.365282,
    "lng": 3.033781,
    "transactions": [
      {
        "date": "2020-07-09",
        "priceEur": 98800,
        "typeLocal": "Maison",
        "surfaceM2": 145,
        "isVefa": false
      },
      {
        "date": "2020-07-09",
        "priceEur": 98800,
        "typeLocal": "Maison",
        "surfaceM2": 145,
        "isVefa": false
      }
    ]
  },
  "aefe14c09597": {
    "id": "aefe14c09597",
    "label": "5 IMP MIRABEAU, Puisserguier",
    "lat": 43.368993,
    "lng": 3.038407,
    "transactions": [
      {
        "date": "2020-07-23",
        "priceEur": 37000,
        "typeLocal": "Appartement",
        "surfaceM2": 32,
        "isVefa": false
      }
    ]
  },
  "b28bf06f587e": {
    "id": "b28bf06f587e",
    "label": "23 AV DE TOULOUSE, Puisserguier",
    "lat": 43.369226,
    "lng": 3.03673,
    "transactions": [
      {
        "date": "2020-07-17",
        "priceEur": 15000,
        "typeLocal": "Appartement",
        "surfaceM2": 80,
        "isVefa": false
      },
      {
        "date": "2020-07-17",
        "priceEur": 15000,
        "typeLocal": "Appartement",
        "surfaceM2": 80,
        "isVefa": false
      }
    ]
  },
  "23caef0c2595": {
    "id": "23caef0c2595",
    "label": "2 AV DE NARBONNE, Puisserguier",
    "lat": 43.366405,
    "lng": 3.040072,
    "transactions": [
      {
        "date": "2020-07-24",
        "priceEur": 125700,
        "typeLocal": "Maison",
        "surfaceM2": 121,
        "isVefa": false
      }
    ]
  },
  "07e694a7687e": {
    "id": "07e694a7687e",
    "label": "23 RUE DE LA REMISE, Puisserguier",
    "lat": 43.366009,
    "lng": 3.038841,
    "transactions": [
      {
        "date": "2020-07-30",
        "priceEur": 96000,
        "typeLocal": "Maison",
        "surfaceM2": 70,
        "isVefa": false
      }
    ]
  },
  "b9e3a8d91166": {
    "id": "b9e3a8d91166",
    "label": "11 RUE THIERS, Puisserguier",
    "lat": 43.367454,
    "lng": 3.038315,
    "transactions": [
      {
        "date": "2020-08-03",
        "priceEur": 56000,
        "typeLocal": "Appartement",
        "surfaceM2": 96,
        "isVefa": false
      }
    ]
  },
  "0fb2069e45aa": {
    "id": "0fb2069e45aa",
    "label": "4 RUE PAUL RIQUET, Puisserguier",
    "lat": 43.368175,
    "lng": 3.041969,
    "transactions": [
      {
        "date": "2020-08-31",
        "priceEur": 175000,
        "typeLocal": "Appartement",
        "surfaceM2": 107,
        "isVefa": false
      },
      {
        "date": "2020-08-31",
        "priceEur": 175000,
        "typeLocal": "Appartement",
        "surfaceM2": 100,
        "isVefa": false
      },
      {
        "date": "2020-08-31",
        "priceEur": 175000,
        "typeLocal": "Appartement",
        "surfaceM2": 160,
        "isVefa": false
      }
    ]
  },
  "d3379e8b5057": {
    "id": "d3379e8b5057",
    "label": "9 RUE DE LA BASTILLE, Puisserguier",
    "lat": 43.368545,
    "lng": 3.039925,
    "transactions": [
      {
        "date": "2020-09-08",
        "priceEur": 57500,
        "typeLocal": "Maison",
        "surfaceM2": 132,
        "isVefa": false
      }
    ]
  },
  "3dba892acf39": {
    "id": "3dba892acf39",
    "label": "37 AV DE TOULOUSE, Puisserguier",
    "lat": 43.37006,
    "lng": 3.035596,
    "transactions": [
      {
        "date": "2024-12-17",
        "priceEur": 83000,
        "typeLocal": "Appartement",
        "surfaceM2": 52,
        "isVefa": false
      },
      {
        "date": "2024-11-29",
        "priceEur": 68000,
        "typeLocal": "Appartement",
        "surfaceM2": 52,
        "isVefa": false
      },
      {
        "date": "2024-09-25",
        "priceEur": 78000,
        "typeLocal": "Appartement",
        "surfaceM2": 56,
        "isVefa": false
      },
      {
        "date": "2024-03-18",
        "priceEur": 79030,
        "typeLocal": "Appartement",
        "surfaceM2": 56,
        "isVefa": false
      },
      {
        "date": "2023-12-14",
        "priceEur": 72500,
        "typeLocal": "Appartement",
        "surfaceM2": 56,
        "isVefa": false
      },
      {
        "date": "2023-07-04",
        "priceEur": 89450,
        "typeLocal": "Appartement",
        "surfaceM2": 52,
        "isVefa": false
      },
      {
        "date": "2022-10-20",
        "priceEur": 70000,
        "typeLocal": "Appartement",
        "surfaceM2": 56,
        "isVefa": false
      },
      {
        "date": "2020-09-14",
        "priceEur": 75000,
        "typeLocal": "Appartement",
        "surfaceM2": 56,
        "isVefa": false
      }
    ]
  },
  "7f3881e46947": {
    "id": "7f3881e46947",
    "label": "6 RUE D ESPAGNE, Puisserguier",
    "lat": 43.366225,
    "lng": 3.038444,
    "transactions": [
      {
        "date": "2020-09-17",
        "priceEur": 75000,
        "typeLocal": "Maison",
        "surfaceM2": 52,
        "isVefa": false
      }
    ]
  },
  "3dd4d519f957": {
    "id": "3dd4d519f957",
    "label": "4 RUE CONDORCET, Puisserguier",
    "lat": 43.36901,
    "lng": 3.037886,
    "transactions": [
      {
        "date": "2020-09-29",
        "priceEur": 50000,
        "typeLocal": "Maison",
        "surfaceM2": 80,
        "isVefa": false
      }
    ]
  },
  "5da531670e9e": {
    "id": "5da531670e9e",
    "label": "7 PLAN DELS CATHARS, Puisserguier",
    "lat": 43.368246,
    "lng": 3.038893,
    "transactions": [
      {
        "date": "2023-05-25",
        "priceEur": 33000,
        "typeLocal": "Maison",
        "surfaceM2": 56,
        "isVefa": false
      },
      {
        "date": "2020-09-29",
        "priceEur": 25000,
        "typeLocal": "Maison",
        "surfaceM2": 56,
        "isVefa": false
      }
    ]
  },
  "595518e1228c": {
    "id": "595518e1228c",
    "label": "5 RUE DE METZ, Puisserguier",
    "lat": 43.366425,
    "lng": 3.03988,
    "transactions": [
      {
        "date": "2025-02-04",
        "priceEur": 167600,
        "typeLocal": "Maison",
        "surfaceM2": 70,
        "isVefa": false
      },
      {
        "date": "2020-10-01",
        "priceEur": 140000,
        "typeLocal": "Maison",
        "surfaceM2": 70,
        "isVefa": false
      }
    ]
  },
  "782407ede63f": {
    "id": "782407ede63f",
    "label": "6 PL DE L'EGLISE, Puisserguier",
    "lat": 43.368302,
    "lng": 3.039092,
    "transactions": [
      {
        "date": "2020-10-27",
        "priceEur": 50000,
        "typeLocal": "Maison",
        "surfaceM2": 116,
        "isVefa": false
      }
    ]
  },
  "36e0c1088edb": {
    "id": "36e0c1088edb",
    "label": "36 AV DE TOULOUSE, Puisserguier",
    "lat": 43.370032,
    "lng": 3.036352,
    "transactions": [
      {
        "date": "2020-12-01",
        "priceEur": 212320,
        "typeLocal": "Maison",
        "surfaceM2": 203,
        "isVefa": false
      }
    ]
  },
  "02514e93527b": {
    "id": "02514e93527b",
    "label": "4 RUE ROUGET DE L ISLE, Puisserguier",
    "lat": 43.367004,
    "lng": 3.039431,
    "transactions": [
      {
        "date": "2020-12-04",
        "priceEur": 68000,
        "typeLocal": "Maison",
        "surfaceM2": 62,
        "isVefa": false
      }
    ]
  },
  "9cc261d376c0": {
    "id": "9cc261d376c0",
    "label": "2 RUE DE LA BASTILLE, Puisserguier",
    "lat": 43.368319,
    "lng": 3.039666,
    "transactions": [
      {
        "date": "2020-12-11",
        "priceEur": 50000,
        "typeLocal": "Maison",
        "surfaceM2": 80,
        "isVefa": false
      }
    ]
  },
  "938e5c30bdef": {
    "id": "938e5c30bdef",
    "label": "5 PLAN DELS CATHARS, Puisserguier",
    "lat": 43.368287,
    "lng": 3.038854,
    "transactions": [
      {
        "date": "2020-12-23",
        "priceEur": 45000,
        "typeLocal": "Maison",
        "surfaceM2": 60,
        "isVefa": false
      }
    ]
  },
  "51688a868ac2": {
    "id": "51688a868ac2",
    "label": "13 RUE GEORGES PUJOL, Puisserguier",
    "lat": 43.367515,
    "lng": 3.042332,
    "transactions": [
      {
        "date": "2020-12-17",
        "priceEur": 338520,
        "typeLocal": "Maison",
        "surfaceM2": 199,
        "isVefa": false
      }
    ]
  },
  "6ec9e597ae0b": {
    "id": "6ec9e597ae0b",
    "label": "9 IMP PELISSON, Puisserguier",
    "lat": 43.367892,
    "lng": 3.037943,
    "transactions": [
      {
        "date": "2020-12-21",
        "priceEur": 35000,
        "typeLocal": "Maison",
        "surfaceM2": 37,
        "isVefa": false
      }
    ]
  },
  "bdd098bad232": {
    "id": "bdd098bad232",
    "label": "6 RUE LAPEYRONNIE, Puisserguier",
    "lat": 43.368082,
    "lng": 3.038343,
    "transactions": [
      {
        "date": "2020-12-23",
        "priceEur": 13000,
        "typeLocal": "Maison",
        "surfaceM2": 52,
        "isVefa": false
      }
    ]
  },
  "da6ce5e6e84b": {
    "id": "da6ce5e6e84b",
    "label": "13 RUE D ESPAGNE, Puisserguier",
    "lat": 43.365787,
    "lng": 3.03717,
    "transactions": [
      {
        "date": "2021-01-04",
        "priceEur": 201000,
        "typeLocal": "Maison",
        "surfaceM2": 120,
        "isVefa": false
      }
    ]
  },
  "4261757c002b": {
    "id": "4261757c002b",
    "label": "14 BD VICTOR HUGO, Puisserguier",
    "lat": 43.368965,
    "lng": 3.04072,
    "transactions": [
      {
        "date": "2021-01-22",
        "priceEur": 250000,
        "typeLocal": "Maison",
        "surfaceM2": 167,
        "isVefa": false
      }
    ]
  },
  "4c4d8eb01e6b": {
    "id": "4c4d8eb01e6b",
    "label": "31 RUE VOLTAIRE, Puisserguier",
    "lat": 43.368525,
    "lng": 3.037533,
    "transactions": [
      {
        "date": "2021-02-02",
        "priceEur": 80000,
        "typeLocal": "Maison",
        "surfaceM2": 140,
        "isVefa": false
      }
    ]
  },
  "0b24232c4ce0": {
    "id": "0b24232c4ce0",
    "label": "4 AV DE BEZIERS, Puisserguier",
    "lat": 43.368596,
    "lng": 3.042944,
    "transactions": [
      {
        "date": "2021-02-03",
        "priceEur": 231530,
        "typeLocal": "Appartement",
        "surfaceM2": 240,
        "isVefa": false
      }
    ]
  },
  "33ebae071c26": {
    "id": "33ebae071c26",
    "label": "2T RUE MARCEAU, Puisserguier",
    "lat": 43.369625,
    "lng": 3.03731,
    "transactions": [
      {
        "date": "2021-02-09",
        "priceEur": 135430,
        "typeLocal": "Maison",
        "surfaceM2": 80,
        "isVefa": false
      }
    ]
  },
  "1e448f498d56": {
    "id": "1e448f498d56",
    "label": "20 RUE DU LIROU, Puisserguier",
    "lat": 43.366361,
    "lng": 3.037297,
    "transactions": [
      {
        "date": "2021-02-27",
        "priceEur": 310000,
        "typeLocal": "Maison",
        "surfaceM2": 220,
        "isVefa": false
      }
    ]
  },
  "1f0f48645043": {
    "id": "1f0f48645043",
    "label": "11 RUE DE STRASBOURG, Puisserguier",
    "lat": 43.367663,
    "lng": 3.039786,
    "transactions": [
      {
        "date": "2021-03-12",
        "priceEur": 33980,
        "typeLocal": "Appartement",
        "surfaceM2": 40,
        "isVefa": false
      }
    ]
  },
  "a5649c9d7b87": {
    "id": "a5649c9d7b87",
    "label": "4 RUE CAMBON, Puisserguier",
    "lat": 43.368233,
    "lng": 3.040481,
    "transactions": [
      {
        "date": "2021-02-25",
        "priceEur": 29000,
        "typeLocal": "Maison",
        "surfaceM2": 48,
        "isVefa": false
      }
    ]
  },
  "773e63e1a2a8": {
    "id": "773e63e1a2a8",
    "label": "34 AV DE TOULOUSE, Puisserguier",
    "lat": 43.369838,
    "lng": 3.036602,
    "transactions": [
      {
        "date": "2021-04-07",
        "priceEur": 48148,
        "typeLocal": "Maison",
        "surfaceM2": 80,
        "isVefa": false
      }
    ]
  },
  "283d80e08bca": {
    "id": "283d80e08bca",
    "label": "1B RUE ARAGO, Puisserguier",
    "lat": 43.366755,
    "lng": 3.040586,
    "transactions": [
      {
        "date": "2021-04-09",
        "priceEur": 140400,
        "typeLocal": "Appartement",
        "surfaceM2": 114,
        "isVefa": false
      }
    ]
  },
  "cccf73958e04": {
    "id": "cccf73958e04",
    "label": "12 CHE DE ST JULIEN, Puisserguier",
    "lat": 43.366755,
    "lng": 3.035862,
    "transactions": [
      {
        "date": "2021-05-10",
        "priceEur": 332420,
        "typeLocal": "Maison",
        "surfaceM2": 139,
        "isVefa": false
      }
    ]
  },
  "e9966d7356d4": {
    "id": "e9966d7356d4",
    "label": "14 RUE MIRABEAU, Puisserguier",
    "lat": 43.368535,
    "lng": 3.039355,
    "transactions": [
      {
        "date": "2021-05-03",
        "priceEur": 89000,
        "typeLocal": "Maison",
        "surfaceM2": 66,
        "isVefa": false
      }
    ]
  },
  "abf1558df616": {
    "id": "abf1558df616",
    "label": "18 RUE DE LA REMISE, Puisserguier",
    "lat": 43.366247,
    "lng": 3.038887,
    "transactions": [
      {
        "date": "2021-05-10",
        "priceEur": 77000,
        "typeLocal": "Maison",
        "surfaceM2": 80,
        "isVefa": false
      }
    ]
  },
  "7f9d5f4ce1b9": {
    "id": "7f9d5f4ce1b9",
    "label": "1 BD JEAN JAURES, Puisserguier",
    "lat": 43.367922,
    "lng": 3.041534,
    "transactions": [
      {
        "date": "2021-05-10",
        "priceEur": 382860,
        "typeLocal": "Maison",
        "surfaceM2": 288,
        "isVefa": false
      }
    ]
  },
  "49623e644da1": {
    "id": "49623e644da1",
    "label": "7 IMP DE LA REPUBLIQUE, Puisserguier",
    "lat": 43.367933,
    "lng": 3.039614,
    "transactions": [
      {
        "date": "2021-05-17",
        "priceEur": 107400,
        "typeLocal": "Maison",
        "surfaceM2": 42,
        "isVefa": false
      }
    ]
  },
  "8649d1b22837": {
    "id": "8649d1b22837",
    "label": "3 RUE CONDORCET, Puisserguier",
    "lat": 43.368991,
    "lng": 3.038096,
    "transactions": [
      {
        "date": "2021-05-21",
        "priceEur": 186000,
        "typeLocal": "Maison",
        "surfaceM2": 76,
        "isVefa": false
      }
    ]
  },
  "bedeeb83789a": {
    "id": "bedeeb83789a",
    "label": "1 RUE LAPEYRONNIE, Puisserguier",
    "lat": 43.36788,
    "lng": 3.038684,
    "transactions": [
      {
        "date": "2024-10-11",
        "priceEur": 99400,
        "typeLocal": "Maison",
        "surfaceM2": 46,
        "isVefa": false
      },
      {
        "date": "2021-06-01",
        "priceEur": 82200,
        "typeLocal": "Maison",
        "surfaceM2": 46,
        "isVefa": false
      }
    ]
  },
  "4de2129f6d58": {
    "id": "4de2129f6d58",
    "label": "16 AV DE BEZIERS, Puisserguier",
    "lat": 43.368228,
    "lng": 3.043128,
    "transactions": [
      {
        "date": "2021-06-10",
        "priceEur": 52000,
        "typeLocal": "Maison",
        "surfaceM2": 36,
        "isVefa": false
      },
      {
        "date": "2021-06-10",
        "priceEur": 52000,
        "typeLocal": "Maison",
        "surfaceM2": 108,
        "isVefa": false
      }
    ]
  },
  "fe71316317c5": {
    "id": "fe71316317c5",
    "label": "5 RUE CONDORCET, Puisserguier",
    "lat": 43.368923,
    "lng": 3.038133,
    "transactions": [
      {
        "date": "2021-06-28",
        "priceEur": 108000,
        "typeLocal": "Maison",
        "surfaceM2": 100,
        "isVefa": false
      }
    ]
  },
  "92a7f5ebd684": {
    "id": "92a7f5ebd684",
    "label": "5 IMP DE LA SARRAZINE, Puisserguier",
    "lat": 43.368376,
    "lng": 3.03802,
    "transactions": [
      {
        "date": "2021-06-22",
        "priceEur": 45000,
        "typeLocal": "Maison",
        "surfaceM2": 43,
        "isVefa": false
      }
    ]
  },
  "d4141cf332b1": {
    "id": "d4141cf332b1",
    "label": "5 RUE DES HORTES, Puisserguier",
    "lat": 43.370694,
    "lng": 3.039705,
    "transactions": [
      {
        "date": "2021-06-25",
        "priceEur": 215118,
        "typeLocal": "Maison",
        "surfaceM2": 72,
        "isVefa": false
      }
    ]
  },
  "6ee41efe2276": {
    "id": "6ee41efe2276",
    "label": "2 RUE DES HORTES, Puisserguier",
    "lat": 43.370043,
    "lng": 3.03976,
    "transactions": [
      {
        "date": "2021-07-01",
        "priceEur": 134000,
        "typeLocal": "Maison",
        "surfaceM2": 80,
        "isVefa": false
      }
    ]
  },
  "58bdf0629a2e": {
    "id": "58bdf0629a2e",
    "label": "5 RUE DE STRASBOURG, Puisserguier",
    "lat": 43.367945,
    "lng": 3.040041,
    "transactions": [
      {
        "date": "2024-02-07",
        "priceEur": 62120,
        "typeLocal": "Maison",
        "surfaceM2": 40,
        "isVefa": false
      },
      {
        "date": "2022-09-30",
        "priceEur": 69405.75,
        "typeLocal": "Maison",
        "surfaceM2": 40,
        "isVefa": false
      },
      {
        "date": "2021-07-09",
        "priceEur": 45000,
        "typeLocal": "Maison",
        "surfaceM2": 40,
        "isVefa": false
      }
    ]
  },
  "aafacbaf0127": {
    "id": "aafacbaf0127",
    "label": "33 RUE VOLTAIRE, Puisserguier",
    "lat": 43.368706,
    "lng": 3.037374,
    "transactions": [
      {
        "date": "2023-08-04",
        "priceEur": 433370,
        "typeLocal": "Maison",
        "surfaceM2": 205,
        "isVefa": false
      },
      {
        "date": "2021-07-19",
        "priceEur": 290000,
        "typeLocal": "Maison",
        "surfaceM2": 205,
        "isVefa": false
      }
    ]
  },
  "e957342da82b": {
    "id": "e957342da82b",
    "label": "1 RUE DE METZ, Puisserguier",
    "lat": 43.366499,
    "lng": 3.040077,
    "transactions": [
      {
        "date": "2021-07-12",
        "priceEur": 137000,
        "typeLocal": "Maison",
        "surfaceM2": 120,
        "isVefa": false
      }
    ]
  },
  "9151caa82985": {
    "id": "9151caa82985",
    "label": "1 RUE FBG ST ROCH, Puisserguier",
    "lat": 43.367097,
    "lng": 3.037282,
    "transactions": [
      {
        "date": "2021-07-02",
        "priceEur": 160000,
        "typeLocal": "Maison",
        "surfaceM2": 41,
        "isVefa": false
      }
    ]
  },
  "0f4aa27f7189": {
    "id": "0f4aa27f7189",
    "label": "17 AV DE TOULOUSE, Puisserguier",
    "lat": 43.369206,
    "lng": 3.037116,
    "transactions": [
      {
        "date": "2021-07-27",
        "priceEur": 30000,
        "typeLocal": "Maison",
        "surfaceM2": 150,
        "isVefa": false
      }
    ]
  },
  "95bf53d22eac": {
    "id": "95bf53d22eac",
    "label": "2 RUE GEORGES PUJOL, Puisserguier",
    "lat": 43.367831,
    "lng": 3.04161,
    "transactions": [
      {
        "date": "2021-07-30",
        "priceEur": 159000,
        "typeLocal": "Maison",
        "surfaceM2": 128,
        "isVefa": false
      }
    ]
  },
  "c2d020732834": {
    "id": "c2d020732834",
    "label": "9 RUE DE COULMIERS, Puisserguier",
    "lat": 43.370252,
    "lng": 3.036641,
    "transactions": [
      {
        "date": "2021-07-19",
        "priceEur": 270850,
        "typeLocal": "Maison",
        "surfaceM2": 130,
        "isVefa": false
      }
    ]
  },
  "cbdaa11f385e": {
    "id": "cbdaa11f385e",
    "label": "6 RUE MIRABEAU, Puisserguier",
    "lat": 43.36834,
    "lng": 3.0394,
    "transactions": [
      {
        "date": "2021-07-26",
        "priceEur": 102000,
        "typeLocal": "Maison",
        "surfaceM2": 90,
        "isVefa": false
      }
    ]
  },
  "6c13531271c5": {
    "id": "6c13531271c5",
    "label": "5 IMP PELISSON, Puisserguier",
    "lat": 43.367877,
    "lng": 3.038104,
    "transactions": [
      {
        "date": "2021-08-02",
        "priceEur": 60000,
        "typeLocal": "Maison",
        "surfaceM2": 52,
        "isVefa": false
      }
    ]
  },
  "63925e1fd4fd": {
    "id": "63925e1fd4fd",
    "label": "10 PL DE L'EGLISE, Puisserguier",
    "lat": 43.368093,
    "lng": 3.038953,
    "transactions": [
      {
        "date": "2021-08-16",
        "priceEur": 144000,
        "typeLocal": "Maison",
        "surfaceM2": 130,
        "isVefa": false
      }
    ]
  },
  "58ece0b92041": {
    "id": "58ece0b92041",
    "label": "3 AV DE NARBONNE, Puisserguier",
    "lat": 43.366361,
    "lng": 3.040515,
    "transactions": [
      {
        "date": "2021-08-06",
        "priceEur": 124400,
        "typeLocal": "Maison",
        "surfaceM2": 100,
        "isVefa": false
      }
    ]
  },
  "8a2ecbcda948": {
    "id": "8a2ecbcda948",
    "label": "7 RUE NEUVE, Puisserguier",
    "lat": 43.365366,
    "lng": 3.038636,
    "transactions": [
      {
        "date": "2021-08-10",
        "priceEur": 232000,
        "typeLocal": "Maison",
        "surfaceM2": 97,
        "isVefa": false
      }
    ]
  },
  "c1cbfea92d60": {
    "id": "c1cbfea92d60",
    "label": "26B RUE CAMBON, Puisserguier",
    "lat": 43.367227,
    "lng": 3.039487,
    "transactions": [
      {
        "date": "2021-08-30",
        "priceEur": 58000,
        "typeLocal": "Maison",
        "surfaceM2": 47,
        "isVefa": false
      }
    ]
  },
  "7e46ae0731a6": {
    "id": "7e46ae0731a6",
    "label": "4 RUE DE LA COQUILLE, Puisserguier",
    "lat": 43.368635,
    "lng": 3.040026,
    "transactions": [
      {
        "date": "2021-08-31",
        "priceEur": 77000,
        "typeLocal": "Maison",
        "surfaceM2": 74,
        "isVefa": false
      }
    ]
  },
  "efe4a7bfaa0a": {
    "id": "efe4a7bfaa0a",
    "label": "17 RUE MIRABEAU, Puisserguier",
    "lat": 43.368658,
    "lng": 3.038089,
    "transactions": [
      {
        "date": "2021-10-04",
        "priceEur": 45000,
        "typeLocal": "Maison",
        "surfaceM2": 88,
        "isVefa": false
      }
    ]
  },
  "5c2cf4fc2ec5": {
    "id": "5c2cf4fc2ec5",
    "label": "26 CHE DE ST JULIEN, Puisserguier",
    "lat": 43.366966,
    "lng": 3.03345,
    "transactions": [
      {
        "date": "2021-10-09",
        "priceEur": 100750,
        "typeLocal": "Maison",
        "surfaceM2": 110,
        "isVefa": false
      },
      {
        "date": "2021-10-09",
        "priceEur": 100750,
        "typeLocal": "Maison",
        "surfaceM2": 110,
        "isVefa": false
      }
    ]
  },
  "c1524fdb8788": {
    "id": "c1524fdb8788",
    "label": "7 AV DE BEZIERS, Puisserguier",
    "lat": 43.368812,
    "lng": 3.043175,
    "transactions": [
      {
        "date": "2021-10-01",
        "priceEur": 81500,
        "typeLocal": "Maison",
        "surfaceM2": 63,
        "isVefa": false
      }
    ]
  },
  "cef8bb0c8ef5": {
    "id": "cef8bb0c8ef5",
    "label": "11 RUE PARMENTIER, Puisserguier",
    "lat": 43.3682,
    "lng": 3.038382,
    "transactions": [
      {
        "date": "2021-11-08",
        "priceEur": 10000,
        "typeLocal": "Maison",
        "surfaceM2": 36,
        "isVefa": false
      }
    ]
  },
  "1e05f33381cf": {
    "id": "1e05f33381cf",
    "label": "18 RUE CAMBON, Puisserguier",
    "lat": 43.367706,
    "lng": 3.040005,
    "transactions": [
      {
        "date": "2021-10-26",
        "priceEur": 50000,
        "typeLocal": "Maison",
        "surfaceM2": 100,
        "isVefa": false
      }
    ]
  },
  "2903bf4f46fc": {
    "id": "2903bf4f46fc",
    "label": "22 RUE BAUDIN, Puisserguier",
    "lat": 43.370417,
    "lng": 3.037256,
    "transactions": [
      {
        "date": "2021-11-10",
        "priceEur": 90000,
        "typeLocal": "Maison",
        "surfaceM2": 70,
        "isVefa": false
      }
    ]
  },
  "1ceede877f6e": {
    "id": "1ceede877f6e",
    "label": "9 RUE DES JARDINS, Puisserguier",
    "lat": 43.365409,
    "lng": 3.032705,
    "transactions": [
      {
        "date": "2021-12-06",
        "priceEur": 408550,
        "typeLocal": "Maison",
        "surfaceM2": 130,
        "isVefa": false
      }
    ]
  },
  "1b3332d80cf4": {
    "id": "1b3332d80cf4",
    "label": "33 RUE DE BELFORT, Puisserguier",
    "lat": 43.368874,
    "lng": 3.039266,
    "transactions": [
      {
        "date": "2021-12-15",
        "priceEur": 31670,
        "typeLocal": "Maison",
        "surfaceM2": 56,
        "isVefa": false
      }
    ]
  },
  "3f9256053dab": {
    "id": "3f9256053dab",
    "label": "4 RUE MOLIERE, Puisserguier",
    "lat": 43.369226,
    "lng": 3.03673,
    "transactions": [
      {
        "date": "2021-12-28",
        "priceEur": 30000,
        "typeLocal": "Appartement",
        "surfaceM2": 80,
        "isVefa": false
      }
    ]
  },
  "19b3e3a2d3cc": {
    "id": "19b3e3a2d3cc",
    "label": "8 RUE MOLIERE, Puisserguier",
    "lat": 43.369271,
    "lng": 3.036479,
    "transactions": [
      {
        "date": "2021-12-20",
        "priceEur": 76250,
        "typeLocal": "Maison",
        "surfaceM2": 79,
        "isVefa": false
      }
    ]
  },
  "c2228cb01dfc": {
    "id": "c2228cb01dfc",
    "label": "8B RUE MOLIERE, Puisserguier",
    "lat": 43.369344,
    "lng": 3.036477,
    "transactions": [
      {
        "date": "2021-12-20",
        "priceEur": 76250,
        "typeLocal": "Maison",
        "surfaceM2": 80,
        "isVefa": false
      }
    ]
  },
  "2fb0458bfeb4": {
    "id": "2fb0458bfeb4",
    "label": "1 RUE DE LA REPUBLIQUE, Puisserguier",
    "lat": 43.368244,
    "lng": 3.040407,
    "transactions": [
      {
        "date": "2022-01-06",
        "priceEur": 118100,
        "typeLocal": "Maison",
        "surfaceM2": 150,
        "isVefa": false
      }
    ]
  },
  "025bcf18f8d7": {
    "id": "025bcf18f8d7",
    "label": "2 RUE DE STRASBOURG, Puisserguier",
    "lat": 43.368038,
    "lng": 3.039864,
    "transactions": [
      {
        "date": "2022-01-26",
        "priceEur": 81000,
        "typeLocal": "Maison",
        "surfaceM2": 75,
        "isVefa": false
      }
    ]
  },
  "268c6c851e8a": {
    "id": "268c6c851e8a",
    "label": "12B RUE DE LA COQUILLE, Puisserguier",
    "lat": 43.368758,
    "lng": 3.039595,
    "transactions": [
      {
        "date": "2022-02-04",
        "priceEur": 76000,
        "typeLocal": "Maison",
        "surfaceM2": 60,
        "isVefa": false
      }
    ]
  },
  "e1d48d189832": {
    "id": "e1d48d189832",
    "label": "13 CHE DE ST JULIEN, Puisserguier",
    "lat": 43.3666,
    "lng": 3.033257,
    "transactions": [
      {
        "date": "2022-03-01",
        "priceEur": 428850,
        "typeLocal": "Maison",
        "surfaceM2": 155,
        "isVefa": false
      },
      {
        "date": "2022-03-01",
        "priceEur": 428850,
        "typeLocal": "Maison",
        "surfaceM2": 155,
        "isVefa": false
      }
    ]
  },
  "696c88dee895": {
    "id": "696c88dee895",
    "label": "7 IMP DE LA SARRAZINE, Puisserguier",
    "lat": 43.368318,
    "lng": 3.038023,
    "transactions": [
      {
        "date": "2022-02-28",
        "priceEur": 90000,
        "typeLocal": "Maison",
        "surfaceM2": 75,
        "isVefa": false
      }
    ]
  },
  "4f070552db8a": {
    "id": "4f070552db8a",
    "label": "6 RUE DU FOUR, Puisserguier",
    "lat": 43.367522,
    "lng": 3.039545,
    "transactions": [
      {
        "date": "2022-03-10",
        "priceEur": 94100,
        "typeLocal": "Maison",
        "surfaceM2": 70,
        "isVefa": false
      }
    ]
  },
  "1faf804a56e0": {
    "id": "1faf804a56e0",
    "label": "19 RUE DE LA REMISE, Puisserguier",
    "lat": 43.365891,
    "lng": 3.038935,
    "transactions": [
      {
        "date": "2022-04-25",
        "priceEur": 95000,
        "typeLocal": "Maison",
        "surfaceM2": 72,
        "isVefa": false
      }
    ]
  },
  "ffafd3ab3aa8": {
    "id": "ffafd3ab3aa8",
    "label": "1 AV DE TOULOUSE, Puisserguier",
    "lat": 43.369183,
    "lng": 3.038225,
    "transactions": [
      {
        "date": "2022-04-25",
        "priceEur": 205000,
        "typeLocal": "Maison",
        "surfaceM2": 75,
        "isVefa": false
      }
    ]
  },
  "508002b1e33a": {
    "id": "508002b1e33a",
    "label": "9 RUE CAMBON, Puisserguier",
    "lat": 43.36771,
    "lng": 3.040237,
    "transactions": [
      {
        "date": "2022-04-15",
        "priceEur": 91000,
        "typeLocal": "Maison",
        "surfaceM2": 60,
        "isVefa": false
      }
    ]
  },
  "1087f8b7a0f9": {
    "id": "1087f8b7a0f9",
    "label": "30 RUE DE STRASBOURG, Puisserguier",
    "lat": 43.367342,
    "lng": 3.038962,
    "transactions": [
      {
        "date": "2022-05-17",
        "priceEur": 80000,
        "typeLocal": "Maison",
        "surfaceM2": 80,
        "isVefa": false
      }
    ]
  },
  "bae24a1107b4": {
    "id": "bae24a1107b4",
    "label": "19 BD JEAN JAURES, Puisserguier",
    "lat": 43.366932,
    "lng": 3.041288,
    "transactions": [
      {
        "date": "2022-05-12",
        "priceEur": 498950,
        "typeLocal": "Maison",
        "surfaceM2": 234,
        "isVefa": false
      }
    ]
  },
  "7cf22be7366a": {
    "id": "7cf22be7366a",
    "label": "9 RUE DE BELFORT, Puisserguier",
    "lat": 43.3686,
    "lng": 3.040266,
    "transactions": [
      {
        "date": "2022-05-16",
        "priceEur": 80000,
        "typeLocal": "Appartement",
        "surfaceM2": 82,
        "isVefa": false
      }
    ]
  },
  "f7073bd4772f": {
    "id": "f7073bd4772f",
    "label": "11 CHE DES HORTES, Puisserguier",
    "lat": 43.370184,
    "lng": 3.040557,
    "transactions": [
      {
        "date": "2022-05-27",
        "priceEur": 197600,
        "typeLocal": "Maison",
        "surfaceM2": 127,
        "isVefa": false
      }
    ]
  },
  "993b4430c0d3": {
    "id": "993b4430c0d3",
    "label": "3 RUE ROUGET DE L ISLE, Puisserguier",
    "lat": 43.367085,
    "lng": 3.039187,
    "transactions": [
      {
        "date": "2022-05-27",
        "priceEur": 177450,
        "typeLocal": "Maison",
        "surfaceM2": 78,
        "isVefa": false
      }
    ]
  },
  "ec19909625d4": {
    "id": "ec19909625d4",
    "label": "1 RUE THIERS, Puisserguier",
    "lat": 43.367156,
    "lng": 3.038127,
    "transactions": [
      {
        "date": "2022-05-24",
        "priceEur": 38000,
        "typeLocal": "Maison",
        "surfaceM2": 35,
        "isVefa": false
      }
    ]
  },
  "8030db10658c": {
    "id": "8030db10658c",
    "label": "27 CAE DE LA FOUNT DEL PESOUL, Puisserguier",
    "lat": 43.368387,
    "lng": 3.034983,
    "transactions": [
      {
        "date": "2022-06-03",
        "priceEur": 232500,
        "typeLocal": "Maison",
        "surfaceM2": 73,
        "isVefa": false
      }
    ]
  },
  "d1d4a136a4ae": {
    "id": "d1d4a136a4ae",
    "label": "3 RUE GEORGES JEAN GIRVES, Puisserguier",
    "lat": 43.368803,
    "lng": 3.039151,
    "transactions": [
      {
        "date": "2022-07-07",
        "priceEur": 69720,
        "typeLocal": "Maison",
        "surfaceM2": 74,
        "isVefa": false
      }
    ]
  },
  "24818b84a43d": {
    "id": "24818b84a43d",
    "label": "4 AV DE TOULOUSE, Puisserguier",
    "lat": 43.369489,
    "lng": 3.038198,
    "transactions": [
      {
        "date": "2022-07-12",
        "priceEur": 115000,
        "typeLocal": "Maison",
        "surfaceM2": 130,
        "isVefa": false
      }
    ]
  },
  "4e533a9e6c75": {
    "id": "4e533a9e6c75",
    "label": "12 IMP DE STRASBOURG, Puisserguier",
    "lat": 43.367575,
    "lng": 3.038899,
    "transactions": [
      {
        "date": "2022-07-19",
        "priceEur": 45000,
        "typeLocal": "Maison",
        "surfaceM2": 78,
        "isVefa": false
      }
    ]
  },
  "e694e4528f68": {
    "id": "e694e4528f68",
    "label": "3 RUE NEUVE, Puisserguier",
    "lat": 43.365258,
    "lng": 3.0391,
    "transactions": [
      {
        "date": "2022-07-19",
        "priceEur": 160000,
        "typeLocal": "Maison",
        "surfaceM2": 99,
        "isVefa": false
      }
    ]
  },
  "bf925ef4b872": {
    "id": "bf925ef4b872",
    "label": "3 LOT LE SAINT CHRISTOPHE, Puisserguier",
    "lat": 43.370877,
    "lng": 3.035767,
    "transactions": [
      {
        "date": "2022-08-01",
        "priceEur": 264700,
        "typeLocal": "Maison",
        "surfaceM2": 90,
        "isVefa": false
      }
    ]
  },
  "2881150f978e": {
    "id": "2881150f978e",
    "label": "4 AV DE NARBONNE, Puisserguier",
    "lat": 43.366333,
    "lng": 3.03997,
    "transactions": [
      {
        "date": "2024-06-28",
        "priceEur": 304000,
        "typeLocal": "Maison",
        "surfaceM2": 100,
        "isVefa": false
      },
      {
        "date": "2022-08-30",
        "priceEur": 150000,
        "typeLocal": "Maison",
        "surfaceM2": 100,
        "isVefa": false
      }
    ]
  },
  "8f64f1c4a258": {
    "id": "8f64f1c4a258",
    "label": "11 RUE D ESPAGNE, Puisserguier",
    "lat": 43.365718,
    "lng": 3.037298,
    "transactions": [
      {
        "date": "2022-09-20",
        "priceEur": 295000,
        "typeLocal": "Maison",
        "surfaceM2": 210,
        "isVefa": false
      }
    ]
  },
  "f35d46405232": {
    "id": "f35d46405232",
    "label": "28 RUE VOLTAIRE, Puisserguier",
    "lat": 43.367959,
    "lng": 3.037788,
    "transactions": [
      {
        "date": "2022-09-13",
        "priceEur": 100000,
        "typeLocal": "Maison",
        "surfaceM2": 90,
        "isVefa": false
      }
    ]
  },
  "c53111634360": {
    "id": "c53111634360",
    "label": "6 IMP OCCITANIE, Puisserguier",
    "lat": 43.369861,
    "lng": 3.037669,
    "transactions": [
      {
        "date": "2022-09-14",
        "priceEur": 372500,
        "typeLocal": "Maison",
        "surfaceM2": 100,
        "isVefa": false
      }
    ]
  },
  "480ef7ea359b": {
    "id": "480ef7ea359b",
    "label": "18 RUE DU LIROU, Puisserguier",
    "lat": 43.36643,
    "lng": 3.037376,
    "transactions": [
      {
        "date": "2022-09-23",
        "priceEur": 75000,
        "typeLocal": "Maison",
        "surfaceM2": 90,
        "isVefa": false
      }
    ]
  },
  "dd3e4565cf93": {
    "id": "dd3e4565cf93",
    "label": "9 RUE PARMENTIER, Puisserguier",
    "lat": 43.368233,
    "lng": 3.038384,
    "transactions": [
      {
        "date": "2022-09-27",
        "priceEur": 82870,
        "typeLocal": "Maison",
        "surfaceM2": 45,
        "isVefa": false
      }
    ]
  },
  "61541453692e": {
    "id": "61541453692e",
    "label": "12 RUE FBG ST ROCH, Puisserguier",
    "lat": 43.367229,
    "lng": 3.036483,
    "transactions": [
      {
        "date": "2022-10-11",
        "priceEur": 175000,
        "typeLocal": "Appartement",
        "surfaceM2": 85,
        "isVefa": false
      },
      {
        "date": "2022-10-11",
        "priceEur": 175000,
        "typeLocal": "Appartement",
        "surfaceM2": 60,
        "isVefa": false
      }
    ]
  },
  "dda389a41246": {
    "id": "dda389a41246",
    "label": "3 IMP MIRABEAU, Puisserguier",
    "lat": 43.369013,
    "lng": 3.038321,
    "transactions": [
      {
        "date": "2022-11-03",
        "priceEur": 15000,
        "typeLocal": "Maison",
        "surfaceM2": 85,
        "isVefa": false
      }
    ]
  },
  "20bce4c3999b": {
    "id": "20bce4c3999b",
    "label": "17 RUE DE STRASBOURG, Puisserguier",
    "lat": 43.367564,
    "lng": 3.039478,
    "transactions": [
      {
        "date": "2022-11-07",
        "priceEur": 85000,
        "typeLocal": "Maison",
        "surfaceM2": 60,
        "isVefa": false
      }
    ]
  },
  "9f44a1a4fcb0": {
    "id": "9f44a1a4fcb0",
    "label": "5 RUE VAUBAN, Puisserguier",
    "lat": 43.368498,
    "lng": 3.038568,
    "transactions": [
      {
        "date": "2022-11-10",
        "priceEur": 86000,
        "typeLocal": "Maison",
        "surfaceM2": 100,
        "isVefa": false
      }
    ]
  },
  "fb6322e0dd68": {
    "id": "fb6322e0dd68",
    "label": "4 CHE DES HORTES, Puisserguier",
    "lat": 43.370152,
    "lng": 3.041297,
    "transactions": [
      {
        "date": "2022-11-14",
        "priceEur": 338000,
        "typeLocal": "Maison",
        "surfaceM2": 160,
        "isVefa": false
      }
    ]
  },
  "e7c7d1d7e24d": {
    "id": "e7c7d1d7e24d",
    "label": "1 RUE MIRABEAU, Puisserguier",
    "lat": 43.368388,
    "lng": 3.039189,
    "transactions": [
      {
        "date": "2022-11-10",
        "priceEur": 59000,
        "typeLocal": "Maison",
        "surfaceM2": 97,
        "isVefa": false
      }
    ]
  },
  "47297ba5ba23": {
    "id": "47297ba5ba23",
    "label": "30 RUE MIRABEAU, Puisserguier",
    "lat": 43.368874,
    "lng": 3.038614,
    "transactions": [
      {
        "date": "2022-11-23",
        "priceEur": 126200,
        "typeLocal": "Maison",
        "surfaceM2": 124,
        "isVefa": false
      }
    ]
  },
  "d69a136cacca": {
    "id": "d69a136cacca",
    "label": "1B TRA DES CHASSEURS, Puisserguier",
    "lat": 43.366133,
    "lng": 3.037805,
    "transactions": [
      {
        "date": "2022-12-05",
        "priceEur": 125210,
        "typeLocal": "Maison",
        "surfaceM2": 77,
        "isVefa": false
      }
    ]
  },
  "481c715559cd": {
    "id": "481c715559cd",
    "label": "19 RUE DE METZ, Puisserguier",
    "lat": 43.366244,
    "lng": 3.039101,
    "transactions": [
      {
        "date": "2022-12-09",
        "priceEur": 350000,
        "typeLocal": "Maison",
        "surfaceM2": 117,
        "isVefa": false
      }
    ]
  },
  "27415e1e02a4": {
    "id": "27415e1e02a4",
    "label": "8 RUE DU LIROU, Puisserguier",
    "lat": 43.366761,
    "lng": 3.037621,
    "transactions": [
      {
        "date": "2022-12-16",
        "priceEur": 238966,
        "typeLocal": "Maison",
        "surfaceM2": 133,
        "isVefa": false
      }
    ]
  },
  "fb9fc865c892": {
    "id": "fb9fc865c892",
    "label": "3 RTE DE CAZEDARNES, Puisserguier",
    "lat": 43.371668,
    "lng": 3.036315,
    "transactions": [
      {
        "date": "2023-01-11",
        "priceEur": 295000,
        "typeLocal": "Maison",
        "surfaceM2": 118,
        "isVefa": false
      }
    ]
  },
  "dad054f0a4fa": {
    "id": "dad054f0a4fa",
    "label": "18 RUE DE LA COQUILLE, Puisserguier",
    "lat": 43.368771,
    "lng": 3.039278,
    "transactions": [
      {
        "date": "2023-01-16",
        "priceEur": 221780,
        "typeLocal": "Maison",
        "surfaceM2": 90,
        "isVefa": false
      }
    ]
  },
  "bcd9b2e16996": {
    "id": "bcd9b2e16996",
    "label": "23B RUE VOLTAIRE, Puisserguier",
    "lat": 43.368074,
    "lng": 3.037498,
    "transactions": [
      {
        "date": "2023-01-17",
        "priceEur": 175750,
        "typeLocal": "Maison",
        "surfaceM2": 57,
        "isVefa": false
      }
    ]
  },
  "2cc53dcdf15e": {
    "id": "2cc53dcdf15e",
    "label": "2B IMP PELISSON, Puisserguier",
    "lat": 43.36796,
    "lng": 3.038055,
    "transactions": [
      {
        "date": "2023-01-26",
        "priceEur": 50970,
        "typeLocal": "Maison",
        "surfaceM2": 20,
        "isVefa": false
      }
    ]
  },
  "172719ac3f0b": {
    "id": "172719ac3f0b",
    "label": "3 IMP PELISSON, Puisserguier",
    "lat": 43.367868,
    "lng": 3.038173,
    "transactions": [
      {
        "date": "2023-02-20",
        "priceEur": 65000,
        "typeLocal": "Maison",
        "surfaceM2": 45,
        "isVefa": false
      }
    ]
  },
  "06ac101be206": {
    "id": "06ac101be206",
    "label": "13 CHE DES HORTES, Puisserguier",
    "lat": 43.370237,
    "lng": 3.040438,
    "transactions": [
      {
        "date": "2023-02-16",
        "priceEur": 97000,
        "typeLocal": "Maison",
        "surfaceM2": 65,
        "isVefa": false
      }
    ]
  },
  "8fb4ea65eded": {
    "id": "8fb4ea65eded",
    "label": "3 CAE DE LA FOUNT DEL PESOUL, Puisserguier",
    "lat": 43.367345,
    "lng": 3.036502,
    "transactions": [
      {
        "date": "2023-03-10",
        "priceEur": 209000,
        "typeLocal": "Maison",
        "surfaceM2": 162,
        "isVefa": false
      }
    ]
  },
  "d2e428a10d8b": {
    "id": "d2e428a10d8b",
    "label": "4 CAE DAL BOURRET, Puisserguier",
    "lat": 43.365639,
    "lng": 3.040835,
    "transactions": [
      {
        "date": "2023-02-27",
        "priceEur": 130500,
        "typeLocal": "Maison",
        "surfaceM2": 60,
        "isVefa": false
      }
    ]
  },
  "3fc7ccc0b924": {
    "id": "3fc7ccc0b924",
    "label": "5 CAE DE LA FOUNT DEL PESOUL, Puisserguier",
    "lat": 43.367409,
    "lng": 3.03633,
    "transactions": [
      {
        "date": "2023-03-09",
        "priceEur": 165000,
        "typeLocal": "Maison",
        "surfaceM2": 145,
        "isVefa": false
      }
    ]
  },
  "5e47892287f4": {
    "id": "5e47892287f4",
    "label": "1 IMP DE LA SARRAZINE, Puisserguier",
    "lat": 43.368464,
    "lng": 3.038042,
    "transactions": [
      {
        "date": "2023-03-16",
        "priceEur": 100000,
        "typeLocal": "Maison",
        "surfaceM2": 60,
        "isVefa": false
      }
    ]
  },
  "ce5d2ce50b6e": {
    "id": "ce5d2ce50b6e",
    "label": "2B IMP DU TEMPLE, Puisserguier",
    "lat": 43.367083,
    "lng": 3.041203,
    "transactions": [
      {
        "date": "2023-04-06",
        "priceEur": 136950,
        "typeLocal": "Maison",
        "surfaceM2": 84,
        "isVefa": false
      }
    ]
  },
  "dc06bd8bfe9e": {
    "id": "dc06bd8bfe9e",
    "label": "3 PL DE LA REPUBLIQUE, Puisserguier",
    "lat": 43.368063,
    "lng": 3.041185,
    "transactions": [
      {
        "date": "2023-04-20",
        "priceEur": 124000,
        "typeLocal": "Appartement",
        "surfaceM2": 62,
        "isVefa": false
      },
      {
        "date": "2023-04-20",
        "priceEur": 124000,
        "typeLocal": "Appartement",
        "surfaceM2": 64,
        "isVefa": false
      }
    ]
  },
  "abdb3914395a": {
    "id": "abdb3914395a",
    "label": "12 CHE DES HORTES, Puisserguier",
    "lat": 43.370856,
    "lng": 3.040392,
    "transactions": [
      {
        "date": "2023-04-25",
        "priceEur": 45000,
        "typeLocal": "Maison",
        "surfaceM2": 135,
        "isVefa": false
      }
    ]
  },
  "74713bb673b4": {
    "id": "74713bb673b4",
    "label": "22 RUE DU LIROU, Puisserguier",
    "lat": 43.366263,
    "lng": 3.037227,
    "transactions": [
      {
        "date": "2023-05-02",
        "priceEur": 240000,
        "typeLocal": "Maison",
        "surfaceM2": 113,
        "isVefa": false
      }
    ]
  },
  "a4c5f9cc744e": {
    "id": "a4c5f9cc744e",
    "label": "5 CAE DAL BOURRET, Puisserguier",
    "lat": 43.365842,
    "lng": 3.040962,
    "transactions": [
      {
        "date": "2023-04-24",
        "priceEur": 175000,
        "typeLocal": "Maison",
        "surfaceM2": 88,
        "isVefa": false
      }
    ]
  },
  "f4a2a0d5839d": {
    "id": "f4a2a0d5839d",
    "label": "2 IMP DE ST JULIEN, Puisserguier",
    "lat": 43.366253,
    "lng": 3.03472,
    "transactions": [
      {
        "date": "2023-05-02",
        "priceEur": 700000,
        "typeLocal": "Maison",
        "surfaceM2": 169,
        "isVefa": false
      },
      {
        "date": "2023-05-02",
        "priceEur": 700000,
        "typeLocal": "Maison",
        "surfaceM2": 169,
        "isVefa": false
      }
    ]
  },
  "1004f2b7b0d2": {
    "id": "1004f2b7b0d2",
    "label": "10 RUE MOLIERE, Puisserguier",
    "lat": 43.369381,
    "lng": 3.036284,
    "transactions": [
      {
        "date": "2023-05-04",
        "priceEur": 100000,
        "typeLocal": "Maison",
        "surfaceM2": 117,
        "isVefa": false
      }
    ]
  },
  "f7e52afadc45": {
    "id": "f7e52afadc45",
    "label": "7 RUE GEORGES JEAN GIRVES, Puisserguier",
    "lat": 43.368721,
    "lng": 3.039154,
    "transactions": [
      {
        "date": "2023-06-13",
        "priceEur": 53000,
        "typeLocal": "Maison",
        "surfaceM2": 120,
        "isVefa": false
      }
    ]
  },
  "271f792f7280": {
    "id": "271f792f7280",
    "label": "2 RUE GUTENBERG, Puisserguier",
    "lat": 43.368644,
    "lng": 3.04127,
    "transactions": [
      {
        "date": "2023-06-30",
        "priceEur": 71050,
        "typeLocal": "Maison",
        "surfaceM2": 47,
        "isVefa": false
      }
    ]
  },
  "aa0f511f86a3": {
    "id": "aa0f511f86a3",
    "label": "17 CAE DE LA FOUNT DEL PESOUL, Puisserguier",
    "lat": 43.367528,
    "lng": 3.034972,
    "transactions": [
      {
        "date": "2023-06-21",
        "priceEur": 205000,
        "typeLocal": "Maison",
        "surfaceM2": 85,
        "isVefa": false
      }
    ]
  },
  "fa4a18e91e34": {
    "id": "fa4a18e91e34",
    "label": "5 IMP DE LA REPUBLIQUE, Puisserguier",
    "lat": 43.367929,
    "lng": 3.03973,
    "transactions": [
      {
        "date": "2023-07-11",
        "priceEur": 109000,
        "typeLocal": "Maison",
        "surfaceM2": 36,
        "isVefa": false
      }
    ]
  },
  "b1bc7e5240aa": {
    "id": "b1bc7e5240aa",
    "label": "8 RUE THIERS, Puisserguier",
    "lat": 43.367346,
    "lng": 3.038535,
    "transactions": [
      {
        "date": "2023-06-28",
        "priceEur": 35000,
        "typeLocal": "Maison",
        "surfaceM2": 185,
        "isVefa": false
      }
    ]
  },
  "57f58f2df192": {
    "id": "57f58f2df192",
    "label": "7 RUE D ESPAGNE, Puisserguier",
    "lat": 43.365794,
    "lng": 3.037851,
    "transactions": [
      {
        "date": "2023-07-20",
        "priceEur": 175000,
        "typeLocal": "Maison",
        "surfaceM2": 165,
        "isVefa": false
      }
    ]
  },
  "7725e958eb3f": {
    "id": "7725e958eb3f",
    "label": "15 RUE PAUL RIQUET, Puisserguier",
    "lat": 43.368749,
    "lng": 3.042243,
    "transactions": [
      {
        "date": "2023-07-12",
        "priceEur": 139000,
        "typeLocal": "Maison",
        "surfaceM2": 148,
        "isVefa": false
      }
    ]
  },
  "1c78504ec449": {
    "id": "1c78504ec449",
    "label": "2 TRA DES CHASSEURS, Puisserguier",
    "lat": 43.366118,
    "lng": 3.037494,
    "transactions": [
      {
        "date": "2023-07-05",
        "priceEur": 163000,
        "typeLocal": "Maison",
        "surfaceM2": 61,
        "isVefa": false
      }
    ]
  },
  "461cb62f6802": {
    "id": "461cb62f6802",
    "label": "1 RUE DE LA GAI SORTIE, Puisserguier",
    "lat": 43.368478,
    "lng": 3.041832,
    "transactions": [
      {
        "date": "2023-07-27",
        "priceEur": 100000,
        "typeLocal": "Maison",
        "surfaceM2": 113,
        "isVefa": false
      }
    ]
  },
  "26461f6fc716": {
    "id": "26461f6fc716",
    "label": "42 RUE VOLTAIRE, Puisserguier",
    "lat": 43.368503,
    "lng": 3.037827,
    "transactions": [
      {
        "date": "2023-08-01",
        "priceEur": 80000,
        "typeLocal": "Appartement",
        "surfaceM2": 67,
        "isVefa": false
      },
      {
        "date": "2023-08-01",
        "priceEur": 80000,
        "typeLocal": "Appartement",
        "surfaceM2": 70,
        "isVefa": false
      }
    ]
  },
  "76073c10023a": {
    "id": "76073c10023a",
    "label": "11 RUE ROUGET DE L ISLE, Puisserguier",
    "lat": 43.367226,
    "lng": 3.038956,
    "transactions": [
      {
        "date": "2023-08-09",
        "priceEur": 82000,
        "typeLocal": "Maison",
        "surfaceM2": 60,
        "isVefa": false
      }
    ]
  },
  "e4eb0cd9c82d": {
    "id": "e4eb0cd9c82d",
    "label": "11 BD VICTOR HUGO, Puisserguier",
    "lat": 43.369131,
    "lng": 3.038337,
    "transactions": [
      {
        "date": "2023-09-12",
        "priceEur": 250000,
        "typeLocal": "Maison",
        "surfaceM2": 150,
        "isVefa": false
      }
    ]
  },
  "c5dd2449ca86": {
    "id": "c5dd2449ca86",
    "label": "1B RTE DE CAZEDARNES, Puisserguier",
    "lat": 43.371131,
    "lng": 3.036164,
    "transactions": [
      {
        "date": "2023-09-25",
        "priceEur": 209650,
        "typeLocal": "Maison",
        "surfaceM2": 120,
        "isVefa": false
      }
    ]
  },
  "f582dc6bfece": {
    "id": "f582dc6bfece",
    "label": "18 RUE DE METZ, Puisserguier",
    "lat": 43.366621,
    "lng": 3.039254,
    "transactions": [
      {
        "date": "2023-10-03",
        "priceEur": 190000,
        "typeLocal": "Maison",
        "surfaceM2": 133,
        "isVefa": false
      }
    ]
  },
  "0bafde1e532a": {
    "id": "0bafde1e532a",
    "label": "42B RUE VOLTAIRE, Puisserguier",
    "lat": 43.368576,
    "lng": 3.037855,
    "transactions": [
      {
        "date": "2023-10-02",
        "priceEur": 138365,
        "typeLocal": "Maison",
        "surfaceM2": 60,
        "isVefa": false
      }
    ]
  },
  "d8e056391204": {
    "id": "d8e056391204",
    "label": "25 RUE DE BELFORT, Puisserguier",
    "lat": 43.368746,
    "lng": 3.039706,
    "transactions": [
      {
        "date": "2023-10-25",
        "priceEur": 172370,
        "typeLocal": "Maison",
        "surfaceM2": 95,
        "isVefa": false
      }
    ]
  },
  "e5071aa51eb6": {
    "id": "e5071aa51eb6",
    "label": "1 IMP DE STRASBOURG, Puisserguier",
    "lat": 43.367521,
    "lng": 3.038917,
    "transactions": [
      {
        "date": "2023-11-07",
        "priceEur": 85500,
        "typeLocal": "Maison",
        "surfaceM2": 68,
        "isVefa": false
      }
    ]
  },
  "33a9051dbd95": {
    "id": "33a9051dbd95",
    "label": "15 RUE DE LA REPUBLIQUE, Puisserguier",
    "lat": 43.368133,
    "lng": 3.039865,
    "transactions": [
      {
        "date": "2023-11-23",
        "priceEur": 18000,
        "typeLocal": "Maison",
        "surfaceM2": 48,
        "isVefa": false
      }
    ]
  },
  "9804b3b95659": {
    "id": "9804b3b95659",
    "label": "11 RUE DE LA REPUBLIQUE, Puisserguier",
    "lat": 43.368126,
    "lng": 3.040103,
    "transactions": [
      {
        "date": "2023-11-15",
        "priceEur": 161500,
        "typeLocal": "Maison",
        "surfaceM2": 67,
        "isVefa": false
      }
    ]
  },
  "09db4502880f": {
    "id": "09db4502880f",
    "label": "19 RUE NEUVE, Puisserguier",
    "lat": 43.365311,
    "lng": 3.037848,
    "transactions": [
      {
        "date": "2023-11-21",
        "priceEur": 410000,
        "typeLocal": "Maison",
        "surfaceM2": 90,
        "isVefa": false
      }
    ]
  },
  "65b60e5458a4": {
    "id": "65b60e5458a4",
    "label": "13 RUE THIERS, Puisserguier",
    "lat": 43.367533,
    "lng": 3.038352,
    "transactions": [
      {
        "date": "2023-12-12",
        "priceEur": 71000,
        "typeLocal": "Maison",
        "surfaceM2": 70,
        "isVefa": false
      }
    ]
  },
  "25d4167b476c": {
    "id": "25d4167b476c",
    "label": "2626 LES HORTES, Puisserguier",
    "lat": 43.371045,
    "lng": 3.037534,
    "transactions": [
      {
        "date": "2023-11-27",
        "priceEur": 139500,
        "typeLocal": "Maison",
        "surfaceM2": 87,
        "isVefa": false
      }
    ]
  },
  "e6cc6aafd024": {
    "id": "e6cc6aafd024",
    "label": "10 IMP PAPIN, Puisserguier",
    "lat": 43.367743,
    "lng": 3.038238,
    "transactions": [
      {
        "date": "2024-02-06",
        "priceEur": 50000,
        "typeLocal": "Maison",
        "surfaceM2": 58,
        "isVefa": false
      }
    ]
  },
  "faa820ef2e3f": {
    "id": "faa820ef2e3f",
    "label": "9 AV DE NARBONNE, Puisserguier",
    "lat": 43.365573,
    "lng": 3.04032,
    "transactions": [
      {
        "date": "2024-02-15",
        "priceEur": 188000,
        "typeLocal": "Maison",
        "surfaceM2": 108,
        "isVefa": false
      }
    ]
  },
  "993e08de4dbe": {
    "id": "993e08de4dbe",
    "label": "2 IMP DU MOULIN, Puisserguier",
    "lat": 43.365226,
    "lng": 3.033301,
    "transactions": [
      {
        "date": "2024-02-09",
        "priceEur": 328351,
        "typeLocal": "Maison",
        "surfaceM2": 140,
        "isVefa": false
      },
      {
        "date": "2024-02-09",
        "priceEur": 328351,
        "typeLocal": "Maison",
        "surfaceM2": 140,
        "isVefa": false
      }
    ]
  },
  "bc128cd894e7": {
    "id": "bc128cd894e7",
    "label": "8 RUE DE LA BASTILLE, Puisserguier",
    "lat": 43.368379,
    "lng": 3.039974,
    "transactions": [
      {
        "date": "2024-02-15",
        "priceEur": 126000,
        "typeLocal": "Maison",
        "surfaceM2": 48,
        "isVefa": false
      }
    ]
  },
  "a267120680c0": {
    "id": "a267120680c0",
    "label": "4 RUE DES HORTES, Puisserguier",
    "lat": 43.370199,
    "lng": 3.039778,
    "transactions": [
      {
        "date": "2024-02-09",
        "priceEur": 214000,
        "typeLocal": "Maison",
        "surfaceM2": 147,
        "isVefa": false
      }
    ]
  },
  "4f0a6ea9d664": {
    "id": "4f0a6ea9d664",
    "label": "20 RUE BAUDIN, Puisserguier",
    "lat": 43.370405,
    "lng": 3.037314,
    "transactions": [
      {
        "date": "2024-02-09",
        "priceEur": 127000,
        "typeLocal": "Maison",
        "surfaceM2": 80,
        "isVefa": false
      }
    ]
  },
  "78988820c4e4": {
    "id": "78988820c4e4",
    "label": "1B RUE MARCEAU, Puisserguier",
    "lat": 43.36978,
    "lng": 3.037028,
    "transactions": [
      {
        "date": "2024-03-08",
        "priceEur": 203950,
        "typeLocal": "Maison",
        "surfaceM2": 125,
        "isVefa": false
      }
    ]
  },
  "8c265b2b628c": {
    "id": "8c265b2b628c",
    "label": "7 IMP PAPIN, Puisserguier",
    "lat": 43.367625,
    "lng": 3.038203,
    "transactions": [
      {
        "date": "2024-03-08",
        "priceEur": 107900,
        "typeLocal": "Maison",
        "surfaceM2": 85,
        "isVefa": false
      }
    ]
  },
  "0fbc3c632414": {
    "id": "0fbc3c632414",
    "label": "12 RUE CAMBON, Puisserguier",
    "lat": 43.367872,
    "lng": 3.040214,
    "transactions": [
      {
        "date": "2024-03-26",
        "priceEur": 32000,
        "typeLocal": "Maison",
        "surfaceM2": 40,
        "isVefa": false
      }
    ]
  },
  "60f3100a3949": {
    "id": "60f3100a3949",
    "label": "5 RUE THIERS, Puisserguier",
    "lat": 43.367292,
    "lng": 3.038238,
    "transactions": [
      {
        "date": "2024-03-29",
        "priceEur": 65100,
        "typeLocal": "Maison",
        "surfaceM2": 95,
        "isVefa": false
      }
    ]
  },
  "d3d847d676f7": {
    "id": "d3d847d676f7",
    "label": "8 RUE DE STRASBOURG, Puisserguier",
    "lat": 43.367851,
    "lng": 3.039741,
    "transactions": [
      {
        "date": "2024-05-03",
        "priceEur": 160750,
        "typeLocal": "Maison",
        "surfaceM2": 60,
        "isVefa": false
      }
    ]
  },
  "24baf05c9589": {
    "id": "24baf05c9589",
    "label": "3 CHE DU MOULIN DE SENEGAS, Puisserguier",
    "lat": 43.36513,
    "lng": 3.036037,
    "transactions": [
      {
        "date": "2024-05-17",
        "priceEur": 50000,
        "typeLocal": "Maison",
        "surfaceM2": 57,
        "isVefa": false
      }
    ]
  },
  "b3065546e024": {
    "id": "b3065546e024",
    "label": "54 RUE VOLTAIRE, Puisserguier",
    "lat": 43.369125,
    "lng": 3.037717,
    "transactions": [
      {
        "date": "2024-05-27",
        "priceEur": 100000,
        "typeLocal": "Maison",
        "surfaceM2": 60,
        "isVefa": false
      }
    ]
  },
  "e10a8f487fc5": {
    "id": "e10a8f487fc5",
    "label": "20 BD JEAN JAURES, Puisserguier",
    "lat": 43.367154,
    "lng": 3.040436,
    "transactions": [
      {
        "date": "2024-05-22",
        "priceEur": 245283,
        "typeLocal": "Maison",
        "surfaceM2": 159,
        "isVefa": false
      }
    ]
  },
  "4fe21fa92cff": {
    "id": "4fe21fa92cff",
    "label": "10 RUE VOLTAIRE, Puisserguier",
    "lat": 43.367373,
    "lng": 3.0379,
    "transactions": [
      {
        "date": "2024-06-03",
        "priceEur": 110000,
        "typeLocal": "Maison",
        "surfaceM2": 96,
        "isVefa": false
      }
    ]
  },
  "80cd6b7e36ef": {
    "id": "80cd6b7e36ef",
    "label": "8 RUE DES HORTES, Puisserguier",
    "lat": 43.370333,
    "lng": 3.039938,
    "transactions": [
      {
        "date": "2024-05-28",
        "priceEur": 135000,
        "typeLocal": "Maison",
        "surfaceM2": 72,
        "isVefa": false
      }
    ]
  },
  "0195b1f2ba58": {
    "id": "0195b1f2ba58",
    "label": "31 RUE DE STRASBOURG, Puisserguier",
    "lat": 43.367243,
    "lng": 3.039144,
    "transactions": [
      {
        "date": "2024-06-11",
        "priceEur": 116000,
        "typeLocal": "Maison",
        "surfaceM2": 64,
        "isVefa": false
      }
    ]
  },
  "16544fdcfe32": {
    "id": "16544fdcfe32",
    "label": "9 RUE FBG ST ROCH, Puisserguier",
    "lat": 43.367073,
    "lng": 3.036778,
    "transactions": [
      {
        "date": "2024-06-21",
        "priceEur": 312850,
        "typeLocal": "Maison",
        "surfaceM2": 96,
        "isVefa": false
      }
    ]
  },
  "842229de4741": {
    "id": "842229de4741",
    "label": "5 RUE DU PIGEONNIER, Puisserguier",
    "lat": 43.367774,
    "lng": 3.037349,
    "transactions": [
      {
        "date": "2025-03-25",
        "priceEur": 155200,
        "typeLocal": "Appartement",
        "surfaceM2": 87,
        "isVefa": false
      },
      {
        "date": "2024-07-22",
        "priceEur": 144000,
        "typeLocal": "Appartement",
        "surfaceM2": 87,
        "isVefa": false
      }
    ]
  },
  "8b64cf3e3932": {
    "id": "8b64cf3e3932",
    "label": "14 RUE DE STRASBOURG, Puisserguier",
    "lat": 43.367764,
    "lng": 3.039613,
    "transactions": [
      {
        "date": "2024-08-09",
        "priceEur": 75000,
        "typeLocal": "Maison",
        "surfaceM2": 54,
        "isVefa": false
      }
    ]
  },
  "cc9fdb6e3624": {
    "id": "cc9fdb6e3624",
    "label": "7 RUE VAUBAN, Puisserguier",
    "lat": 43.368622,
    "lng": 3.038326,
    "transactions": [
      {
        "date": "2024-08-05",
        "priceEur": 42000,
        "typeLocal": "Maison",
        "surfaceM2": 48,
        "isVefa": false
      }
    ]
  },
  "769666612552": {
    "id": "769666612552",
    "label": "8 IMP VICTOR HUGO, Puisserguier",
    "lat": 43.369055,
    "lng": 3.041386,
    "transactions": [
      {
        "date": "2024-08-06",
        "priceEur": 10000,
        "typeLocal": "Appartement",
        "surfaceM2": 80,
        "isVefa": false
      },
      {
        "date": "2024-08-06",
        "priceEur": 10000,
        "typeLocal": "Maison",
        "surfaceM2": 160,
        "isVefa": false
      },
      {
        "date": "2024-08-06",
        "priceEur": 10000,
        "typeLocal": "Appartement",
        "surfaceM2": 80,
        "isVefa": false
      },
      {
        "date": "2024-08-06",
        "priceEur": 10000,
        "typeLocal": "Maison",
        "surfaceM2": 160,
        "isVefa": false
      }
    ]
  },
  "a136c92a10ba": {
    "id": "a136c92a10ba",
    "label": "27 RUE THIERS, Puisserguier",
    "lat": 43.367834,
    "lng": 3.038638,
    "transactions": [
      {
        "date": "2024-08-08",
        "priceEur": 121000,
        "typeLocal": "Maison",
        "surfaceM2": 90,
        "isVefa": false
      }
    ]
  },
  "78115c981f0b": {
    "id": "78115c981f0b",
    "label": "2 RUE DU FOUR, Puisserguier",
    "lat": 43.367478,
    "lng": 3.039723,
    "transactions": [
      {
        "date": "2024-09-03",
        "priceEur": 88000,
        "typeLocal": "Maison",
        "surfaceM2": 80,
        "isVefa": false
      }
    ]
  },
  "83184dddaa53": {
    "id": "83184dddaa53",
    "label": "17 RUE CORNEILLE, Puisserguier",
    "lat": 43.367088,
    "lng": 3.038318,
    "transactions": [
      {
        "date": "2024-09-05",
        "priceEur": 42000,
        "typeLocal": "Maison",
        "surfaceM2": 104,
        "isVefa": false
      }
    ]
  },
  "e27c8908aeb5": {
    "id": "e27c8908aeb5",
    "label": "17 RUE DE BELFORT, Puisserguier",
    "lat": 43.368691,
    "lng": 3.039987,
    "transactions": [
      {
        "date": "2024-09-04",
        "priceEur": 56000,
        "typeLocal": "Maison",
        "surfaceM2": 70,
        "isVefa": false
      }
    ]
  },
  "143870a2b844": {
    "id": "143870a2b844",
    "label": "5 RUE MIRABEAU, Puisserguier",
    "lat": 43.368553,
    "lng": 3.039137,
    "transactions": [
      {
        "date": "2024-09-24",
        "priceEur": 57900,
        "typeLocal": "Maison",
        "surfaceM2": 64,
        "isVefa": false
      }
    ]
  },
  "a7f306628b40": {
    "id": "a7f306628b40",
    "label": "17 RUE DU MUSCADET, Puisserguier",
    "lat": 43.365506,
    "lng": 3.040916,
    "transactions": [
      {
        "date": "2024-09-19",
        "priceEur": 233000,
        "typeLocal": "Maison",
        "surfaceM2": 89,
        "isVefa": false
      }
    ]
  },
  "e3d510ac8960": {
    "id": "e3d510ac8960",
    "label": "5 CHE DES HORTES, Puisserguier",
    "lat": 43.369361,
    "lng": 3.04197,
    "transactions": [
      {
        "date": "2024-09-05",
        "priceEur": 229034.56,
        "typeLocal": "Maison",
        "surfaceM2": 58,
        "isVefa": false
      }
    ]
  },
  "9f81f5a1a459": {
    "id": "9f81f5a1a459",
    "label": "1 PAS DU PORTAIL BIESAR, Puisserguier",
    "lat": 43.367256,
    "lng": 3.038191,
    "transactions": [
      {
        "date": "2024-10-17",
        "priceEur": 123500,
        "typeLocal": "Appartement",
        "surfaceM2": 100,
        "isVefa": false
      }
    ]
  },
  "87572d0279d0": {
    "id": "87572d0279d0",
    "label": "39 RUE DE LA REMISE, Puisserguier",
    "lat": 43.366508,
    "lng": 3.038457,
    "transactions": [
      {
        "date": "2024-11-04",
        "priceEur": 135380,
        "typeLocal": "Maison",
        "surfaceM2": 160,
        "isVefa": false
      }
    ]
  },
  "4605c6472f21": {
    "id": "4605c6472f21",
    "label": "5B RUE DE LA BASTILLE, Puisserguier",
    "lat": 43.368435,
    "lng": 3.039689,
    "transactions": [
      {
        "date": "2024-11-07",
        "priceEur": 180000,
        "typeLocal": "Maison",
        "surfaceM2": 85,
        "isVefa": false
      }
    ]
  },
  "829c3dfd41e2": {
    "id": "829c3dfd41e2",
    "label": "10B CHE DU MOULIN DE SENEGAS, Puisserguier",
    "lat": 43.365126,
    "lng": 3.035202,
    "transactions": [
      {
        "date": "2024-11-12",
        "priceEur": 285000,
        "typeLocal": "Maison",
        "surfaceM2": 90,
        "isVefa": false
      }
    ]
  },
  "4b8d9d1a6a9d": {
    "id": "4b8d9d1a6a9d",
    "label": "5 RUE DE BELFORT, Puisserguier",
    "lat": 43.368508,
    "lng": 3.040317,
    "transactions": [
      {
        "date": "2024-11-19",
        "priceEur": 90000,
        "typeLocal": "Appartement",
        "surfaceM2": 47,
        "isVefa": false
      },
      {
        "date": "2024-11-19",
        "priceEur": 90000,
        "typeLocal": "Appartement",
        "surfaceM2": 47,
        "isVefa": false
      }
    ]
  },
  "96e8f99f0822": {
    "id": "96e8f99f0822",
    "label": "6 RUE PARMENTIER, Puisserguier",
    "lat": 43.368547,
    "lng": 3.038211,
    "transactions": [
      {
        "date": "2024-11-26",
        "priceEur": 120250,
        "typeLocal": "Maison",
        "surfaceM2": 67,
        "isVefa": false
      }
    ]
  },
  "6e0e330a99bf": {
    "id": "6e0e330a99bf",
    "label": "5 RUE CORNEILLE, Puisserguier",
    "lat": 43.366968,
    "lng": 3.038956,
    "transactions": [
      {
        "date": "2024-12-27",
        "priceEur": 87500,
        "typeLocal": "Maison",
        "surfaceM2": 115,
        "isVefa": false
      }
    ]
  },
  "3c8734f44e05": {
    "id": "3c8734f44e05",
    "label": "25 RUE CAMBON, Puisserguier",
    "lat": 43.367249,
    "lng": 3.03966,
    "transactions": [
      {
        "date": "2024-12-20",
        "priceEur": 36000,
        "typeLocal": "Maison",
        "surfaceM2": 24,
        "isVefa": false
      }
    ]
  },
  "e7df305f3d18": {
    "id": "e7df305f3d18",
    "label": "28 RUE DE LA REPUBLIQUE, Puisserguier",
    "lat": 43.3682,
    "lng": 3.03945,
    "transactions": [
      {
        "date": "2025-01-27",
        "priceEur": 110000,
        "typeLocal": "Maison",
        "surfaceM2": 69,
        "isVefa": false
      }
    ]
  },
  "89620f095135": {
    "id": "89620f095135",
    "label": "14 RUE ROUGET DE L ISLE, Puisserguier",
    "lat": 43.367195,
    "lng": 3.039311,
    "transactions": [
      {
        "date": "2025-02-14",
        "priceEur": 61000,
        "typeLocal": "Maison",
        "surfaceM2": 96,
        "isVefa": false
      }
    ]
  },
  "53cff2d3ba1e": {
    "id": "53cff2d3ba1e",
    "label": "14 RUE CAMBON, Puisserguier",
    "lat": 43.367809,
    "lng": 3.040118,
    "transactions": [
      {
        "date": "2025-02-25",
        "priceEur": 37000,
        "typeLocal": "Maison",
        "surfaceM2": 45,
        "isVefa": false
      }
    ]
  },
  "104b17e10f56": {
    "id": "104b17e10f56",
    "label": "27 RUE CAMBON, Puisserguier",
    "lat": 43.367161,
    "lng": 3.03975,
    "transactions": [
      {
        "date": "2025-03-10",
        "priceEur": 85000,
        "typeLocal": "Maison",
        "surfaceM2": 60,
        "isVefa": false
      }
    ]
  },
  "7c60ae545f8e": {
    "id": "7c60ae545f8e",
    "label": "10 IMP NOTRE DAME, Puisserguier",
    "lat": 43.368426,
    "lng": 3.036948,
    "transactions": [
      {
        "date": "2025-03-05",
        "priceEur": 110000,
        "typeLocal": "Maison",
        "surfaceM2": 118,
        "isVefa": false
      }
    ]
  },
  "d14fd24f2b06": {
    "id": "d14fd24f2b06",
    "label": "5 IMP MARSEILLAISE, Puisserguier",
    "lat": 43.367604,
    "lng": 3.03882,
    "transactions": [
      {
        "date": "2025-03-27",
        "priceEur": 119000,
        "typeLocal": "Maison",
        "surfaceM2": 70,
        "isVefa": false
      }
    ]
  },
  "faf08d96ca4f": {
    "id": "faf08d96ca4f",
    "label": "5 CHE DE ST JULIEN, Puisserguier",
    "lat": 43.365721,
    "lng": 3.034859,
    "transactions": [
      {
        "date": "2025-04-03",
        "priceEur": 210000,
        "typeLocal": "Maison",
        "surfaceM2": 93,
        "isVefa": false
      }
    ]
  },
  "5d56382ce538": {
    "id": "5d56382ce538",
    "label": "7 RUE MARCEAU, Puisserguier",
    "lat": 43.369926,
    "lng": 3.037201,
    "transactions": [
      {
        "date": "2025-03-20",
        "priceEur": 219000,
        "typeLocal": "Maison",
        "surfaceM2": 65,
        "isVefa": false
      }
    ]
  },
  "e2bdc935f8d9": {
    "id": "e2bdc935f8d9",
    "label": "15 RUE DE BELFORT, Puisserguier",
    "lat": 43.368705,
    "lng": 3.040068,
    "transactions": [
      {
        "date": "2025-03-28",
        "priceEur": 40000,
        "typeLocal": "Maison",
        "surfaceM2": 86,
        "isVefa": false
      }
    ]
  },
  "084f360ca81e": {
    "id": "084f360ca81e",
    "label": "11 RUE NEUVE, Puisserguier",
    "lat": 43.36554,
    "lng": 3.038006,
    "transactions": [
      {
        "date": "2025-04-16",
        "priceEur": 155000,
        "typeLocal": "Maison",
        "surfaceM2": 90,
        "isVefa": false
      }
    ]
  },
  "1f320b54b58a": {
    "id": "1f320b54b58a",
    "label": "6 AV DE NARBONNE, Puisserguier",
    "lat": 43.366234,
    "lng": 3.040002,
    "transactions": [
      {
        "date": "2025-04-23",
        "priceEur": 195650,
        "typeLocal": "Maison",
        "surfaceM2": 68,
        "isVefa": false
      }
    ]
  }
}