{
  "c8a0d39c885b": {
    "id": "c8a0d39c885b",
    "label": "169 RUE DU CHENE, Ectot-l'Auber",
    "lat": 49.657071,
    "lng": 0.926053,
    "transactions": [
      {
        "date": "2021-07-24",
        "priceEur": 225000,
        "typeLocal": "Maison",
        "surfaceM2": 133,
        "isVefa": false
      }
    ]
  },
  "d4c1f61472df": {
    "id": "d4c1f61472df",
    "label": "5031 LE MESNIL, Ectot-l'Auber",
    "lat": 49.659415,
    "lng": 0.923538,
    "transactions": [
      {
        "date": "2021-11-10",
        "priceEur": 59500,
        "typeLocal": "Maison",
        "surfaceM2": 65,
        "isVefa": false
      }
    ]
  },
  "fe090f8ec74b": {
    "id": "fe090f8ec74b",
    "label": "145 RUE DE LA PETITE PLAINE, Ectot-l'Auber",
    "lat": 49.655823,
    "lng": 0.924988,
    "transactions": [
      {
        "date": "2021-12-03",
        "priceEur": 319200,
        "typeLocal": "Maison",
        "surfaceM2": 128,
        "isVefa": false
      }
    ]
  },
  "32d087387d38": {
    "id": "32d087387d38",
    "label": "236 RUE DU CHENE, Ectot-l'Auber",
    "lat": 49.65748,
    "lng": 0.925336,
    "transactions": [
      {
        "date": "2024-08-20",
        "priceEur": 76500,
        "typeLocal": "Maison",
        "surfaceM2": 80,
        "isVefa": false
      },
      {
        "date": "2021-11-22",
        "priceEur": 100000,
        "typeLocal": "Maison",
        "surfaceM2": 80,
        "isVefa": false
      }
    ]
  },
  "a4717864d4b6": {
    "id": "a4717864d4b6",
    "label": "53 RUE CAUCHOISE, Ectot-l'Auber",
    "lat": 49.657763,
    "lng": 0.924108,
    "transactions": [
      {
        "date": "2023-05-26",
        "priceEur": 175750,
        "typeLocal": "Maison",
        "surfaceM2": 80,
        "isVefa": false
      },
      {
        "date": "2022-03-18",
        "priceEur": 170000,
        "typeLocal": "Maison",
        "surfaceM2": 80,
        "isVefa": false
      }
    ]
  },
  "6874c45ed99b": {
    "id": "6874c45ed99b",
    "label": "45 RUE PLICHET, Ectot-l'Auber",
    "lat": 49.658651,
    "lng": 0.92318,
    "transactions": [
      {
        "date": "2022-08-11",
        "priceEur": 213400,
        "typeLocal": "Maison",
        "surfaceM2": 112,
        "isVefa": false
      }
    ]
  },
  "3e2ea75fb7e4": {
    "id": "3e2ea75fb7e4",
    "label": "3 RUE CAUCHOISE, Ectot-l'Auber",
    "lat": 49.657492,
    "lng": 0.924034,
    "transactions": [
      {
        "date": "2023-05-02",
        "priceEur": 141100,
        "typeLocal": "Maison",
        "surfaceM2": 104,
        "isVefa": false
      }
    ]
  },
  "838b8b9142c4": {
    "id": "838b8b9142c4",
    "label": "261 RUE DU CHENE, Ectot-l'Auber",
    "lat": 49.656803,
    "lng": 0.924994,
    "transactions": [
      {
        "date": "2023-11-13",
        "priceEur": 463000,
        "typeLocal": "Maison",
        "surfaceM2": 150,
        "isVefa": false
      }
    ]
  },
  "87fbc0fb6cc6": {
    "id": "87fbc0fb6cc6",
    "label": "137 RUE DE LA PETITE PLAINE, Ectot-l'Auber",
    "lat": 49.655979,
    "lng": 0.924584,
    "transactions": [
      {
        "date": "2023-12-27",
        "priceEur": 228000,
        "typeLocal": "Maison",
        "surfaceM2": 110,
        "isVefa": false
      }
    ]
  },
  "693a2f609375": {
    "id": "693a2f609375",
    "label": "3 RUE VERTE, Ectot-l'Auber",
    "lat": 49.658814,
    "lng": 0.92488,
    "transactions": [
      {
        "date": "2024-02-08",
        "priceEur": 162000,
        "typeLocal": "Maison",
        "surfaceM2": 80,
        "isVefa": false
      }
    ]
  }
}