{
  "f0cbf857d341": {
    "id": "f0cbf857d341",
    "label": "80 RTE DES MONTS, Anneville-Ambourville",
    "lat": 49.465812,
    "lng": 0.924287,
    "transactions": [
      {
        "date": "2021-07-01",
        "priceEur": 148000,
        "typeLocal": "Maison",
        "surfaceM2": 118,
        "isVefa": false
      }
    ]
  },
  "71b412aebbe4": {
    "id": "71b412aebbe4",
    "label": "159 RTE DES MONTS, Anneville-Ambourville",
    "lat": 49.465432,
    "lng": 0.925405,
    "transactions": [
      {
        "date": "2024-11-12",
        "priceEur": 245770,
        "typeLocal": "Maison",
        "surfaceM2": 125,
        "isVefa": false
      },
      {
        "date": "2021-07-16",
        "priceEur": 232750,
        "typeLocal": "Maison",
        "surfaceM2": 125,
        "isVefa": false
      }
    ]
  },
  "37c70adc8b74": {
    "id": "37c70adc8b74",
    "label": "7051 LE BOURG, Anneville-Ambourville",
    "lat": 49.466879,
    "lng": 0.92429,
    "transactions": [
      {
        "date": "2022-12-01",
        "priceEur": 160000,
        "typeLocal": "Maison",
        "surfaceM2": 97,
        "isVefa": false
      }
    ]
  },
  "8b51af7aebb4": {
    "id": "8b51af7aebb4",
    "label": "6011 AMBOURVILLE, Anneville-Ambourville",
    "lat": 49.466691,
    "lng": 0.925981,
    "transactions": [
      {
        "date": "2022-12-01",
        "priceEur": 209700,
        "typeLocal": "Maison",
        "surfaceM2": 59,
        "isVefa": false
      }
    ]
  },
  "bcd902b404db": {
    "id": "bcd902b404db",
    "label": "1485 RUE DE LA GRANDE VOIE, Anneville-Ambourville",
    "lat": 49.467234,
    "lng": 0.924925,
    "transactions": [
      {
        "date": "2024-05-13",
        "priceEur": 130000,
        "typeLocal": "Maison",
        "surfaceM2": 78,
        "isVefa": false
      }
    ]
  },
  "ee23bda20522": {
    "id": "ee23bda20522",
    "label": "1167 RTE DU VILLAGE, Anneville-Ambourville",
    "lat": 49.46595,
    "lng": 0.926496,
    "transactions": [
      {
        "date": "2024-06-25",
        "priceEur": 189130,
        "typeLocal": "Maison",
        "surfaceM2": 84,
        "isVefa": false
      }
    ]
  }
}