{
  "d34d4ff6215d": {
    "id": "d34d4ff6215d",
    "label": "14 RUE DE LA VAUGELY, Teyran",
    "lat": 43.688327,
    "lng": 3.923679,
    "transactions": [
      {
        "date": "2020-07-24",
        "priceEur": 190000,
        "typeLocal": "Maison",
        "surfaceM2": 126,
        "isVefa": false
      }
    ]
  },
  "5a9be5b93593": {
    "id": "5a9be5b93593",
    "label": "16 RUE TRUC DES MAZES, Teyran",
    "lat": 43.685571,
    "lng": 3.929758,
    "transactions": [
      {
        "date": "2023-07-04",
        "priceEur": 574470,
        "typeLocal": "Maison",
        "surfaceM2": 101,
        "isVefa": false
      },
      {
        "date": "2020-10-22",
        "priceEur": 340100,
        "typeLocal": "Maison",
        "surfaceM2": 101,
        "isVefa": false
      }
    ]
  },
  "0f32329eb433": {
    "id": "0f32329eb433",
    "label": "3B RUE BEL-AIR, Teyran",
    "lat": 43.684136,
    "lng": 3.923591,
    "transactions": [
      {
        "date": "2023-07-13",
        "priceEur": 321140,
        "typeLocal": "Appartement",
        "surfaceM2": 81,
        "isVefa": false
      },
      {
        "date": "2023-01-24",
        "priceEur": 359000,
        "typeLocal": "Maison",
        "surfaceM2": 92,
        "isVefa": false
      },
      {
        "date": "2022-07-20",
        "priceEur": 305000,
        "typeLocal": "Maison",
        "surfaceM2": 86,
        "isVefa": false
      },
      {
        "date": "2022-07-20",
        "priceEur": 305000,
        "typeLocal": "Appartement",
        "surfaceM2": 87,
        "isVefa": false
      },
      {
        "date": "2020-11-26",
        "priceEur": 275850,
        "typeLocal": "Appartement",
        "surfaceM2": 87,
        "isVefa": false
      }
    ]
  },
  "1adfb612aca4": {
    "id": "1adfb612aca4",
    "label": "16 RUE DU THYM, Teyran",
    "lat": 43.687232,
    "lng": 3.930408,
    "transactions": [
      {
        "date": "2020-12-16",
        "priceEur": 346500,
        "typeLocal": "Maison",
        "surfaceM2": 67,
        "isVefa": false
      }
    ]
  },
  "f43db0ce8b8d": {
    "id": "f43db0ce8b8d",
    "label": "5 IMP DES PINS, Teyran",
    "lat": 43.684989,
    "lng": 3.926039,
    "transactions": [
      {
        "date": "2020-12-22",
        "priceEur": 151000,
        "typeLocal": "Maison",
        "surfaceM2": 37,
        "isVefa": false
      }
    ]
  },
  "f826f69b4200": {
    "id": "f826f69b4200",
    "label": "10 RUE BEL-AIR, Teyran",
    "lat": 43.683954,
    "lng": 3.922933,
    "transactions": [
      {
        "date": "2020-12-23",
        "priceEur": 360750,
        "typeLocal": "Maison",
        "surfaceM2": 89,
        "isVefa": false
      }
    ]
  },
  "25b8f568713e": {
    "id": "25b8f568713e",
    "label": "7 RUE DES COMBES, Teyran",
    "lat": 43.685033,
    "lng": 3.92652,
    "transactions": [
      {
        "date": "2021-01-18",
        "priceEur": 568890,
        "typeLocal": "Maison",
        "surfaceM2": 168,
        "isVefa": false
      }
    ]
  },
  "deaaab8ef63b": {
    "id": "deaaab8ef63b",
    "label": "12 RUE BEL-AIR, Teyran",
    "lat": 43.684074,
    "lng": 3.922694,
    "transactions": [
      {
        "date": "2021-01-20",
        "priceEur": 318050,
        "typeLocal": "Maison",
        "surfaceM2": 80,
        "isVefa": false
      }
    ]
  },
  "4e9ac6991fbc": {
    "id": "4e9ac6991fbc",
    "label": "21 RUE BEL-AIR, Teyran",
    "lat": 43.685075,
    "lng": 3.923343,
    "transactions": [
      {
        "date": "2022-05-05",
        "priceEur": 524770,
        "typeLocal": "Maison",
        "surfaceM2": 122,
        "isVefa": false
      },
      {
        "date": "2021-01-15",
        "priceEur": 425000,
        "typeLocal": "Maison",
        "surfaceM2": 122,
        "isVefa": false
      }
    ]
  },
  "883b5a427751": {
    "id": "883b5a427751",
    "label": "1B RUE DES TROIS TEYRAN, Teyran",
    "lat": 43.688585,
    "lng": 3.929955,
    "transactions": [
      {
        "date": "2021-01-28",
        "priceEur": 364840,
        "typeLocal": "Maison",
        "surfaceM2": 105,
        "isVefa": false
      }
    ]
  },
  "97581ecdc38a": {
    "id": "97581ecdc38a",
    "label": "1B AV DE MONTPELLIER, Teyran",
    "lat": 43.684248,
    "lng": 3.924272,
    "transactions": [
      {
        "date": "2021-02-15",
        "priceEur": 268520,
        "typeLocal": "Maison",
        "surfaceM2": 46,
        "isVefa": false
      }
    ]
  },
  "5b0829a668d1": {
    "id": "5b0829a668d1",
    "label": "4 IMP DES ALOUETTES, Teyran",
    "lat": 43.688968,
    "lng": 3.926852,
    "transactions": [
      {
        "date": "2021-02-23",
        "priceEur": 475300,
        "typeLocal": "Maison",
        "surfaceM2": 117,
        "isVefa": false
      }
    ]
  },
  "23e652ce318b": {
    "id": "23e652ce318b",
    "label": "10 RUE DE LA VAUGELY, Teyran",
    "lat": 43.688174,
    "lng": 3.923135,
    "transactions": [
      {
        "date": "2021-03-17",
        "priceEur": 435000,
        "typeLocal": "Maison",
        "surfaceM2": 176,
        "isVefa": false
      }
    ]
  },
  "0f2abaa59df1": {
    "id": "0f2abaa59df1",
    "label": "18 RUE DE FIGARET, Teyran",
    "lat": 43.690606,
    "lng": 3.927257,
    "transactions": [
      {
        "date": "2021-04-23",
        "priceEur": 635500,
        "typeLocal": "Maison",
        "surfaceM2": 171,
        "isVefa": false
      },
      {
        "date": "2021-04-23",
        "priceEur": 635500,
        "typeLocal": "Maison",
        "surfaceM2": 171,
        "isVefa": false
      }
    ]
  },
  "50604c908f24": {
    "id": "50604c908f24",
    "label": "1 RUE DES COMBES, Teyran",
    "lat": 43.68473,
    "lng": 3.925968,
    "transactions": [
      {
        "date": "2021-04-21",
        "priceEur": 690000,
        "typeLocal": "Appartement",
        "surfaceM2": 44,
        "isVefa": false
      },
      {
        "date": "2021-04-21",
        "priceEur": 690000,
        "typeLocal": "Appartement",
        "surfaceM2": 84,
        "isVefa": false
      }
    ]
  },
  "7a955da1d18a": {
    "id": "7a955da1d18a",
    "label": "36 AV PLAN D AILAS, Teyran",
    "lat": 43.691071,
    "lng": 3.93092,
    "transactions": [
      {
        "date": "2021-05-21",
        "priceEur": 496500,
        "typeLocal": "Maison",
        "surfaceM2": 127,
        "isVefa": false
      }
    ]
  },
  "66c5b4e60d87": {
    "id": "66c5b4e60d87",
    "label": "11 AV DE MONTAUD, Teyran",
    "lat": 43.68759,
    "lng": 3.926782,
    "transactions": [
      {
        "date": "2021-06-03",
        "priceEur": 450000,
        "typeLocal": "Maison",
        "surfaceM2": 144,
        "isVefa": false
      },
      {
        "date": "2021-06-03",
        "priceEur": 450000,
        "typeLocal": "Maison",
        "surfaceM2": 144,
        "isVefa": false
      }
    ]
  },
  "39162f5919d8": {
    "id": "39162f5919d8",
    "label": "6 IMP DES LAVANDES, Teyran",
    "lat": 43.687029,
    "lng": 3.928374,
    "transactions": [
      {
        "date": "2021-06-30",
        "priceEur": 367000,
        "typeLocal": "Maison",
        "surfaceM2": 97,
        "isVefa": false
      }
    ]
  },
  "9c66adcefbe6": {
    "id": "9c66adcefbe6",
    "label": "14 RUE DES COMBES, Teyran",
    "lat": 43.685577,
    "lng": 3.928152,
    "transactions": [
      {
        "date": "2021-07-19",
        "priceEur": 124000,
        "typeLocal": "Maison",
        "surfaceM2": 145,
        "isVefa": false
      }
    ]
  },
  "3f1523fc8df7": {
    "id": "3f1523fc8df7",
    "label": "10 RUE DES PINS, Teyran",
    "lat": 43.687328,
    "lng": 3.929498,
    "transactions": [
      {
        "date": "2021-07-15",
        "priceEur": 300000,
        "typeLocal": "Maison",
        "surfaceM2": 90,
        "isVefa": false
      }
    ]
  },
  "bc115c1ff685": {
    "id": "bc115c1ff685",
    "label": "12 AV DE MONTAUD, Teyran",
    "lat": 43.687626,
    "lng": 3.927364,
    "transactions": [
      {
        "date": "2021-07-08",
        "priceEur": 428000,
        "typeLocal": "Maison",
        "surfaceM2": 85,
        "isVefa": false
      }
    ]
  },
  "a789c584b056": {
    "id": "a789c584b056",
    "label": "16 AV PLAN D AILAS, Teyran",
    "lat": 43.689202,
    "lng": 3.930303,
    "transactions": [
      {
        "date": "2021-08-16",
        "priceEur": 368375,
        "typeLocal": "Maison",
        "surfaceM2": 87,
        "isVefa": false
      }
    ]
  },
  "73cbf4806414": {
    "id": "73cbf4806414",
    "label": "9 AV DE MONTAUD, Teyran",
    "lat": 43.687199,
    "lng": 3.926105,
    "transactions": [
      {
        "date": "2021-08-10",
        "priceEur": 533000,
        "typeLocal": "Maison",
        "surfaceM2": 120,
        "isVefa": false
      },
      {
        "date": "2021-08-10",
        "priceEur": 533000,
        "typeLocal": "Maison",
        "surfaceM2": 120,
        "isVefa": false
      }
    ]
  },
  "21536d3ed967": {
    "id": "21536d3ed967",
    "label": "26 RUE DES TROIS TEYRAN, Teyran",
    "lat": 43.689259,
    "lng": 3.932743,
    "transactions": [
      {
        "date": "2021-08-02",
        "priceEur": 583800,
        "typeLocal": "Maison",
        "surfaceM2": 128,
        "isVefa": false
      }
    ]
  },
  "a57f0b89e8a2": {
    "id": "a57f0b89e8a2",
    "label": "14B RUE DU DEVES, Teyran",
    "lat": 43.684339,
    "lng": 3.926885,
    "transactions": [
      {
        "date": "2023-07-28",
        "priceEur": 262420,
        "typeLocal": "Maison",
        "surfaceM2": 87,
        "isVefa": false
      },
      {
        "date": "2021-08-09",
        "priceEur": 265000,
        "typeLocal": "Maison",
        "surfaceM2": 65,
        "isVefa": false
      }
    ]
  },
  "8b62a36e1ae7": {
    "id": "8b62a36e1ae7",
    "label": "26 RUE DES LAVANDES, Teyran",
    "lat": 43.686646,
    "lng": 3.927664,
    "transactions": [
      {
        "date": "2021-09-03",
        "priceEur": 588700,
        "typeLocal": "Maison",
        "surfaceM2": 103,
        "isVefa": false
      }
    ]
  },
  "088cc2cce0e1": {
    "id": "088cc2cce0e1",
    "label": "4 IMP DU PIC SAINT LOUP, Teyran",
    "lat": 43.685824,
    "lng": 3.929989,
    "transactions": [
      {
        "date": "2021-09-20",
        "priceEur": 579800,
        "typeLocal": "Maison",
        "surfaceM2": 146,
        "isVefa": false
      }
    ]
  },
  "e308f2247f32": {
    "id": "e308f2247f32",
    "label": "200 RUE DE LA PLAINE GUILLAUME, Teyran",
    "lat": 43.687738,
    "lng": 3.923589,
    "transactions": [
      {
        "date": "2021-09-24",
        "priceEur": 610000,
        "typeLocal": "Maison",
        "surfaceM2": 117,
        "isVefa": false
      }
    ]
  },
  "a7cbd37b1149": {
    "id": "a7cbd37b1149",
    "label": "4 IMP DU ROMARIN, Teyran",
    "lat": 43.690379,
    "lng": 3.931732,
    "transactions": [
      {
        "date": "2021-10-15",
        "priceEur": 531000,
        "typeLocal": "Maison",
        "surfaceM2": 107,
        "isVefa": false
      }
    ]
  },
  "d7388958e14a": {
    "id": "d7388958e14a",
    "label": "3 RUE DU CLAPAS, Teyran",
    "lat": 43.687965,
    "lng": 3.925025,
    "transactions": [
      {
        "date": "2021-11-03",
        "priceEur": 389000,
        "typeLocal": "Maison",
        "surfaceM2": 109,
        "isVefa": false
      },
      {
        "date": "2021-11-03",
        "priceEur": 389000,
        "typeLocal": "Maison",
        "surfaceM2": 107,
        "isVefa": false
      }
    ]
  },
  "1981917c309d": {
    "id": "1981917c309d",
    "label": "3 RUE BEL-AIR, Teyran",
    "lat": 43.684369,
    "lng": 3.923593,
    "transactions": [
      {
        "date": "2021-11-05",
        "priceEur": 500000,
        "typeLocal": "Maison",
        "surfaceM2": 109,
        "isVefa": false
      }
    ]
  },
  "042c3e095388": {
    "id": "042c3e095388",
    "label": "1B RUE DES FLEURS, Teyran",
    "lat": 43.689486,
    "lng": 3.925114,
    "transactions": [
      {
        "date": "2021-11-10",
        "priceEur": 512000,
        "typeLocal": "Maison",
        "surfaceM2": 140,
        "isVefa": false
      }
    ]
  },
  "688d44d26956": {
    "id": "688d44d26956",
    "label": "13 RUE DE FRANCE, Teyran",
    "lat": 43.686758,
    "lng": 3.925578,
    "transactions": [
      {
        "date": "2021-10-18",
        "priceEur": 487000,
        "typeLocal": "Maison",
        "surfaceM2": 160,
        "isVefa": false
      }
    ]
  },
  "d0e7411b3f3e": {
    "id": "d0e7411b3f3e",
    "label": "2 AV DE MONTAUD, Teyran",
    "lat": 43.685211,
    "lng": 3.925013,
    "transactions": [
      {
        "date": "2021-11-22",
        "priceEur": 406900,
        "typeLocal": "Maison",
        "surfaceM2": 147,
        "isVefa": false
      }
    ]
  },
  "c542bb6847bd": {
    "id": "c542bb6847bd",
    "label": "8B RUE DE FIGARET, Teyran",
    "lat": 43.689688,
    "lng": 3.926175,
    "transactions": [
      {
        "date": "2021-12-09",
        "priceEur": 661870,
        "typeLocal": "Maison",
        "surfaceM2": 128,
        "isVefa": false
      }
    ]
  },
  "75037b09b2c9": {
    "id": "75037b09b2c9",
    "label": "12 IMP DES CHANTERELLES, Teyran",
    "lat": 43.690724,
    "lng": 3.929112,
    "transactions": [
      {
        "date": "2022-02-07",
        "priceEur": 475000,
        "typeLocal": "Maison",
        "surfaceM2": 180,
        "isVefa": false
      }
    ]
  },
  "a7de806fdd48": {
    "id": "a7de806fdd48",
    "label": "30 RUE DES LAVANDES, Teyran",
    "lat": 43.686976,
    "lng": 3.92744,
    "transactions": [
      {
        "date": "2024-05-06",
        "priceEur": 115000,
        "typeLocal": "Appartement",
        "surfaceM2": 80,
        "isVefa": false
      },
      {
        "date": "2022-03-02",
        "priceEur": 287000,
        "typeLocal": "Appartement",
        "surfaceM2": 68,
        "isVefa": false
      }
    ]
  },
  "507c0ef47d7c": {
    "id": "507c0ef47d7c",
    "label": "22 AV DE MONTAUD, Teyran",
    "lat": 43.69051,
    "lng": 3.929046,
    "transactions": [
      {
        "date": "2022-03-01",
        "priceEur": 385000,
        "typeLocal": "Maison",
        "surfaceM2": 91,
        "isVefa": false
      }
    ]
  },
  "8ddd3bde33c9": {
    "id": "8ddd3bde33c9",
    "label": "7 RUE TRUC DES MAZES, Teyran",
    "lat": 43.684525,
    "lng": 3.929435,
    "transactions": [
      {
        "date": "2022-03-02",
        "priceEur": 500000,
        "typeLocal": "Maison",
        "surfaceM2": 136,
        "isVefa": false
      }
    ]
  },
  "2335a98f3bb2": {
    "id": "2335a98f3bb2",
    "label": "12 RUE DE MALRIVES, Teyran",
    "lat": 43.688887,
    "lng": 3.932515,
    "transactions": [
      {
        "date": "2022-04-25",
        "priceEur": 353450,
        "typeLocal": "Maison",
        "surfaceM2": 85,
        "isVefa": false
      }
    ]
  },
  "dbdc17a5be28": {
    "id": "dbdc17a5be28",
    "label": "8 RUE DE FIGARET, Teyran",
    "lat": 43.689338,
    "lng": 3.925877,
    "transactions": [
      {
        "date": "2022-05-30",
        "priceEur": 535000,
        "typeLocal": "Maison",
        "surfaceM2": 152,
        "isVefa": false
      }
    ]
  },
  "a00a360687ea": {
    "id": "a00a360687ea",
    "label": "14B RUE DES COMBES, Teyran",
    "lat": 43.685444,
    "lng": 3.928259,
    "transactions": [
      {
        "date": "2022-05-20",
        "priceEur": 620000,
        "typeLocal": "Maison",
        "surfaceM2": 125,
        "isVefa": false
      }
    ]
  },
  "d7f23fdf8b00": {
    "id": "d7f23fdf8b00",
    "label": "3 IMP DE L ENSOLEILLADE, Teyran",
    "lat": 43.689929,
    "lng": 3.92774,
    "transactions": [
      {
        "date": "2022-09-02",
        "priceEur": 577000,
        "typeLocal": "Maison",
        "surfaceM2": 134,
        "isVefa": false
      }
    ]
  },
  "16f5f41ca4f6": {
    "id": "16f5f41ca4f6",
    "label": "6 AV DE MONTAUD, Teyran",
    "lat": 43.686129,
    "lng": 3.925739,
    "transactions": [
      {
        "date": "2022-08-12",
        "priceEur": 50000,
        "typeLocal": "Maison",
        "surfaceM2": 97,
        "isVefa": false
      }
    ]
  },
  "b2a0a3fe2a46": {
    "id": "b2a0a3fe2a46",
    "label": "2B IMP FIGARET, Teyran",
    "lat": 43.691572,
    "lng": 3.926202,
    "transactions": [
      {
        "date": "2022-11-28",
        "priceEur": 652500,
        "typeLocal": "Maison",
        "surfaceM2": 168,
        "isVefa": false
      }
    ]
  },
  "b7cc4f2aa286": {
    "id": "b7cc4f2aa286",
    "label": "8 RUE DE MALRIVES, Teyran",
    "lat": 43.689028,
    "lng": 3.932848,
    "transactions": [
      {
        "date": "2022-12-12",
        "priceEur": 535800,
        "typeLocal": "Maison",
        "surfaceM2": 112,
        "isVefa": false
      }
    ]
  },
  "408def98682f": {
    "id": "408def98682f",
    "label": "1 RUE DE FIGARET, Teyran",
    "lat": 43.689157,
    "lng": 3.924962,
    "transactions": [
      {
        "date": "2023-03-07",
        "priceEur": 400000,
        "typeLocal": "Maison",
        "surfaceM2": 99,
        "isVefa": false
      }
    ]
  },
  "bf504f60d57e": {
    "id": "bf504f60d57e",
    "label": "12 RUE DE FIGARET, Teyran",
    "lat": 43.690323,
    "lng": 3.92677,
    "transactions": [
      {
        "date": "2023-05-03",
        "priceEur": 560050,
        "typeLocal": "Maison",
        "surfaceM2": 128,
        "isVefa": false
      },
      {
        "date": "2023-05-03",
        "priceEur": 560050,
        "typeLocal": "Maison",
        "surfaceM2": 128,
        "isVefa": false
      }
    ]
  },
  "35e86f740a8e": {
    "id": "35e86f740a8e",
    "label": "1 IMP CLAPAS, Teyran",
    "lat": 43.686659,
    "lng": 3.924843,
    "transactions": [
      {
        "date": "2025-03-24",
        "priceEur": 290000,
        "typeLocal": "Maison",
        "surfaceM2": 100,
        "isVefa": false
      },
      {
        "date": "2023-09-15",
        "priceEur": 372400,
        "typeLocal": "Maison",
        "surfaceM2": 99,
        "isVefa": false
      }
    ]
  },
  "1017298d37da": {
    "id": "1017298d37da",
    "label": "11 CHE DE MALRIVES, Teyran",
    "lat": 43.686911,
    "lng": 3.930676,
    "transactions": [
      {
        "date": "2023-11-06",
        "priceEur": 441800,
        "typeLocal": "Maison",
        "surfaceM2": 98,
        "isVefa": false
      }
    ]
  },
  "f524f0ea9fcc": {
    "id": "f524f0ea9fcc",
    "label": "6 IMP DES CHANTERELLES, Teyran",
    "lat": 43.69012,
    "lng": 3.929663,
    "transactions": [
      {
        "date": "2023-11-27",
        "priceEur": 341400,
        "typeLocal": "Maison",
        "surfaceM2": 110,
        "isVefa": false
      }
    ]
  },
  "f8dfb3856c40": {
    "id": "f8dfb3856c40",
    "label": "7 RUE DE FRANCE, Teyran",
    "lat": 43.686352,
    "lng": 3.924515,
    "transactions": [
      {
        "date": "2024-06-28",
        "priceEur": 300000,
        "typeLocal": "Maison",
        "surfaceM2": 100,
        "isVefa": false
      }
    ]
  },
  "1fec7ef8508d": {
    "id": "1fec7ef8508d",
    "label": "3B RUE DES LAUZIERES, Teyran",
    "lat": 43.688942,
    "lng": 3.923293,
    "transactions": [
      {
        "date": "2024-07-16",
        "priceEur": 274500,
        "typeLocal": "Appartement",
        "surfaceM2": 96,
        "isVefa": false
      }
    ]
  },
  "2871e1d309b4": {
    "id": "2871e1d309b4",
    "label": "20 RUE DES TROIS TEYRAN, Teyran",
    "lat": 43.688923,
    "lng": 3.931886,
    "transactions": [
      {
        "date": "2024-07-17",
        "priceEur": 157320,
        "typeLocal": "Maison",
        "surfaceM2": 70,
        "isVefa": false
      }
    ]
  },
  "d695dbe1ba63": {
    "id": "d695dbe1ba63",
    "label": "40B RUE DE LA PLAINE GUILLAUME, Teyran",
    "lat": 43.686419,
    "lng": 3.924026,
    "transactions": [
      {
        "date": "2024-07-15",
        "priceEur": 335500,
        "typeLocal": "Maison",
        "surfaceM2": 105,
        "isVefa": false
      }
    ]
  },
  "11b7261c2353": {
    "id": "11b7261c2353",
    "label": "300 LA PLAINE GUILLAUME, Teyran",
    "lat": 43.687996,
    "lng": 3.923541,
    "transactions": [
      {
        "date": "2024-08-09",
        "priceEur": 414300,
        "typeLocal": "Maison",
        "surfaceM2": 98,
        "isVefa": false
      }
    ]
  },
  "eae39223d825": {
    "id": "eae39223d825",
    "label": "3 IMP DES CHENES VERTS, Teyran",
    "lat": 43.689666,
    "lng": 3.931451,
    "transactions": [
      {
        "date": "2024-07-31",
        "priceEur": 535100,
        "typeLocal": "Maison",
        "surfaceM2": 134,
        "isVefa": false
      }
    ]
  },
  "413f4f5f4b7a": {
    "id": "413f4f5f4b7a",
    "label": "16 ALL DE MALRIVES, Teyran",
    "lat": 43.688777,
    "lng": 3.932397,
    "transactions": [
      {
        "date": "2024-11-28",
        "priceEur": 338265,
        "typeLocal": "Maison",
        "surfaceM2": 85,
        "isVefa": false
      }
    ]
  },
  "993ab8b5ec32": {
    "id": "993ab8b5ec32",
    "label": "3 RUE TRUC DES MAZES, Teyran",
    "lat": 43.684442,
    "lng": 3.930034,
    "transactions": [
      {
        "date": "2024-12-30",
        "priceEur": 275000,
        "typeLocal": "Maison",
        "surfaceM2": 39,
        "isVefa": false
      }
    ]
  },
  "ab0f2d9931d9": {
    "id": "ab0f2d9931d9",
    "label": "23 RUE DES CHENES VERTS, Teyran",
    "lat": 43.691199,
    "lng": 3.932086,
    "transactions": [
      {
        "date": "2025-05-06",
        "priceEur": 473250,
        "typeLocal": "Maison",
        "surfaceM2": 124,
        "isVefa": false
      }
    ]
  }
}