{
  "c5efeb7f90c7": {
    "id": "c5efeb7f90c7",
    "label": "12 RUE DE L AVENIR, Teyran",
    "lat": 43.683097,
    "lng": 3.923318,
    "transactions": [
      {
        "date": "2020-07-28",
        "priceEur": 676600,
        "typeLocal": "Maison",
        "surfaceM2": 220,
        "isVefa": false
      }
    ]
  },
  "77213c0c8403": {
    "id": "77213c0c8403",
    "label": "22 RUE DU PERDIGAL, Teyran",
    "lat": 43.677666,
    "lng": 3.928822,
    "transactions": [
      {
        "date": "2020-07-16",
        "priceEur": 521160,
        "typeLocal": "Maison",
        "surfaceM2": 106,
        "isVefa": false
      }
    ]
  },
  "60128f17d49c": {
    "id": "60128f17d49c",
    "label": "13 RUE DU HAUTBOIS, Teyran",
    "lat": 43.679239,
    "lng": 3.926127,
    "transactions": [
      {
        "date": "2020-07-23",
        "priceEur": 492000,
        "typeLocal": "Maison",
        "surfaceM2": 197,
        "isVefa": false
      },
      {
        "date": "2020-07-23",
        "priceEur": 492000,
        "typeLocal": "Maison",
        "surfaceM2": 136,
        "isVefa": false
      },
      {
        "date": "2020-07-23",
        "priceEur": 492000,
        "typeLocal": "Maison",
        "surfaceM2": 136,
        "isVefa": false
      },
      {
        "date": "2020-07-23",
        "priceEur": 492000,
        "typeLocal": "Maison",
        "surfaceM2": 197,
        "isVefa": false
      }
    ]
  },
  "6b78ac6f04d1": {
    "id": "6b78ac6f04d1",
    "label": "115 IMP LES CAPRIERS, Teyran",
    "lat": 43.681004,
    "lng": 3.927156,
    "transactions": [
      {
        "date": "2020-08-20",
        "priceEur": 85000,
        "typeLocal": "Appartement",
        "surfaceM2": 47,
        "isVefa": false
      }
    ]
  },
  "553a7124a0ce": {
    "id": "553a7124a0ce",
    "label": "65 RUE HELIOS, Teyran",
    "lat": 43.681072,
    "lng": 3.924701,
    "transactions": [
      {
        "date": "2020-08-21",
        "priceEur": 402560,
        "typeLocal": "Maison",
        "surfaceM2": 99,
        "isVefa": false
      }
    ]
  },
  "485f47264995": {
    "id": "485f47264995",
    "label": "18 AV DE VENDARGUES, Teyran",
    "lat": 43.678578,
    "lng": 3.930995,
    "transactions": [
      {
        "date": "2021-12-10",
        "priceEur": 210370,
        "typeLocal": "Appartement",
        "surfaceM2": 56,
        "isVefa": false
      },
      {
        "date": "2021-09-30",
        "priceEur": 201850,
        "typeLocal": "Appartement",
        "surfaceM2": 56,
        "isVefa": false
      },
      {
        "date": "2021-06-16",
        "priceEur": 355600,
        "typeLocal": "Maison",
        "surfaceM2": 75,
        "isVefa": false
      },
      {
        "date": "2020-09-09",
        "priceEur": 320600,
        "typeLocal": "Maison",
        "surfaceM2": 75,
        "isVefa": false
      },
      {
        "date": "2020-09-07",
        "priceEur": 179000,
        "typeLocal": "Appartement",
        "surfaceM2": 56,
        "isVefa": false
      }
    ]
  },
  "6c14f3dbd2ae": {
    "id": "6c14f3dbd2ae",
    "label": "5 IMP DES GARANCES, Teyran",
    "lat": 43.679953,
    "lng": 3.924982,
    "transactions": [
      {
        "date": "2020-10-13",
        "priceEur": 457000,
        "typeLocal": "Maison",
        "surfaceM2": 130,
        "isVefa": false
      }
    ]
  },
  "d316c95a7d6b": {
    "id": "d316c95a7d6b",
    "label": "2 RUE DES ARENES, Teyran",
    "lat": 43.682854,
    "lng": 3.925762,
    "transactions": [
      {
        "date": "2020-10-26",
        "priceEur": 355000,
        "typeLocal": "Maison",
        "surfaceM2": 104,
        "isVefa": false
      }
    ]
  },
  "aa879394e2c9": {
    "id": "aa879394e2c9",
    "label": "3 RUE DU ROCHER DE L ANE, Teyran",
    "lat": 43.682049,
    "lng": 3.928398,
    "transactions": [
      {
        "date": "2020-10-23",
        "priceEur": 290000,
        "typeLocal": "Maison",
        "surfaceM2": 85,
        "isVefa": false
      }
    ]
  },
  "e311c92e666d": {
    "id": "e311c92e666d",
    "label": "70 CHE DE TRANSIDE ET CABRIE, Teyran",
    "lat": 43.677792,
    "lng": 3.932216,
    "transactions": [
      {
        "date": "2020-12-30",
        "priceEur": 869130,
        "typeLocal": "Maison",
        "surfaceM2": 186,
        "isVefa": false
      },
      {
        "date": "2020-12-30",
        "priceEur": 869130,
        "typeLocal": "Maison",
        "surfaceM2": 186,
        "isVefa": false
      },
      {
        "date": "2020-12-30",
        "priceEur": 869130,
        "typeLocal": "Maison",
        "surfaceM2": 186,
        "isVefa": false
      }
    ]
  },
  "d441f57a942e": {
    "id": "d441f57a942e",
    "label": "35 RUE DU JEU DE MAIL, Teyran",
    "lat": 43.683355,
    "lng": 3.925732,
    "transactions": [
      {
        "date": "2025-05-23",
        "priceEur": 225000,
        "typeLocal": "Appartement",
        "surfaceM2": 77,
        "isVefa": false
      },
      {
        "date": "2024-07-18",
        "priceEur": 275000,
        "typeLocal": "Appartement",
        "surfaceM2": 86,
        "isVefa": false
      },
      {
        "date": "2023-02-15",
        "priceEur": 453740,
        "typeLocal": "Appartement",
        "surfaceM2": 110,
        "isVefa": false
      },
      {
        "date": "2022-05-18",
        "priceEur": 120000,
        "typeLocal": "Appartement",
        "surfaceM2": 53,
        "isVefa": false
      },
      {
        "date": "2021-09-30",
        "priceEur": 314000,
        "typeLocal": "Appartement",
        "surfaceM2": 86,
        "isVefa": false
      },
      {
        "date": "2021-07-12",
        "priceEur": 255000,
        "typeLocal": "Appartement",
        "surfaceM2": 75,
        "isVefa": false
      },
      {
        "date": "2021-06-30",
        "priceEur": 250000,
        "typeLocal": "Appartement",
        "surfaceM2": 61,
        "isVefa": false
      },
      {
        "date": "2021-01-28",
        "priceEur": 243000,
        "typeLocal": "Appartement",
        "surfaceM2": 75,
        "isVefa": false
      }
    ]
  },
  "4294415273ca": {
    "id": "4294415273ca",
    "label": "9 AV DE VENDARGUES, Teyran",
    "lat": 43.679495,
    "lng": 3.929129,
    "transactions": [
      {
        "date": "2021-02-15",
        "priceEur": 274000,
        "typeLocal": "Maison",
        "surfaceM2": 130,
        "isVefa": false
      }
    ]
  },
  "ecc67c0fe5cf": {
    "id": "ecc67c0fe5cf",
    "label": "4 RUE DES AMANDIERS, Teyran",
    "lat": 43.678796,
    "lng": 3.928178,
    "transactions": [
      {
        "date": "2021-03-29",
        "priceEur": 298000,
        "typeLocal": "Maison",
        "surfaceM2": 87,
        "isVefa": false
      }
    ]
  },
  "ec5cd359710e": {
    "id": "ec5cd359710e",
    "label": "7 RUE DES TULIPES, Teyran",
    "lat": 43.679435,
    "lng": 3.931639,
    "transactions": [
      {
        "date": "2021-03-31",
        "priceEur": 422000,
        "typeLocal": "Maison",
        "surfaceM2": 84,
        "isVefa": false
      }
    ]
  },
  "3643a57ec2d7": {
    "id": "3643a57ec2d7",
    "label": "12 RUE DES TAMARIS, Teyran",
    "lat": 43.680872,
    "lng": 3.930947,
    "transactions": [
      {
        "date": "2021-05-21",
        "priceEur": 435000,
        "typeLocal": "Maison",
        "surfaceM2": 122,
        "isVefa": false
      }
    ]
  },
  "2693000b42a6": {
    "id": "2693000b42a6",
    "label": "21 IMP DE LA RIVIERE, Teyran",
    "lat": 43.679445,
    "lng": 3.924373,
    "transactions": [
      {
        "date": "2021-05-27",
        "priceEur": 613000,
        "typeLocal": "Maison",
        "surfaceM2": 99,
        "isVefa": false
      }
    ]
  },
  "25cb11fa549b": {
    "id": "25cb11fa549b",
    "label": "3 IMP DE LA CHAPELLE, Teyran",
    "lat": 43.682951,
    "lng": 3.924318,
    "transactions": [
      {
        "date": "2021-07-13",
        "priceEur": 718800,
        "typeLocal": "Appartement",
        "surfaceM2": 165,
        "isVefa": false
      },
      {
        "date": "2021-07-13",
        "priceEur": 718800,
        "typeLocal": "Appartement",
        "surfaceM2": 19,
        "isVefa": false
      }
    ]
  },
  "c5ccb6e8a1d4": {
    "id": "c5ccb6e8a1d4",
    "label": "1B RUE DU PERDIGAL, Teyran",
    "lat": 43.679041,
    "lng": 3.926491,
    "transactions": [
      {
        "date": "2021-10-01",
        "priceEur": 670900,
        "typeLocal": "Maison",
        "surfaceM2": 163,
        "isVefa": false
      }
    ]
  },
  "d88cb480b63b": {
    "id": "d88cb480b63b",
    "label": "60 IMP LES CAPRIERS, Teyran",
    "lat": 43.680434,
    "lng": 3.927308,
    "transactions": [
      {
        "date": "2021-10-21",
        "priceEur": 523825,
        "typeLocal": "Maison",
        "surfaceM2": 117,
        "isVefa": false
      }
    ]
  },
  "ae162c689afc": {
    "id": "ae162c689afc",
    "label": "6 RUE DES TAMARIS, Teyran",
    "lat": 43.680387,
    "lng": 3.931254,
    "transactions": [
      {
        "date": "2021-10-21",
        "priceEur": 280097,
        "typeLocal": "Maison",
        "surfaceM2": 80,
        "isVefa": false
      }
    ]
  },
  "175203b84c90": {
    "id": "175203b84c90",
    "label": "2B IMP DU SQUARE, Teyran",
    "lat": 43.68266,
    "lng": 3.931294,
    "transactions": [
      {
        "date": "2021-11-02",
        "priceEur": 472360,
        "typeLocal": "Maison",
        "surfaceM2": 140,
        "isVefa": false
      }
    ]
  },
  "dd87c59aec4e": {
    "id": "dd87c59aec4e",
    "label": "4 RUE DES MIMOSAS, Teyran",
    "lat": 43.679114,
    "lng": 3.932039,
    "transactions": [
      {
        "date": "2021-11-18",
        "priceEur": 415590,
        "typeLocal": "Maison",
        "surfaceM2": 145,
        "isVefa": false
      }
    ]
  },
  "c451ec02b90f": {
    "id": "c451ec02b90f",
    "label": "2 RUE DE L AVENIR, Teyran",
    "lat": 43.68259,
    "lng": 3.924315,
    "transactions": [
      {
        "date": "2022-01-21",
        "priceEur": 308720,
        "typeLocal": "Maison",
        "surfaceM2": 83,
        "isVefa": false
      }
    ]
  },
  "a858f9e6001b": {
    "id": "a858f9e6001b",
    "label": "7 RUE DU ROCHER DE L ANE, Teyran",
    "lat": 43.682092,
    "lng": 3.928893,
    "transactions": [
      {
        "date": "2022-06-28",
        "priceEur": 411800,
        "typeLocal": "Maison",
        "surfaceM2": 151,
        "isVefa": false
      }
    ]
  },
  "6c8f3d0c510f": {
    "id": "6c8f3d0c510f",
    "label": "14 AV DE VENDARGUES, Teyran",
    "lat": 43.678694,
    "lng": 3.929936,
    "transactions": [
      {
        "date": "2022-06-15",
        "priceEur": 817000,
        "typeLocal": "Maison",
        "surfaceM2": 156,
        "isVefa": false
      }
    ]
  },
  "63621b31f55a": {
    "id": "63621b31f55a",
    "label": "55 RUE DU JEU DE MAIL, Teyran",
    "lat": 43.683445,
    "lng": 3.926113,
    "transactions": [
      {
        "date": "2022-06-30",
        "priceEur": 679370,
        "typeLocal": "Maison",
        "surfaceM2": 106,
        "isVefa": false
      }
    ]
  },
  "c5adf0d3bd57": {
    "id": "c5adf0d3bd57",
    "label": "900 AV DE VENDARGUES, Teyran",
    "lat": 43.677629,
    "lng": 3.932789,
    "transactions": [
      {
        "date": "2022-07-01",
        "priceEur": 450000,
        "typeLocal": "Maison",
        "surfaceM2": 332,
        "isVefa": false
      },
      {
        "date": "2022-07-01",
        "priceEur": 450000,
        "typeLocal": "Maison",
        "surfaceM2": 55,
        "isVefa": false
      }
    ]
  },
  "2fa406d21d41": {
    "id": "2fa406d21d41",
    "label": "3 RUE DE LA TOUR, Teyran",
    "lat": 43.683612,
    "lng": 3.9249,
    "transactions": [
      {
        "date": "2022-08-16",
        "priceEur": 220000,
        "typeLocal": "Maison",
        "surfaceM2": 82,
        "isVefa": false
      }
    ]
  },
  "ca66d6fb4ba6": {
    "id": "ca66d6fb4ba6",
    "label": "4 RUE DES HIRONDELLES, Teyran",
    "lat": 43.678654,
    "lng": 3.930186,
    "transactions": [
      {
        "date": "2022-09-09",
        "priceEur": 470000,
        "typeLocal": "Maison",
        "surfaceM2": 88,
        "isVefa": false
      }
    ]
  },
  "cd4478c0a192": {
    "id": "cd4478c0a192",
    "label": "1 RUE DE L AVENIR, Teyran",
    "lat": 43.682591,
    "lng": 3.924658,
    "transactions": [
      {
        "date": "2023-01-23",
        "priceEur": 302000,
        "typeLocal": "Maison",
        "surfaceM2": 92,
        "isVefa": false
      }
    ]
  },
  "04b83e08e3ec": {
    "id": "04b83e08e3ec",
    "label": "15 RUE DES ECOLES, Teyran",
    "lat": 43.683309,
    "lng": 3.929188,
    "transactions": [
      {
        "date": "2023-01-16",
        "priceEur": 556000,
        "typeLocal": "Maison",
        "surfaceM2": 106,
        "isVefa": false
      }
    ]
  },
  "05dfeb609c04": {
    "id": "05dfeb609c04",
    "label": "170 RUE DES COTEAUX, Teyran",
    "lat": 43.681173,
    "lng": 3.928789,
    "transactions": [
      {
        "date": "2023-01-20",
        "priceEur": 695000,
        "typeLocal": "Maison",
        "surfaceM2": 166,
        "isVefa": false
      }
    ]
  },
  "128d9dfd0068": {
    "id": "128d9dfd0068",
    "label": "3 RUE DES COTEAUX, Teyran",
    "lat": 43.679604,
    "lng": 3.930618,
    "transactions": [
      {
        "date": "2023-01-20",
        "priceEur": 373500,
        "typeLocal": "Maison",
        "surfaceM2": 68,
        "isVefa": false
      }
    ]
  },
  "36d07575d655": {
    "id": "36d07575d655",
    "label": "3 RUE HAUTE, Teyran",
    "lat": 43.682701,
    "lng": 3.92489,
    "transactions": [
      {
        "date": "2023-02-07",
        "priceEur": 387800,
        "typeLocal": "Maison",
        "surfaceM2": 73,
        "isVefa": false
      }
    ]
  },
  "7fd40b9b55d7": {
    "id": "7fd40b9b55d7",
    "label": "1 IMP DE LA CHAPELLE, Teyran",
    "lat": 43.682916,
    "lng": 3.924437,
    "transactions": [
      {
        "date": "2023-02-15",
        "priceEur": 160000,
        "typeLocal": "Maison",
        "surfaceM2": 57,
        "isVefa": false
      }
    ]
  },
  "bde693704c06": {
    "id": "bde693704c06",
    "label": "7 IMP DE LA RIVIERE, Teyran",
    "lat": 43.680136,
    "lng": 3.924597,
    "transactions": [
      {
        "date": "2024-11-05",
        "priceEur": 376960,
        "typeLocal": "Maison",
        "surfaceM2": 88,
        "isVefa": false
      },
      {
        "date": "2023-01-16",
        "priceEur": 417400,
        "typeLocal": "Maison",
        "surfaceM2": 88,
        "isVefa": false
      }
    ]
  },
  "49b88e46aa5a": {
    "id": "49b88e46aa5a",
    "label": "4 IMP DES GARANCES, Teyran",
    "lat": 43.680241,
    "lng": 3.925275,
    "transactions": [
      {
        "date": "2023-03-31",
        "priceEur": 445000,
        "typeLocal": "Maison",
        "surfaceM2": 102,
        "isVefa": false
      }
    ]
  },
  "eed7b623b80b": {
    "id": "eed7b623b80b",
    "label": "4 PL DU JEU DE BALLON, Teyran",
    "lat": 43.682867,
    "lng": 3.925001,
    "transactions": [
      {
        "date": "2023-04-27",
        "priceEur": 305000,
        "typeLocal": "Maison",
        "surfaceM2": 15,
        "isVefa": false
      },
      {
        "date": "2023-04-27",
        "priceEur": 305000,
        "typeLocal": "Appartement",
        "surfaceM2": 100,
        "isVefa": false
      }
    ]
  },
  "b439dab21ed0": {
    "id": "b439dab21ed0",
    "label": "5 IMP DES QUATRE VENTS, Teyran",
    "lat": 43.680904,
    "lng": 3.929447,
    "transactions": [
      {
        "date": "2023-07-05",
        "priceEur": 495878,
        "typeLocal": "Maison",
        "surfaceM2": 104,
        "isVefa": false
      }
    ]
  },
  "93fc425adb1c": {
    "id": "93fc425adb1c",
    "label": "1 RUE DES OLIVETTES, Teyran",
    "lat": 43.680002,
    "lng": 3.930337,
    "transactions": [
      {
        "date": "2023-09-19",
        "priceEur": 460000,
        "typeLocal": "Maison",
        "surfaceM2": 123,
        "isVefa": false
      }
    ]
  },
  "c78c9f668349": {
    "id": "c78c9f668349",
    "label": "3 PL DU JEU DE BALLON, Teyran",
    "lat": 43.683291,
    "lng": 3.925105,
    "transactions": [
      {
        "date": "2023-10-18",
        "priceEur": 295000,
        "typeLocal": "Maison",
        "surfaceM2": 100,
        "isVefa": false
      }
    ]
  },
  "56122ca529c2": {
    "id": "56122ca529c2",
    "label": "8 RUE DES OLIVETTES, Teyran",
    "lat": 43.680521,
    "lng": 3.929508,
    "transactions": [
      {
        "date": "2023-12-18",
        "priceEur": 477240,
        "typeLocal": "Maison",
        "surfaceM2": 92,
        "isVefa": false
      }
    ]
  },
  "fda2d90f2ac2": {
    "id": "fda2d90f2ac2",
    "label": "2 RUE DES HIRONDELLES, Teyran",
    "lat": 43.678834,
    "lng": 3.930283,
    "transactions": [
      {
        "date": "2024-01-25",
        "priceEur": 492000,
        "typeLocal": "Maison",
        "surfaceM2": 102,
        "isVefa": false
      }
    ]
  },
  "a8f373efee71": {
    "id": "a8f373efee71",
    "label": "4 IMP DE L ENCLOS, Teyran",
    "lat": 43.678965,
    "lng": 3.927541,
    "transactions": [
      {
        "date": "2024-06-27",
        "priceEur": 505000,
        "typeLocal": "Maison",
        "surfaceM2": 146,
        "isVefa": false
      }
    ]
  },
  "b80ae3c703e1": {
    "id": "b80ae3c703e1",
    "label": "5 RUE DU MONUMENT, Teyran",
    "lat": 43.683584,
    "lng": 3.924267,
    "transactions": [
      {
        "date": "2024-07-25",
        "priceEur": 899955,
        "typeLocal": "Appartement",
        "surfaceM2": 54,
        "isVefa": false
      },
      {
        "date": "2024-07-25",
        "priceEur": 899955,
        "typeLocal": "Appartement",
        "surfaceM2": 51,
        "isVefa": false
      }
    ]
  },
  "a4e3e15a77f1": {
    "id": "a4e3e15a77f1",
    "label": "3 AV DE VENDARGUES, Teyran",
    "lat": 43.681809,
    "lng": 3.922995,
    "transactions": [
      {
        "date": "2024-08-08",
        "priceEur": 340000,
        "typeLocal": "Maison",
        "surfaceM2": 119,
        "isVefa": false
      }
    ]
  },
  "b1a50c3f3674": {
    "id": "b1a50c3f3674",
    "label": "10 RUE DES HIRONDELLES, Teyran",
    "lat": 43.678007,
    "lng": 3.930117,
    "transactions": [
      {
        "date": "2024-10-30",
        "priceEur": 543200,
        "typeLocal": "Maison",
        "surfaceM2": 129,
        "isVefa": false
      }
    ]
  },
  "4337917da282": {
    "id": "4337917da282",
    "label": "8 IMP DU VAL DE TEYRAN, Teyran",
    "lat": 43.678874,
    "lng": 3.927134,
    "transactions": [
      {
        "date": "2025-01-31",
        "priceEur": 506900,
        "typeLocal": "Maison",
        "surfaceM2": 123,
        "isVefa": false
      }
    ]
  },
  "6aff1d45f54a": {
    "id": "6aff1d45f54a",
    "label": "11 IMP DES GARANCES, Teyran",
    "lat": 43.68058,
    "lng": 3.924761,
    "transactions": [
      {
        "date": "2025-03-21",
        "priceEur": 426962,
        "typeLocal": "Maison",
        "surfaceM2": 105,
        "isVefa": false
      }
    ]
  },
  "187c3a2759f1": {
    "id": "187c3a2759f1",
    "label": "6 RUE DES REMPARTS, Teyran",
    "lat": 43.68266,
    "lng": 3.924232,
    "transactions": [
      {
        "date": "2025-04-09",
        "priceEur": 160000,
        "typeLocal": "Maison",
        "surfaceM2": 76,
        "isVefa": false
      }
    ]
  }
}