{
  "7e55b4c58889": {
    "id": "7e55b4c58889",
    "label": "18 RUE BACCHUS, Castelnau-le-Lez",
    "lat": 43.644835,
    "lng": 3.925081,
    "transactions": [
      {
        "date": "2020-08-14",
        "priceEur": 333000,
        "typeLocal": "Maison",
        "surfaceM2": 87,
        "isVefa": false
      }
    ]
  },
  "7c990e3b0bb5": {
    "id": "7c990e3b0bb5",
    "label": "2 PL BACCHUS, Castelnau-le-Lez",
    "lat": 43.645052,
    "lng": 3.926858,
    "transactions": [
      {
        "date": "2020-07-20",
        "priceEur": 316050,
        "typeLocal": "Maison",
        "surfaceM2": 90,
        "isVefa": false
      }
    ]
  },
  "89517625a2db": {
    "id": "89517625a2db",
    "label": "11 RUE LOUISE MICHEL, Le Crès",
    "lat": 43.651646,
    "lng": 3.92835,
    "transactions": [
      {
        "date": "2020-08-26",
        "priceEur": 467500,
        "typeLocal": "Maison",
        "surfaceM2": 100,
        "isVefa": false
      }
    ]
  },
  "0209d03a35bf": {
    "id": "0209d03a35bf",
    "label": "3 RUE RAYMOND-ROGER TRENCAVEL, Le Crès",
    "lat": 43.651111,
    "lng": 3.930135,
    "transactions": [
      {
        "date": "2025-02-10",
        "priceEur": 175000,
        "typeLocal": "Appartement",
        "surfaceM2": 44,
        "isVefa": false
      },
      {
        "date": "2023-09-25",
        "priceEur": 185000,
        "typeLocal": "Appartement",
        "surfaceM2": 46,
        "isVefa": false
      },
      {
        "date": "2023-05-09",
        "priceEur": 194000,
        "typeLocal": "Appartement",
        "surfaceM2": 48,
        "isVefa": false
      },
      {
        "date": "2020-10-09",
        "priceEur": 201657,
        "typeLocal": "Appartement",
        "surfaceM2": 48,
        "isVefa": false
      }
    ]
  },
  "155dcf4369be": {
    "id": "155dcf4369be",
    "label": "23 RUE DES TRITONS, Castelnau-le-Lez",
    "lat": 43.64528,
    "lng": 3.928635,
    "transactions": [
      {
        "date": "2020-11-16",
        "priceEur": 675880,
        "typeLocal": "Maison",
        "surfaceM2": 110,
        "isVefa": false
      }
    ]
  },
  "1a06f50a11a2": {
    "id": "1a06f50a11a2",
    "label": "1B RUE DU FAISAN, Le Crès",
    "lat": 43.649004,
    "lng": 3.930967,
    "transactions": [
      {
        "date": "2020-11-03",
        "priceEur": 297000,
        "typeLocal": "Appartement",
        "surfaceM2": 65,
        "isVefa": false
      }
    ]
  },
  "c86101fbdfe4": {
    "id": "c86101fbdfe4",
    "label": "2 RUE RAYMOND-ROGER TRENCAVEL, Le Crès",
    "lat": 43.651454,
    "lng": 3.93015,
    "transactions": [
      {
        "date": "2021-01-06",
        "priceEur": 425270,
        "typeLocal": "Maison",
        "surfaceM2": 116,
        "isVefa": false
      }
    ]
  },
  "2ee110f738da": {
    "id": "2ee110f738da",
    "label": "42 RUE TITUS, Castelnau-le-Lez",
    "lat": 43.644462,
    "lng": 3.923382,
    "transactions": [
      {
        "date": "2021-01-11",
        "priceEur": 330000,
        "typeLocal": "Maison",
        "surfaceM2": 87,
        "isVefa": false
      }
    ]
  },
  "b47434937fbf": {
    "id": "b47434937fbf",
    "label": "4 RUE GEORGES FRECHE, Le Crès",
    "lat": 43.645271,
    "lng": 3.931167,
    "transactions": [
      {
        "date": "2021-03-03",
        "priceEur": 435000,
        "typeLocal": "Maison",
        "surfaceM2": 96,
        "isVefa": false
      }
    ]
  },
  "7b756fb5f61d": {
    "id": "7b756fb5f61d",
    "label": "34 RUE DE L HIRONDELLE, Le Crès",
    "lat": 43.644253,
    "lng": 3.932141,
    "transactions": [
      {
        "date": "2021-03-23",
        "priceEur": 496600,
        "typeLocal": "Maison",
        "surfaceM2": 102,
        "isVefa": false
      }
    ]
  },
  "7d13945aa37d": {
    "id": "7d13945aa37d",
    "label": "3 IMP MARIE DURAND, Le Crès",
    "lat": 43.650986,
    "lng": 3.928151,
    "transactions": [
      {
        "date": "2024-01-15",
        "priceEur": 189000,
        "typeLocal": "Appartement",
        "surfaceM2": 48,
        "isVefa": false
      },
      {
        "date": "2023-07-25",
        "priceEur": 200000,
        "typeLocal": "Appartement",
        "surfaceM2": 48,
        "isVefa": false
      },
      {
        "date": "2023-06-15",
        "priceEur": 194040,
        "typeLocal": "Appartement",
        "surfaceM2": 45,
        "isVefa": false
      },
      {
        "date": "2023-04-25",
        "priceEur": 206000,
        "typeLocal": "Appartement",
        "surfaceM2": 47,
        "isVefa": false
      },
      {
        "date": "2023-04-05",
        "priceEur": 270000,
        "typeLocal": "Appartement",
        "surfaceM2": 64,
        "isVefa": false
      },
      {
        "date": "2023-01-27",
        "priceEur": 263000,
        "typeLocal": "Appartement",
        "surfaceM2": 63,
        "isVefa": false
      },
      {
        "date": "2022-11-21",
        "priceEur": 265000,
        "typeLocal": "Appartement",
        "surfaceM2": 68,
        "isVefa": false
      },
      {
        "date": "2022-10-27",
        "priceEur": 185000,
        "typeLocal": "Appartement",
        "surfaceM2": 49,
        "isVefa": false
      },
      {
        "date": "2022-08-19",
        "priceEur": 223000,
        "typeLocal": "Appartement",
        "surfaceM2": 49,
        "isVefa": false
      },
      {
        "date": "2022-07-29",
        "priceEur": 185000,
        "typeLocal": "Appartement",
        "surfaceM2": 50,
        "isVefa": false
      },
      {
        "date": "2022-06-28",
        "priceEur": 210200,
        "typeLocal": "Appartement",
        "surfaceM2": 48,
        "isVefa": false
      },
      {
        "date": "2021-11-30",
        "priceEur": 10000,
        "typeLocal": "Appartement",
        "surfaceM2": 68,
        "isVefa": false
      },
      {
        "date": "2021-09-29",
        "priceEur": 306400,
        "typeLocal": "Appartement",
        "surfaceM2": 74,
        "isVefa": false
      },
      {
        "date": "2021-05-06",
        "priceEur": 212000,
        "typeLocal": "Appartement",
        "surfaceM2": 48,
        "isVefa": false
      }
    ]
  },
  "24c8e3af43b5": {
    "id": "24c8e3af43b5",
    "label": "21 RUE TITUS, Castelnau-le-Lez",
    "lat": 43.644635,
    "lng": 3.922904,
    "transactions": [
      {
        "date": "2021-05-05",
        "priceEur": 175805,
        "typeLocal": "Maison",
        "surfaceM2": 95,
        "isVefa": false
      }
    ]
  },
  "7c33b39bbcd7": {
    "id": "7c33b39bbcd7",
    "label": "7 RUE DES DOMITIENNES, Castelnau-le-Lez",
    "lat": 43.645639,
    "lng": 3.928469,
    "transactions": [
      {
        "date": "2021-05-17",
        "priceEur": 409300,
        "typeLocal": "Maison",
        "surfaceM2": 93,
        "isVefa": false
      }
    ]
  },
  "48606a7ad402": {
    "id": "48606a7ad402",
    "label": "26 AV DES SABINES, Castelnau-le-Lez",
    "lat": 43.644131,
    "lng": 3.926148,
    "transactions": [
      {
        "date": "2021-05-17",
        "priceEur": 385000,
        "typeLocal": "Maison",
        "surfaceM2": 100,
        "isVefa": false
      }
    ]
  },
  "ff4de65367bb": {
    "id": "ff4de65367bb",
    "label": "19 RUE GEORGES FRECHE, Le Crès",
    "lat": 43.646116,
    "lng": 3.931164,
    "transactions": [
      {
        "date": "2021-06-09",
        "priceEur": 441550,
        "typeLocal": "Maison",
        "surfaceM2": 80,
        "isVefa": false
      }
    ]
  },
  "cd33a40fa6dc": {
    "id": "cd33a40fa6dc",
    "label": "28 RUE DE L HIRONDELLE, Le Crès",
    "lat": 43.644602,
    "lng": 3.932084,
    "transactions": [
      {
        "date": "2021-06-02",
        "priceEur": 415000,
        "typeLocal": "Maison",
        "surfaceM2": 126,
        "isVefa": false
      }
    ]
  },
  "d546e935fc15": {
    "id": "d546e935fc15",
    "label": "15 RUE DES GLADIATEURS, Castelnau-le-Lez",
    "lat": 43.644253,
    "lng": 3.925235,
    "transactions": [
      {
        "date": "2023-07-10",
        "priceEur": 165495,
        "typeLocal": "Appartement",
        "surfaceM2": 52,
        "isVefa": false
      },
      {
        "date": "2023-04-12",
        "priceEur": 242845,
        "typeLocal": "Appartement",
        "surfaceM2": 86,
        "isVefa": false
      },
      {
        "date": "2023-01-05",
        "priceEur": 126555,
        "typeLocal": "Appartement",
        "surfaceM2": 52,
        "isVefa": false
      },
      {
        "date": "2022-06-08",
        "priceEur": 156000,
        "typeLocal": "Appartement",
        "surfaceM2": 52,
        "isVefa": false
      },
      {
        "date": "2021-08-04",
        "priceEur": 160000,
        "typeLocal": "Appartement",
        "surfaceM2": 86,
        "isVefa": false
      },
      {
        "date": "2021-06-09",
        "priceEur": 169000,
        "typeLocal": "Appartement",
        "surfaceM2": 86,
        "isVefa": false
      }
    ]
  },
  "adaae112475f": {
    "id": "adaae112475f",
    "label": "32 RUE DES GLADIATEURS, Castelnau-le-Lez",
    "lat": 43.644479,
    "lng": 3.92607,
    "transactions": [
      {
        "date": "2021-07-09",
        "priceEur": 330150,
        "typeLocal": "Maison",
        "surfaceM2": 98,
        "isVefa": false
      }
    ]
  },
  "7f9a1f9b710b": {
    "id": "7f9a1f9b710b",
    "label": "2B RUE DU FAISAN, Le Crès",
    "lat": 43.649859,
    "lng": 3.931244,
    "transactions": [
      {
        "date": "2023-01-03",
        "priceEur": 217500,
        "typeLocal": "Appartement",
        "surfaceM2": 42,
        "isVefa": false
      },
      {
        "date": "2022-11-10",
        "priceEur": 285000,
        "typeLocal": "Appartement",
        "surfaceM2": 62,
        "isVefa": false
      },
      {
        "date": "2021-11-26",
        "priceEur": 205000,
        "typeLocal": "Appartement",
        "surfaceM2": 48,
        "isVefa": false
      },
      {
        "date": "2021-11-08",
        "priceEur": 315005,
        "typeLocal": "Appartement",
        "surfaceM2": 67,
        "isVefa": false
      },
      {
        "date": "2021-08-05",
        "priceEur": 199400,
        "typeLocal": "Appartement",
        "surfaceM2": 42,
        "isVefa": false
      },
      {
        "date": "2021-07-15",
        "priceEur": 169500,
        "typeLocal": "Appartement",
        "surfaceM2": 42,
        "isVefa": false
      }
    ]
  },
  "467f396f90e2": {
    "id": "467f396f90e2",
    "label": "2J RUE DU FAISAN, Le Crès",
    "lat": 43.649859,
    "lng": 3.931244,
    "transactions": [
      {
        "date": "2021-08-13",
        "priceEur": 421000,
        "typeLocal": "Maison",
        "surfaceM2": 104,
        "isVefa": false
      }
    ]
  },
  "9c7c3403cddd": {
    "id": "9c7c3403cddd",
    "label": "2A RUE DU FAISAN, Le Crès",
    "lat": 43.649859,
    "lng": 3.931244,
    "transactions": [
      {
        "date": "2024-08-21",
        "priceEur": 323500,
        "typeLocal": "Appartement",
        "surfaceM2": 79,
        "isVefa": false
      },
      {
        "date": "2024-06-12",
        "priceEur": 268950,
        "typeLocal": "Appartement",
        "surfaceM2": 63,
        "isVefa": false
      },
      {
        "date": "2023-03-06",
        "priceEur": 230000,
        "typeLocal": "Appartement",
        "surfaceM2": 46,
        "isVefa": false
      },
      {
        "date": "2022-06-15",
        "priceEur": 346890,
        "typeLocal": "Appartement",
        "surfaceM2": 89,
        "isVefa": false
      },
      {
        "date": "2021-08-26",
        "priceEur": 164620,
        "typeLocal": "Appartement",
        "surfaceM2": 42,
        "isVefa": false
      },
      {
        "date": "2021-08-24",
        "priceEur": 250000,
        "typeLocal": "Appartement",
        "surfaceM2": 60,
        "isVefa": false
      }
    ]
  },
  "687ab94e112e": {
    "id": "687ab94e112e",
    "label": "1 RUE RAYMOND-ROGER TRENCAVEL, Le Crès",
    "lat": 43.651111,
    "lng": 3.930135,
    "transactions": [
      {
        "date": "2025-01-30",
        "priceEur": 189600,
        "typeLocal": "Appartement",
        "surfaceM2": 46,
        "isVefa": false
      },
      {
        "date": "2024-01-11",
        "priceEur": 228000,
        "typeLocal": "Appartement",
        "surfaceM2": 63,
        "isVefa": false
      },
      {
        "date": "2022-12-15",
        "priceEur": 186666.67,
        "typeLocal": "Appartement",
        "surfaceM2": 60,
        "isVefa": false
      },
      {
        "date": "2021-09-10",
        "priceEur": 275500,
        "typeLocal": "Appartement",
        "surfaceM2": 60,
        "isVefa": false
      }
    ]
  },
  "bd01de759662": {
    "id": "bd01de759662",
    "label": "69 AV DES VENUS, Castelnau-le-Lez",
    "lat": 43.645281,
    "lng": 3.923258,
    "transactions": [
      {
        "date": "2021-09-10",
        "priceEur": 379400,
        "typeLocal": "Maison",
        "surfaceM2": 88,
        "isVefa": false
      }
    ]
  },
  "1559d96fee12": {
    "id": "1559d96fee12",
    "label": "2G RUE DU FAISAN, Le Crès",
    "lat": 43.649859,
    "lng": 3.931244,
    "transactions": [
      {
        "date": "2021-09-23",
        "priceEur": 355850,
        "typeLocal": "Maison",
        "surfaceM2": 96,
        "isVefa": false
      }
    ]
  },
  "14c46cca391e": {
    "id": "14c46cca391e",
    "label": "16 RUE DU CAPITOLE, Castelnau-le-Lez",
    "lat": 43.64603,
    "lng": 3.923911,
    "transactions": [
      {
        "date": "2021-10-14",
        "priceEur": 800000,
        "typeLocal": "Maison",
        "surfaceM2": 202,
        "isVefa": false
      }
    ]
  },
  "2e1f799199e4": {
    "id": "2e1f799199e4",
    "label": "2C RUE DU FAISAN, Le Crès",
    "lat": 43.649859,
    "lng": 3.931244,
    "transactions": [
      {
        "date": "2021-10-29",
        "priceEur": 449000,
        "typeLocal": "Appartement",
        "surfaceM2": 96,
        "isVefa": false
      }
    ]
  },
  "99de7a1ca59d": {
    "id": "99de7a1ca59d",
    "label": "2 RUE LOUISE MICHEL, Le Crès",
    "lat": 43.651725,
    "lng": 3.929348,
    "transactions": [
      {
        "date": "2025-04-11",
        "priceEur": 190500,
        "typeLocal": "Appartement",
        "surfaceM2": 46,
        "isVefa": false
      },
      {
        "date": "2025-04-10",
        "priceEur": 278000,
        "typeLocal": "Appartement",
        "surfaceM2": 67,
        "isVefa": false
      },
      {
        "date": "2024-12-05",
        "priceEur": 292000,
        "typeLocal": "Appartement",
        "surfaceM2": 69,
        "isVefa": false
      },
      {
        "date": "2024-10-01",
        "priceEur": 194000,
        "typeLocal": "Appartement",
        "surfaceM2": 43,
        "isVefa": false
      },
      {
        "date": "2024-09-27",
        "priceEur": 282650,
        "typeLocal": "Appartement",
        "surfaceM2": 67,
        "isVefa": false
      },
      {
        "date": "2024-09-26",
        "priceEur": 13000,
        "typeLocal": "Appartement",
        "surfaceM2": 43,
        "isVefa": false
      },
      {
        "date": "2024-08-08",
        "priceEur": 235570,
        "typeLocal": "Appartement",
        "surfaceM2": 65,
        "isVefa": false
      },
      {
        "date": "2023-07-25",
        "priceEur": 206000,
        "typeLocal": "Appartement",
        "surfaceM2": 45,
        "isVefa": false
      },
      {
        "date": "2023-07-10",
        "priceEur": 224000,
        "typeLocal": "Appartement",
        "surfaceM2": 48,
        "isVefa": false
      },
      {
        "date": "2023-05-24",
        "priceEur": 294500,
        "typeLocal": "Appartement",
        "surfaceM2": 69,
        "isVefa": false
      },
      {
        "date": "2023-05-10",
        "priceEur": 301295,
        "typeLocal": "Appartement",
        "surfaceM2": 69,
        "isVefa": false
      },
      {
        "date": "2023-01-23",
        "priceEur": 208320,
        "typeLocal": "Appartement",
        "surfaceM2": 44,
        "isVefa": false
      },
      {
        "date": "2023-01-10",
        "priceEur": 336900,
        "typeLocal": "Appartement",
        "surfaceM2": 70,
        "isVefa": false
      },
      {
        "date": "2022-12-21",
        "priceEur": 230000,
        "typeLocal": "Appartement",
        "surfaceM2": 46,
        "isVefa": false
      },
      {
        "date": "2022-10-25",
        "priceEur": 70006,
        "typeLocal": "Appartement",
        "surfaceM2": 45,
        "isVefa": false
      },
      {
        "date": "2022-10-03",
        "priceEur": 173735,
        "typeLocal": "Appartement",
        "surfaceM2": 45,
        "isVefa": false
      },
      {
        "date": "2022-07-29",
        "priceEur": 166000,
        "typeLocal": "Appartement",
        "surfaceM2": 45,
        "isVefa": false
      },
      {
        "date": "2022-07-01",
        "priceEur": 198500,
        "typeLocal": "Appartement",
        "surfaceM2": 43,
        "isVefa": false
      },
      {
        "date": "2022-05-19",
        "priceEur": 190000,
        "typeLocal": "Appartement",
        "surfaceM2": 45,
        "isVefa": false
      },
      {
        "date": "2022-04-07",
        "priceEur": 182000,
        "typeLocal": "Appartement",
        "surfaceM2": 45,
        "isVefa": false
      },
      {
        "date": "2021-12-14",
        "priceEur": 276000,
        "typeLocal": "Appartement",
        "surfaceM2": 65,
        "isVefa": false
      }
    ]
  },
  "ff3b19e1f032": {
    "id": "ff3b19e1f032",
    "label": "22 RUE GEORGES FRECHE, Le Crès",
    "lat": 43.645764,
    "lng": 3.931644,
    "transactions": [
      {
        "date": "2021-11-26",
        "priceEur": 535500,
        "typeLocal": "Maison",
        "surfaceM2": 109,
        "isVefa": false
      }
    ]
  },
  "6a1d4a0892e6": {
    "id": "6a1d4a0892e6",
    "label": "2H RUE DU FAISAN, Le Crès",
    "lat": 43.649859,
    "lng": 3.931244,
    "transactions": [
      {
        "date": "2021-12-22",
        "priceEur": 21955,
        "typeLocal": "Maison",
        "surfaceM2": 104,
        "isVefa": false
      }
    ]
  },
  "748ce1f34650": {
    "id": "748ce1f34650",
    "label": "40 RUE GEORGES FRECHE, Le Crès",
    "lat": 43.646753,
    "lng": 3.931098,
    "transactions": [
      {
        "date": "2022-01-18",
        "priceEur": 467550,
        "typeLocal": "Maison",
        "surfaceM2": 97,
        "isVefa": false
      }
    ]
  },
  "8f62968e6a98": {
    "id": "8f62968e6a98",
    "label": "14 RUE JANUS, Castelnau-le-Lez",
    "lat": 43.645057,
    "lng": 3.925254,
    "transactions": [
      {
        "date": "2022-01-11",
        "priceEur": 275000,
        "typeLocal": "Maison",
        "surfaceM2": 58,
        "isVefa": false
      }
    ]
  },
  "ac1723d701ac": {
    "id": "ac1723d701ac",
    "label": "14 RUE TITUS, Castelnau-le-Lez",
    "lat": 43.645256,
    "lng": 3.922787,
    "transactions": [
      {
        "date": "2022-03-24",
        "priceEur": 158791,
        "typeLocal": "Maison",
        "surfaceM2": 84,
        "isVefa": false
      }
    ]
  },
  "4deca6f3efae": {
    "id": "4deca6f3efae",
    "label": "63 AV DES VENUS, Castelnau-le-Lez",
    "lat": 43.645282,
    "lng": 3.925218,
    "transactions": [
      {
        "date": "2022-03-28",
        "priceEur": 422400,
        "typeLocal": "Maison",
        "surfaceM2": 68,
        "isVefa": false
      }
    ]
  },
  "21fafff0dd59": {
    "id": "21fafff0dd59",
    "label": "1 RUE GEORGES FRECHE, Le Crès",
    "lat": 43.646331,
    "lng": 3.93085,
    "transactions": [
      {
        "date": "2022-05-31",
        "priceEur": 498150,
        "typeLocal": "Maison",
        "surfaceM2": 98,
        "isVefa": false
      }
    ]
  },
  "062a5e0b87ac": {
    "id": "062a5e0b87ac",
    "label": "31 RUE DES TRITONS, Castelnau-le-Lez",
    "lat": 43.645721,
    "lng": 3.929019,
    "transactions": [
      {
        "date": "2022-05-31",
        "priceEur": 667000,
        "typeLocal": "Maison",
        "surfaceM2": 137,
        "isVefa": false
      }
    ]
  },
  "01d3d3ed95bc": {
    "id": "01d3d3ed95bc",
    "label": "10 RUE DU CANARI, Le Crès",
    "lat": 43.647342,
    "lng": 3.932428,
    "transactions": [
      {
        "date": "2022-09-05",
        "priceEur": 461000,
        "typeLocal": "Maison",
        "surfaceM2": 91,
        "isVefa": false
      }
    ]
  },
  "3487a0ec34fa": {
    "id": "3487a0ec34fa",
    "label": "2F RUE DU FAISAN, Le Crès",
    "lat": 43.649859,
    "lng": 3.931244,
    "transactions": [
      {
        "date": "2022-11-09",
        "priceEur": 427652,
        "typeLocal": "Maison",
        "surfaceM2": 92,
        "isVefa": false
      }
    ]
  },
  "d64bd5b62794": {
    "id": "d64bd5b62794",
    "label": "12 RUE DU CANARI, Le Crès",
    "lat": 43.647271,
    "lng": 3.93218,
    "transactions": [
      {
        "date": "2022-12-28",
        "priceEur": 350000,
        "typeLocal": "Maison",
        "surfaceM2": 110,
        "isVefa": false
      }
    ]
  },
  "21ff53e5dbd1": {
    "id": "21ff53e5dbd1",
    "label": "18 RUE GEORGES FRECHE, Le Crès",
    "lat": 43.64548,
    "lng": 3.931663,
    "transactions": [
      {
        "date": "2022-12-30",
        "priceEur": 146000,
        "typeLocal": "Maison",
        "surfaceM2": 120,
        "isVefa": false
      }
    ]
  },
  "f6b1bab7db50": {
    "id": "f6b1bab7db50",
    "label": "25 AV DES VENUS, Castelnau-le-Lez",
    "lat": 43.644476,
    "lng": 3.928379,
    "transactions": [
      {
        "date": "2023-01-05",
        "priceEur": 534100,
        "typeLocal": "Maison",
        "surfaceM2": 105,
        "isVefa": false
      },
      {
        "date": "2023-01-05",
        "priceEur": 534100,
        "typeLocal": "Maison",
        "surfaceM2": 105,
        "isVefa": false
      }
    ]
  },
  "e381a3ccc61c": {
    "id": "e381a3ccc61c",
    "label": "17 RUE GEORGES FRECHE, Le Crès",
    "lat": 43.645987,
    "lng": 3.931198,
    "transactions": [
      {
        "date": "2023-01-20",
        "priceEur": 428950,
        "typeLocal": "Maison",
        "surfaceM2": 64,
        "isVefa": false
      }
    ]
  },
  "2c887bd96826": {
    "id": "2c887bd96826",
    "label": "20 AV DES VENUS, Castelnau-le-Lez",
    "lat": 43.645255,
    "lng": 3.928184,
    "transactions": [
      {
        "date": "2023-01-19",
        "priceEur": 740000,
        "typeLocal": "Maison",
        "surfaceM2": 144,
        "isVefa": false
      }
    ]
  },
  "eb87d3e29204": {
    "id": "eb87d3e29204",
    "label": "16 RUE GEORGES FRECHE, Le Crès",
    "lat": 43.645247,
    "lng": 3.931665,
    "transactions": [
      {
        "date": "2023-03-14",
        "priceEur": 520250,
        "typeLocal": "Maison",
        "surfaceM2": 96,
        "isVefa": false
      }
    ]
  },
  "59490efbc7c2": {
    "id": "59490efbc7c2",
    "label": "3 RUE LOUISE MICHEL, Le Crès",
    "lat": 43.651345,
    "lng": 3.928646,
    "transactions": [
      {
        "date": "2023-03-21",
        "priceEur": 595000,
        "typeLocal": "Maison",
        "surfaceM2": 122,
        "isVefa": false
      }
    ]
  },
  "871c25611d83": {
    "id": "871c25611d83",
    "label": "12 AV DES VENUS, Castelnau-le-Lez",
    "lat": 43.644674,
    "lng": 3.929047,
    "transactions": [
      {
        "date": "2023-04-19",
        "priceEur": 622030,
        "typeLocal": "Maison",
        "surfaceM2": 130,
        "isVefa": false
      }
    ]
  },
  "1b8e934af3c6": {
    "id": "1b8e934af3c6",
    "label": "36 RUE TITUS, Castelnau-le-Lez",
    "lat": 43.645147,
    "lng": 3.922985,
    "transactions": [
      {
        "date": "2023-05-31",
        "priceEur": 380090,
        "typeLocal": "Maison",
        "surfaceM2": 87,
        "isVefa": false
      }
    ]
  },
  "4ffd808ebfb5": {
    "id": "4ffd808ebfb5",
    "label": "18 RUE BRUTUS, Castelnau-le-Lez",
    "lat": 43.644224,
    "lng": 3.922151,
    "transactions": [
      {
        "date": "2023-07-05",
        "priceEur": 355000,
        "typeLocal": "Maison",
        "surfaceM2": 105,
        "isVefa": false
      }
    ]
  },
  "49dc953cc164": {
    "id": "49dc953cc164",
    "label": "15 RUE DES DOMITIENNES, Castelnau-le-Lez",
    "lat": 43.645705,
    "lng": 3.927741,
    "transactions": [
      {
        "date": "2023-07-28",
        "priceEur": 400000,
        "typeLocal": "Maison",
        "surfaceM2": 75,
        "isVefa": false
      }
    ]
  },
  "52ecf8705a60": {
    "id": "52ecf8705a60",
    "label": "62 RUE DES TRITONS, Castelnau-le-Lez",
    "lat": 43.646993,
    "lng": 3.927251,
    "transactions": [
      {
        "date": "2023-07-18",
        "priceEur": 480000,
        "typeLocal": "Maison",
        "surfaceM2": 90,
        "isVefa": false
      }
    ]
  },
  "29f2e6cc409c": {
    "id": "29f2e6cc409c",
    "label": "7 PL BACCHUS, Castelnau-le-Lez",
    "lat": 43.645301,
    "lng": 3.926346,
    "transactions": [
      {
        "date": "2023-10-19",
        "priceEur": 388000,
        "typeLocal": "Maison",
        "surfaceM2": 74,
        "isVefa": false
      }
    ]
  },
  "417d0f816980": {
    "id": "417d0f816980",
    "label": "16 RUE DE L HIRONDELLE, Le Crès",
    "lat": 43.645817,
    "lng": 3.932007,
    "transactions": [
      {
        "date": "2023-12-20",
        "priceEur": 419600,
        "typeLocal": "Maison",
        "surfaceM2": 94,
        "isVefa": false
      }
    ]
  },
  "eab592bf2a1a": {
    "id": "eab592bf2a1a",
    "label": "26 RUE DE L HIRONDELLE, Le Crès",
    "lat": 43.644801,
    "lng": 3.932115,
    "transactions": [
      {
        "date": "2024-04-04",
        "priceEur": 600531,
        "typeLocal": "Maison",
        "surfaceM2": 153,
        "isVefa": false
      }
    ]
  },
  "b2784f079dc7": {
    "id": "b2784f079dc7",
    "label": "32 RUE TITUS, Castelnau-le-Lez",
    "lat": 43.644793,
    "lng": 3.923285,
    "transactions": [
      {
        "date": "2024-05-23",
        "priceEur": 220000,
        "typeLocal": "Maison",
        "surfaceM2": 86,
        "isVefa": false
      }
    ]
  },
  "15ae7c2b9675": {
    "id": "15ae7c2b9675",
    "label": "5D RUE RAYMOND-ROGER TRENCAVEL, Le Crès",
    "lat": 43.650856,
    "lng": 3.931249,
    "transactions": [
      {
        "date": "2024-06-24",
        "priceEur": 520000,
        "typeLocal": "Maison",
        "surfaceM2": 110,
        "isVefa": false
      }
    ]
  },
  "2f5533a52bf4": {
    "id": "2f5533a52bf4",
    "label": "64 RUE DES TRITONS, Castelnau-le-Lez",
    "lat": 43.646854,
    "lng": 3.927049,
    "transactions": [
      {
        "date": "2024-08-22",
        "priceEur": 503000,
        "typeLocal": "Maison",
        "surfaceM2": 85,
        "isVefa": false
      }
    ]
  },
  "5437544ddd55": {
    "id": "5437544ddd55",
    "label": "31 RUE DES VESTALES, Castelnau-le-Lez",
    "lat": 43.644233,
    "lng": 3.928108,
    "transactions": [
      {
        "date": "2024-08-28",
        "priceEur": 315000,
        "typeLocal": "Maison",
        "surfaceM2": 71,
        "isVefa": false
      }
    ]
  },
  "93fd29af2c59": {
    "id": "93fd29af2c59",
    "label": "48 RUE TITUS, Castelnau-le-Lez",
    "lat": 43.645343,
    "lng": 3.922573,
    "transactions": [
      {
        "date": "2024-12-30",
        "priceEur": 381960,
        "typeLocal": "Maison",
        "surfaceM2": 85,
        "isVefa": false
      }
    ]
  },
  "c1a4514eac37": {
    "id": "c1a4514eac37",
    "label": "48 AV DES VENUS, Castelnau-le-Lez",
    "lat": 43.645943,
    "lng": 3.922935,
    "transactions": [
      {
        "date": "2025-03-31",
        "priceEur": 522000,
        "typeLocal": "Maison",
        "surfaceM2": 100,
        "isVefa": false
      }
    ]
  }
}