{
  "b9515eed6578": {
    "id": "b9515eed6578",
    "label": "5191 LA LONDE, Fresnoy-Folny",
    "lat": 49.892367,
    "lng": 1.41951,
    "transactions": [
      {
        "date": "2021-11-17",
        "priceEur": 190000,
        "typeLocal": "Maison",
        "surfaceM2": 50,
        "isVefa": false
      }
    ]
  },
  "2ed5d474c921": {
    "id": "2ed5d474c921",
    "label": "5190 LA LONDE, Fresnoy-Folny",
    "lat": 49.892492,
    "lng": 1.419241,
    "transactions": [
      {
        "date": "2021-04-24",
        "priceEur": 40000,
        "typeLocal": "Maison",
        "surfaceM2": 60,
        "isVefa": false
      }
    ]
  },
  "f705e912d6f9": {
    "id": "f705e912d6f9",
    "label": "1A RUE DE L'EPINAY, Fresnoy-Folny",
    "lat": 49.891187,
    "lng": 1.426861,
    "transactions": [
      {
        "date": "2022-09-24",
        "priceEur": 136000,
        "typeLocal": "Maison",
        "surfaceM2": 144,
        "isVefa": false
      }
    ]
  },
  "10f421b7fd55": {
    "id": "10f421b7fd55",
    "label": "5E RTE DE LA LONDE, Fresnoy-Folny",
    "lat": 49.892074,
    "lng": 1.419323,
    "transactions": [
      {
        "date": "2022-10-28",
        "priceEur": 155000,
        "typeLocal": "Maison",
        "surfaceM2": 133,
        "isVefa": false
      }
    ]
  },
  "3b93d1b93b99": {
    "id": "3b93d1b93b99",
    "label": "18 LA LONDE, Fresnoy-Folny",
    "lat": 49.892685,
    "lng": 1.419815,
    "transactions": [
      {
        "date": "2023-04-27",
        "priceEur": 82000,
        "typeLocal": "Maison",
        "surfaceM2": 50,
        "isVefa": false
      }
    ]
  },
  "6fe39a1a7ea0": {
    "id": "6fe39a1a7ea0",
    "label": "5169 FRESNOY, Fresnoy-Folny",
    "lat": 49.888225,
    "lng": 1.426132,
    "transactions": [
      {
        "date": "2023-12-21",
        "priceEur": 110000,
        "typeLocal": "Maison",
        "surfaceM2": 61,
        "isVefa": false
      }
    ]
  },
  "5e81a746ad3b": {
    "id": "5e81a746ad3b",
    "label": "8 RTE DE LA LONDE, Fresnoy-Folny",
    "lat": 49.891452,
    "lng": 1.422375,
    "transactions": [
      {
        "date": "2024-04-17",
        "priceEur": 130000,
        "typeLocal": "Maison",
        "surfaceM2": 90,
        "isVefa": false
      }
    ]
  },
  "09e55c6c1884": {
    "id": "09e55c6c1884",
    "label": "14 RTE DE LA LONDE, Fresnoy-Folny",
    "lat": 49.892491,
    "lng": 1.420747,
    "transactions": [
      {
        "date": "2024-08-14",
        "priceEur": 180000,
        "typeLocal": "Maison",
        "surfaceM2": 136,
        "isVefa": false
      }
    ]
  },
  "e62cd250ff45": {
    "id": "e62cd250ff45",
    "label": "3A RTE DE LA LONDE, Fresnoy-Folny",
    "lat": 49.890232,
    "lng": 1.425452,
    "transactions": [
      {
        "date": "2024-11-13",
        "priceEur": 195000,
        "typeLocal": "Maison",
        "surfaceM2": 103,
        "isVefa": false
      }
    ]
  }
}