{
  "e56a187ae837": {
    "id": "e56a187ae837",
    "label": "2 RUE DES BERGES, Cers",
    "lat": 43.320541,
    "lng": 3.305204,
    "transactions": [
      {
        "date": "2020-08-13",
        "priceEur": 226790,
        "typeLocal": "Maison",
        "surfaceM2": 100,
        "isVefa": false
      }
    ]
  },
  "d6d2af3eeb43": {
    "id": "d6d2af3eeb43",
    "label": "11 RUE DU CHASSELAS, Cers",
    "lat": 43.322202,
    "lng": 3.302898,
    "transactions": [
      {
        "date": "2020-08-18",
        "priceEur": 165200,
        "typeLocal": "Maison",
        "surfaceM2": 100,
        "isVefa": false
      }
    ]
  },
  "6716ddaa2f30": {
    "id": "6716ddaa2f30",
    "label": "6 RUE DES BERGES, Cers",
    "lat": 43.321005,
    "lng": 3.305805,
    "transactions": [
      {
        "date": "2024-10-02",
        "priceEur": 266000,
        "typeLocal": "Maison",
        "surfaceM2": 88,
        "isVefa": false
      },
      {
        "date": "2024-08-20",
        "priceEur": 353450,
        "typeLocal": "Maison",
        "surfaceM2": 112,
        "isVefa": false
      },
      {
        "date": "2024-04-03",
        "priceEur": 249000,
        "typeLocal": "Maison",
        "surfaceM2": 73,
        "isVefa": false
      },
      {
        "date": "2020-08-04",
        "priceEur": 223750,
        "typeLocal": "Maison",
        "surfaceM2": 92,
        "isVefa": false
      }
    ]
  },
  "ea7d67bda60a": {
    "id": "ea7d67bda60a",
    "label": "15 AV DE LA CONDAMINE, Cers",
    "lat": 43.321214,
    "lng": 3.306612,
    "transactions": [
      {
        "date": "2024-12-05",
        "priceEur": 147000,
        "typeLocal": "Appartement",
        "surfaceM2": 65,
        "isVefa": false
      },
      {
        "date": "2023-05-22",
        "priceEur": 172000,
        "typeLocal": "Appartement",
        "surfaceM2": 60,
        "isVefa": false
      },
      {
        "date": "2020-09-24",
        "priceEur": 90000,
        "typeLocal": "Appartement",
        "surfaceM2": 49,
        "isVefa": false
      },
      {
        "date": "2020-09-07",
        "priceEur": 125000,
        "typeLocal": "Appartement",
        "surfaceM2": 60,
        "isVefa": false
      }
    ]
  },
  "69c011639c88": {
    "id": "69c011639c88",
    "label": "15 RUE DU CHASSELAS, Cers",
    "lat": 43.322287,
    "lng": 3.303226,
    "transactions": [
      {
        "date": "2020-10-26",
        "priceEur": 260270,
        "typeLocal": "Maison",
        "surfaceM2": 35,
        "isVefa": false
      }
    ]
  },
  "4bb061bd68f1": {
    "id": "4bb061bd68f1",
    "label": "2 PLAN DE LA GRILLE, Cers",
    "lat": 43.323452,
    "lng": 3.305961,
    "transactions": [
      {
        "date": "2023-10-20",
        "priceEur": 144640,
        "typeLocal": "Maison",
        "surfaceM2": 84,
        "isVefa": false
      },
      {
        "date": "2020-11-10",
        "priceEur": 119000,
        "typeLocal": "Maison",
        "surfaceM2": 84,
        "isVefa": false
      }
    ]
  },
  "f8253e8518ad": {
    "id": "f8253e8518ad",
    "label": "2 PL DE L'ANCIENNE MAIRIE, Cers",
    "lat": 43.323169,
    "lng": 3.305466,
    "transactions": [
      {
        "date": "2020-12-30",
        "priceEur": 65000,
        "typeLocal": "Maison",
        "surfaceM2": 50,
        "isVefa": false
      }
    ]
  },
  "cd7668bf7cd9": {
    "id": "cd7668bf7cd9",
    "label": "8 PL DE L'ANCIENNE MAIRIE, Cers",
    "lat": 43.323377,
    "lng": 3.305691,
    "transactions": [
      {
        "date": "2021-01-15",
        "priceEur": 80000,
        "typeLocal": "Maison",
        "surfaceM2": 120,
        "isVefa": false
      }
    ]
  },
  "4eea461ea37f": {
    "id": "4eea461ea37f",
    "label": "6 RUE DU STADE, Cers",
    "lat": 43.322953,
    "lng": 3.30549,
    "transactions": [
      {
        "date": "2021-01-12",
        "priceEur": 123550,
        "typeLocal": "Maison",
        "surfaceM2": 73,
        "isVefa": false
      }
    ]
  },
  "07a5dd1c8f59": {
    "id": "07a5dd1c8f59",
    "label": "2 RUE SAINT VICTOR, Cers",
    "lat": 43.324911,
    "lng": 3.302664,
    "transactions": [
      {
        "date": "2021-01-06",
        "priceEur": 229000,
        "typeLocal": "Maison",
        "surfaceM2": 80,
        "isVefa": false
      }
    ]
  },
  "ff6dae2a05d1": {
    "id": "ff6dae2a05d1",
    "label": "27 AV DE LA PROMENADE, Cers",
    "lat": 43.321607,
    "lng": 3.304563,
    "transactions": [
      {
        "date": "2021-01-08",
        "priceEur": 87900,
        "typeLocal": "Maison",
        "surfaceM2": 56,
        "isVefa": false
      }
    ]
  },
  "434c0b1e0e38": {
    "id": "434c0b1e0e38",
    "label": "5525 RUE DU CABERNET, Cers",
    "lat": 43.321822,
    "lng": 3.301875,
    "transactions": [
      {
        "date": "2021-11-19",
        "priceEur": 340000,
        "typeLocal": "Appartement",
        "surfaceM2": 49,
        "isVefa": false
      },
      {
        "date": "2021-11-19",
        "priceEur": 340000,
        "typeLocal": "Maison",
        "surfaceM2": 127,
        "isVefa": false
      },
      {
        "date": "2021-02-15",
        "priceEur": 80000,
        "typeLocal": "Maison",
        "surfaceM2": 127,
        "isVefa": false
      },
      {
        "date": "2021-02-15",
        "priceEur": 80000,
        "typeLocal": "Appartement",
        "surfaceM2": 49,
        "isVefa": false
      }
    ]
  },
  "89e47e0441c1": {
    "id": "89e47e0441c1",
    "label": "31B AV DE LA PROMENADE, Cers",
    "lat": 43.321337,
    "lng": 3.304914,
    "transactions": [
      {
        "date": "2021-05-17",
        "priceEur": 227000,
        "typeLocal": "Maison",
        "surfaceM2": 101,
        "isVefa": false
      },
      {
        "date": "2021-02-15",
        "priceEur": 541080,
        "typeLocal": "Maison",
        "surfaceM2": 192,
        "isVefa": false
      }
    ]
  },
  "1485a8efa9f3": {
    "id": "1485a8efa9f3",
    "label": "4 RUE DES DEUX MERS, Cers",
    "lat": 43.320166,
    "lng": 3.305295,
    "transactions": [
      {
        "date": "2021-04-02",
        "priceEur": 185750,
        "typeLocal": "Maison",
        "surfaceM2": 102,
        "isVefa": false
      }
    ]
  },
  "9ddd6961138a": {
    "id": "9ddd6961138a",
    "label": "6 RUE DU LAMPY, Cers",
    "lat": 43.319551,
    "lng": 3.305557,
    "transactions": [
      {
        "date": "2021-03-25",
        "priceEur": 216250,
        "typeLocal": "Maison",
        "surfaceM2": 53,
        "isVefa": false
      }
    ]
  },
  "d0c07927204b": {
    "id": "d0c07927204b",
    "label": "23 CHE DU MOULIN, Cers",
    "lat": 43.32023,
    "lng": 3.298512,
    "transactions": [
      {
        "date": "2021-04-16",
        "priceEur": 380000,
        "typeLocal": "Appartement",
        "surfaceM2": 50,
        "isVefa": false
      },
      {
        "date": "2021-04-16",
        "priceEur": 380000,
        "typeLocal": "Appartement",
        "surfaceM2": 40,
        "isVefa": false
      },
      {
        "date": "2021-04-16",
        "priceEur": 380000,
        "typeLocal": "Appartement",
        "surfaceM2": 65,
        "isVefa": false
      },
      {
        "date": "2021-04-16",
        "priceEur": 380000,
        "typeLocal": "Appartement",
        "surfaceM2": 70,
        "isVefa": false
      }
    ]
  },
  "bf4133494c91": {
    "id": "bf4133494c91",
    "label": "5B PL DE L'ANCIENNE MAIRIE, Cers",
    "lat": 43.323279,
    "lng": 3.305238,
    "transactions": [
      {
        "date": "2021-04-21",
        "priceEur": 121800,
        "typeLocal": "Maison",
        "surfaceM2": 63,
        "isVefa": false
      }
    ]
  },
  "b84c280c7430": {
    "id": "b84c280c7430",
    "label": "2B RUE DE LA COOPERATIVE, Cers",
    "lat": 43.323279,
    "lng": 3.305238,
    "transactions": [
      {
        "date": "2021-04-30",
        "priceEur": 164000,
        "typeLocal": "Appartement",
        "surfaceM2": 112,
        "isVefa": false
      }
    ]
  },
  "5595f64fe127": {
    "id": "5595f64fe127",
    "label": "5 RUE DES ACACIAS, Cers",
    "lat": 43.324226,
    "lng": 3.306097,
    "transactions": [
      {
        "date": "2021-05-19",
        "priceEur": 165000,
        "typeLocal": "Maison",
        "surfaceM2": 134,
        "isVefa": false
      }
    ]
  },
  "264bc2cd1000": {
    "id": "264bc2cd1000",
    "label": "8 IMP DU CARIGNAN, Cers",
    "lat": 43.321562,
    "lng": 3.3036,
    "transactions": [
      {
        "date": "2022-09-23",
        "priceEur": 310000,
        "typeLocal": "Maison",
        "surfaceM2": 75,
        "isVefa": false
      },
      {
        "date": "2021-05-27",
        "priceEur": 176000,
        "typeLocal": "Maison",
        "surfaceM2": 75,
        "isVefa": false
      }
    ]
  },
  "2c68f3c16a68": {
    "id": "2c68f3c16a68",
    "label": "4 RUE PASTEUR, Cers",
    "lat": 43.323892,
    "lng": 3.305753,
    "transactions": [
      {
        "date": "2021-06-02",
        "priceEur": 120000,
        "typeLocal": "Maison",
        "surfaceM2": 100,
        "isVefa": false
      }
    ]
  },
  "a2c42901c059": {
    "id": "a2c42901c059",
    "label": "5 IMP DE L'EOLIENNE, Cers",
    "lat": 43.320038,
    "lng": 3.29889,
    "transactions": [
      {
        "date": "2021-06-07",
        "priceEur": 233000,
        "typeLocal": "Maison",
        "surfaceM2": 83,
        "isVefa": false
      }
    ]
  },
  "f4723017f668": {
    "id": "f4723017f668",
    "label": "42 CHEM DU MOULIN, Villeneuve-lès-Béziers",
    "lat": 43.320632,
    "lng": 3.29817,
    "transactions": [
      {
        "date": "2021-05-31",
        "priceEur": 181500,
        "typeLocal": "Maison",
        "surfaceM2": 80,
        "isVefa": false
      }
    ]
  },
  "6190d42389cc": {
    "id": "6190d42389cc",
    "label": "10 RUE PAUL RIQUET, Cers",
    "lat": 43.320009,
    "lng": 3.304599,
    "transactions": [
      {
        "date": "2021-06-30",
        "priceEur": 231600,
        "typeLocal": "Maison",
        "surfaceM2": 77,
        "isVefa": false
      }
    ]
  },
  "87069dce66a5": {
    "id": "87069dce66a5",
    "label": "18 AV DE SAINT BAUZILLE, Cers",
    "lat": 43.324339,
    "lng": 3.305135,
    "transactions": [
      {
        "date": "2021-08-30",
        "priceEur": 44300,
        "typeLocal": "Maison",
        "surfaceM2": 70,
        "isVefa": false
      }
    ]
  },
  "21d6c497f8c1": {
    "id": "21d6c497f8c1",
    "label": "5 CHE DE ST VICTOR, Cers",
    "lat": 43.323789,
    "lng": 3.30201,
    "transactions": [
      {
        "date": "2021-08-26",
        "priceEur": 192600,
        "typeLocal": "Maison",
        "surfaceM2": 96,
        "isVefa": false
      }
    ]
  },
  "039ab97bb103": {
    "id": "039ab97bb103",
    "label": "3 PL DE L'ANCIENNE MAIRIE, Cers",
    "lat": 43.323223,
    "lng": 3.305274,
    "transactions": [
      {
        "date": "2021-10-18",
        "priceEur": 162000,
        "typeLocal": "Maison",
        "surfaceM2": 85,
        "isVefa": false
      }
    ]
  },
  "759b2b57ded7": {
    "id": "759b2b57ded7",
    "label": "2 RUE PASTEUR, Cers",
    "lat": 43.323859,
    "lng": 3.305716,
    "transactions": [
      {
        "date": "2021-10-22",
        "priceEur": 158000,
        "typeLocal": "Maison",
        "surfaceM2": 62,
        "isVefa": false
      }
    ]
  },
  "5891198dd429": {
    "id": "5891198dd429",
    "label": "24 RUE DU LAMPY, Cers",
    "lat": 43.318963,
    "lng": 3.3062,
    "transactions": [
      {
        "date": "2021-10-22",
        "priceEur": 218900,
        "typeLocal": "Maison",
        "surfaceM2": 91,
        "isVefa": false
      }
    ]
  },
  "ef3dba476897": {
    "id": "ef3dba476897",
    "label": "3 IMP D ALSACE, Cers",
    "lat": 43.322843,
    "lng": 3.303412,
    "transactions": [
      {
        "date": "2021-10-21",
        "priceEur": 349600,
        "typeLocal": "Maison",
        "surfaceM2": 73,
        "isVefa": false
      }
    ]
  },
  "7ae9d280564f": {
    "id": "7ae9d280564f",
    "label": "17 RUE DU CHASSELAS, Cers",
    "lat": 43.322695,
    "lng": 3.303764,
    "transactions": [
      {
        "date": "2021-11-05",
        "priceEur": 339600,
        "typeLocal": "Maison",
        "surfaceM2": 105,
        "isVefa": false
      }
    ]
  },
  "f78c66c36b00": {
    "id": "f78c66c36b00",
    "label": "5 IMP DU CARIGNAN, Cers",
    "lat": 43.322013,
    "lng": 3.303865,
    "transactions": [
      {
        "date": "2021-11-26",
        "priceEur": 227140,
        "typeLocal": "Appartement",
        "surfaceM2": 104,
        "isVefa": false
      },
      {
        "date": "2021-11-26",
        "priceEur": 227140,
        "typeLocal": "Appartement",
        "surfaceM2": 53,
        "isVefa": false
      }
    ]
  },
  "8fedb591955e": {
    "id": "8fedb591955e",
    "label": "39 CHE DU MOULIN, Cers",
    "lat": 43.319806,
    "lng": 3.297723,
    "transactions": [
      {
        "date": "2022-01-28",
        "priceEur": 198000,
        "typeLocal": "Maison",
        "surfaceM2": 74,
        "isVefa": false
      }
    ]
  },
  "f5ad1643ce7f": {
    "id": "f5ad1643ce7f",
    "label": "15B AV DE LA CONDAMINE, Cers",
    "lat": 43.321009,
    "lng": 3.306764,
    "transactions": [
      {
        "date": "2022-02-16",
        "priceEur": 362500,
        "typeLocal": "Maison",
        "surfaceM2": 118,
        "isVefa": false
      }
    ]
  },
  "2e3b0441dff3": {
    "id": "2e3b0441dff3",
    "label": "5413F RUE DES BERGES, Cers",
    "lat": 43.321859,
    "lng": 3.305016,
    "transactions": [
      {
        "date": "2022-02-15",
        "priceEur": 381880,
        "typeLocal": "Maison",
        "surfaceM2": 129,
        "isVefa": false
      }
    ]
  },
  "e1a10ea2ce33": {
    "id": "e1a10ea2ce33",
    "label": "12 RUE DU VENT MARIN, Cers",
    "lat": 43.320052,
    "lng": 3.299644,
    "transactions": [
      {
        "date": "2022-04-05",
        "priceEur": 296150,
        "typeLocal": "Maison",
        "surfaceM2": 127,
        "isVefa": false
      }
    ]
  },
  "3bcc33ea9aea": {
    "id": "3bcc33ea9aea",
    "label": "5348F IMP DE L'EOLIENNE, Cers",
    "lat": 43.320074,
    "lng": 3.299099,
    "transactions": [
      {
        "date": "2022-05-04",
        "priceEur": 153300,
        "typeLocal": "Maison",
        "surfaceM2": 93,
        "isVefa": false
      }
    ]
  },
  "f3fd3f8d0128": {
    "id": "f3fd3f8d0128",
    "label": "13 RUE DES DEUX PONTS, Cers",
    "lat": 43.324475,
    "lng": 3.305965,
    "transactions": [
      {
        "date": "2022-06-08",
        "priceEur": 150000,
        "typeLocal": "Maison",
        "surfaceM2": 99,
        "isVefa": false
      }
    ]
  },
  "d22fe52117c6": {
    "id": "d22fe52117c6",
    "label": "4 AV DE LA PROMENADE, Cers",
    "lat": 43.322926,
    "lng": 3.305113,
    "transactions": [
      {
        "date": "2022-06-14",
        "priceEur": 135000,
        "typeLocal": "Maison",
        "surfaceM2": 84,
        "isVefa": false
      }
    ]
  },
  "ad4788d309ad": {
    "id": "ad4788d309ad",
    "label": "19 RUE DES DEUX PONTS, Cers",
    "lat": 43.324085,
    "lng": 3.306459,
    "transactions": [
      {
        "date": "2022-09-07",
        "priceEur": 75300,
        "typeLocal": "Maison",
        "surfaceM2": 62,
        "isVefa": false
      }
    ]
  },
  "0b71db239034": {
    "id": "0b71db239034",
    "label": "10 RUE DE L OCCITANIE, Cers",
    "lat": 43.324366,
    "lng": 3.305716,
    "transactions": [
      {
        "date": "2022-09-14",
        "priceEur": 110000,
        "typeLocal": "Maison",
        "surfaceM2": 155,
        "isVefa": false
      }
    ]
  },
  "265ab1b61131": {
    "id": "265ab1b61131",
    "label": "13 PLAN DE SAHUC, Cers",
    "lat": 43.323209,
    "lng": 3.305876,
    "transactions": [
      {
        "date": "2022-11-08",
        "priceEur": 48000,
        "typeLocal": "Maison",
        "surfaceM2": 40,
        "isVefa": false
      }
    ]
  },
  "e591863fc8d5": {
    "id": "e591863fc8d5",
    "label": "2 PAS DU LAPIN, Cers",
    "lat": 43.323205,
    "lng": 3.305496,
    "transactions": [
      {
        "date": "2022-12-19",
        "priceEur": 61270,
        "typeLocal": "Maison",
        "surfaceM2": 50,
        "isVefa": false
      }
    ]
  },
  "cf2ad4419432": {
    "id": "cf2ad4419432",
    "label": "8 RUE DU CHASSELAS, Cers",
    "lat": 43.321755,
    "lng": 3.302889,
    "transactions": [
      {
        "date": "2023-01-17",
        "priceEur": 224000,
        "typeLocal": "Maison",
        "surfaceM2": 119,
        "isVefa": false
      }
    ]
  },
  "a75bf0ebf18a": {
    "id": "a75bf0ebf18a",
    "label": "33 AV DE LA PROMENADE, Cers",
    "lat": 43.321358,
    "lng": 3.30439,
    "transactions": [
      {
        "date": "2023-02-17",
        "priceEur": 140000,
        "typeLocal": "Maison",
        "surfaceM2": 60,
        "isVefa": false
      }
    ]
  },
  "5cbc504fa2ba": {
    "id": "5cbc504fa2ba",
    "label": "45 AV DE LA PROMENADE, Cers",
    "lat": 43.320548,
    "lng": 3.303789,
    "transactions": [
      {
        "date": "2023-04-03",
        "priceEur": 222500,
        "typeLocal": "Maison",
        "surfaceM2": 75,
        "isVefa": false
      }
    ]
  },
  "431d7b39f643": {
    "id": "431d7b39f643",
    "label": "20 AV DE LA PROMENADE, Cers",
    "lat": 43.320567,
    "lng": 3.303198,
    "transactions": [
      {
        "date": "2023-05-12",
        "priceEur": 189450,
        "typeLocal": "Appartement",
        "surfaceM2": 116,
        "isVefa": false
      }
    ]
  },
  "6db7558b3973": {
    "id": "6db7558b3973",
    "label": "13 CHE DU MOULIN, Cers",
    "lat": 43.321279,
    "lng": 3.299918,
    "transactions": [
      {
        "date": "2023-06-19",
        "priceEur": 228540,
        "typeLocal": "Maison",
        "surfaceM2": 83,
        "isVefa": false
      }
    ]
  },
  "27fcec358f3d": {
    "id": "27fcec358f3d",
    "label": "6 RUE DU CHASSELAS, Cers",
    "lat": 43.321702,
    "lng": 3.302775,
    "transactions": [
      {
        "date": "2023-06-19",
        "priceEur": 212000,
        "typeLocal": "Maison",
        "surfaceM2": 93,
        "isVefa": false
      }
    ]
  },
  "c099bf310105": {
    "id": "c099bf310105",
    "label": "8 RUE DE L EGALITE, Cers",
    "lat": 43.323339,
    "lng": 3.306616,
    "transactions": [
      {
        "date": "2023-06-21",
        "priceEur": 133500,
        "typeLocal": "Maison",
        "surfaceM2": 58,
        "isVefa": false
      }
    ]
  },
  "93dbe3231fa1": {
    "id": "93dbe3231fa1",
    "label": "4 RUE DE L OCCITANIE, Cers",
    "lat": 43.324076,
    "lng": 3.305505,
    "transactions": [
      {
        "date": "2023-09-15",
        "priceEur": 70000,
        "typeLocal": "Maison",
        "surfaceM2": 104,
        "isVefa": false
      }
    ]
  },
  "30a2bd45ae7a": {
    "id": "30a2bd45ae7a",
    "label": "4 RUE DU MISTRAL, Cers",
    "lat": 43.323907,
    "lng": 3.305907,
    "transactions": [
      {
        "date": "2023-09-22",
        "priceEur": 30000,
        "typeLocal": "Maison",
        "surfaceM2": 70,
        "isVefa": false
      }
    ]
  },
  "fa2aa26dae15": {
    "id": "fa2aa26dae15",
    "label": "9 RUE DU VENT MARIN, Cers",
    "lat": 43.320245,
    "lng": 3.299906,
    "transactions": [
      {
        "date": "2023-10-03",
        "priceEur": 240000,
        "typeLocal": "Maison",
        "surfaceM2": 122,
        "isVefa": false
      }
    ]
  },
  "868a604a7224": {
    "id": "868a604a7224",
    "label": "19 CHE DU MOULIN, Cers",
    "lat": 43.320701,
    "lng": 3.298639,
    "transactions": [
      {
        "date": "2023-12-13",
        "priceEur": 263200,
        "typeLocal": "Maison",
        "surfaceM2": 60,
        "isVefa": false
      }
    ]
  },
  "f5a745ee3a72": {
    "id": "f5a745ee3a72",
    "label": "28 CHEM DU MOULIN, Villeneuve-lès-Béziers",
    "lat": 43.321444,
    "lng": 3.298381,
    "transactions": [
      {
        "date": "2024-03-15",
        "priceEur": 500000,
        "typeLocal": "Maison",
        "surfaceM2": 181,
        "isVefa": false
      }
    ]
  },
  "69c19bd6f77d": {
    "id": "69c19bd6f77d",
    "label": "2 RUE DES ECLUSES, Cers",
    "lat": 43.3198,
    "lng": 3.304169,
    "transactions": [
      {
        "date": "2024-04-12",
        "priceEur": 215000,
        "typeLocal": "Maison",
        "surfaceM2": 83,
        "isVefa": false
      }
    ]
  },
  "086a0a4c91f3": {
    "id": "086a0a4c91f3",
    "label": "5 IMP DES PALMIERS, Cers",
    "lat": 43.325043,
    "lng": 3.30681,
    "transactions": [
      {
        "date": "2024-04-30",
        "priceEur": 254900,
        "typeLocal": "Maison",
        "surfaceM2": 99,
        "isVefa": false
      }
    ]
  },
  "2ff839265e14": {
    "id": "2ff839265e14",
    "label": "13 RES LA NORIA, Cers",
    "lat": 43.323315,
    "lng": 3.300345,
    "transactions": [
      {
        "date": "2024-05-22",
        "priceEur": 210000,
        "typeLocal": "Maison",
        "surfaceM2": 91,
        "isVefa": false
      }
    ]
  },
  "2a27cdb06cfc": {
    "id": "2a27cdb06cfc",
    "label": "1 BD DES ALIZES, Cers",
    "lat": 43.321601,
    "lng": 3.300578,
    "transactions": [
      {
        "date": "2024-07-31",
        "priceEur": 440500,
        "typeLocal": "Maison",
        "surfaceM2": 128,
        "isVefa": false
      }
    ]
  },
  "70a0ea5a40f9": {
    "id": "70a0ea5a40f9",
    "label": "3 RUE DU MISTRAL, Cers",
    "lat": 43.32417,
    "lng": 3.305584,
    "transactions": [
      {
        "date": "2024-08-02",
        "priceEur": 70000,
        "typeLocal": "Maison",
        "surfaceM2": 52,
        "isVefa": false
      }
    ]
  },
  "89abb2bbd772": {
    "id": "89abb2bbd772",
    "label": "24 AV DE SAINT BAUZILLE, Cers",
    "lat": 43.324481,
    "lng": 3.305329,
    "transactions": [
      {
        "date": "2024-09-04",
        "priceEur": 134770,
        "typeLocal": "Maison",
        "surfaceM2": 59,
        "isVefa": false
      }
    ]
  },
  "65e8090a3647": {
    "id": "65e8090a3647",
    "label": "5 RUE DU CABERNET, Cers",
    "lat": 43.321822,
    "lng": 3.301875,
    "transactions": [
      {
        "date": "2024-09-19",
        "priceEur": 433500,
        "typeLocal": "Maison",
        "surfaceM2": 100,
        "isVefa": false
      }
    ]
  },
  "25128a5d4ade": {
    "id": "25128a5d4ade",
    "label": "1 RUE DU LEVANT, Cers",
    "lat": 43.323404,
    "lng": 3.306664,
    "transactions": [
      {
        "date": "2024-10-14",
        "priceEur": 80000,
        "typeLocal": "Maison",
        "surfaceM2": 72,
        "isVefa": false
      },
      {
        "date": "2024-10-11",
        "priceEur": 65000,
        "typeLocal": "Maison",
        "surfaceM2": 72,
        "isVefa": false
      }
    ]
  },
  "464544c5ec1a": {
    "id": "464544c5ec1a",
    "label": "34 CHEM DU MOULIN, Villeneuve-lès-Béziers",
    "lat": 43.321064,
    "lng": 3.298639,
    "transactions": [
      {
        "date": "2024-10-14",
        "priceEur": 266000,
        "typeLocal": "Maison",
        "surfaceM2": 136,
        "isVefa": false
      }
    ]
  },
  "41d71c7895dc": {
    "id": "41d71c7895dc",
    "label": "30 CHE DU MOULIN, Villeneuve-lès-Béziers",
    "lat": 43.321291,
    "lng": 3.29789,
    "transactions": [
      {
        "date": "2024-11-29",
        "priceEur": 299600,
        "typeLocal": "Appartement",
        "surfaceM2": 103,
        "isVefa": false
      }
    ]
  },
  "2eac35a26a0f": {
    "id": "2eac35a26a0f",
    "label": "4 RUE DU LAURAGAIS, Cers",
    "lat": 43.319523,
    "lng": 3.306479,
    "transactions": [
      {
        "date": "2024-12-11",
        "priceEur": 139000,
        "typeLocal": "Maison",
        "surfaceM2": 61,
        "isVefa": false
      }
    ]
  },
  "88607586627e": {
    "id": "88607586627e",
    "label": "1 IMP DES TILLEULS, Cers",
    "lat": 43.32291,
    "lng": 3.30473,
    "transactions": [
      {
        "date": "2025-02-05",
        "priceEur": 170000,
        "typeLocal": "Maison",
        "surfaceM2": 100,
        "isVefa": false
      }
    ]
  },
  "a431c34f62d0": {
    "id": "a431c34f62d0",
    "label": "6 RUE DE LA CLAIRETTE, Cers",
    "lat": 43.321338,
    "lng": 3.303313,
    "transactions": [
      {
        "date": "2025-03-06",
        "priceEur": 170000,
        "typeLocal": "Maison",
        "surfaceM2": 55,
        "isVefa": false
      }
    ]
  },
  "91d811cc5c46": {
    "id": "91d811cc5c46",
    "label": "7 RUE PLEIN SUD, Cers",
    "lat": 43.325049,
    "lng": 3.3011,
    "transactions": [
      {
        "date": "2025-03-21",
        "priceEur": 266000,
        "typeLocal": "Maison",
        "surfaceM2": 105,
        "isVefa": false
      }
    ]
  },
  "13cb9d425635": {
    "id": "13cb9d425635",
    "label": "5 IMP DU MALREC, Villeneuve-lès-Béziers",
    "lat": 43.322843,
    "lng": 3.298734,
    "transactions": [
      {
        "date": "2025-05-14",
        "priceEur": 432500,
        "typeLocal": "Maison",
        "surfaceM2": 114,
        "isVefa": false
      }
    ]
  }
}