{
  "e23649d14512": {
    "id": "e23649d14512",
    "label": "6584F LE REC, La Salvetat-sur-Agout",
    "lat": 43.624973,
    "lng": 2.670048,
    "transactions": [
      {
        "date": "2020-08-19",
        "priceEur": 75000,
        "typeLocal": "Maison",
        "surfaceM2": 47,
        "isVefa": false
      },
      {
        "date": "2020-08-19",
        "priceEur": 75000,
        "typeLocal": "Maison",
        "surfaceM2": 47,
        "isVefa": false
      }
    ]
  },
  "210294bab09a": {
    "id": "210294bab09a",
    "label": "6228 MEGES, La Salvetat-sur-Agout",
    "lat": 43.626449,
    "lng": 2.6752,
    "transactions": [
      {
        "date": "2020-10-22",
        "priceEur": 98000,
        "typeLocal": "Maison",
        "surfaceM2": 52,
        "isVefa": false
      },
      {
        "date": "2020-10-22",
        "priceEur": 98000,
        "typeLocal": "Maison",
        "surfaceM2": 52,
        "isVefa": false
      }
    ]
  },
  "bbed07df580d": {
    "id": "bbed07df580d",
    "label": "7011F MEGES, La Salvetat-sur-Agout",
    "lat": 43.624744,
    "lng": 2.676333,
    "transactions": [
      {
        "date": "2020-12-14",
        "priceEur": 128150,
        "typeLocal": "Maison",
        "surfaceM2": 60,
        "isVefa": false
      },
      {
        "date": "2020-12-14",
        "priceEur": 128150,
        "typeLocal": "Maison",
        "surfaceM2": 60,
        "isVefa": false
      }
    ]
  },
  "97ba4f275114": {
    "id": "97ba4f275114",
    "label": "7016 MEGES, La Salvetat-sur-Agout",
    "lat": 43.625316,
    "lng": 2.672482,
    "transactions": [
      {
        "date": "2020-12-15",
        "priceEur": 67000,
        "typeLocal": "Maison",
        "surfaceM2": 75,
        "isVefa": false
      },
      {
        "date": "2020-12-15",
        "priceEur": 67000,
        "typeLocal": "Maison",
        "surfaceM2": 75,
        "isVefa": false
      }
    ]
  },
  "03b3bc67bc9a": {
    "id": "03b3bc67bc9a",
    "label": "6034 PLO DEL TOUR, La Salvetat-sur-Agout",
    "lat": 43.626134,
    "lng": 2.671137,
    "transactions": [
      {
        "date": "2023-07-03",
        "priceEur": 108340,
        "typeLocal": "Maison",
        "surfaceM2": 64,
        "isVefa": false
      },
      {
        "date": "2023-07-03",
        "priceEur": 108340,
        "typeLocal": "Maison",
        "surfaceM2": 64,
        "isVefa": false
      }
    ]
  },
  "620c4aa561ea": {
    "id": "620c4aa561ea",
    "label": "346 MEGES, La Salvetat-sur-Agout",
    "lat": 43.625718,
    "lng": 2.673696,
    "transactions": [
      {
        "date": "2024-06-19",
        "priceEur": 218470,
        "typeLocal": "Maison",
        "surfaceM2": 142,
        "isVefa": false
      }
    ]
  },
  "e0724e236718": {
    "id": "e0724e236718",
    "label": "6059 LA COMBETTE, La Salvetat-sur-Agout",
    "lat": 43.626218,
    "lng": 2.675398,
    "transactions": [
      {
        "date": "2024-08-17",
        "priceEur": 116000,
        "typeLocal": "Maison",
        "surfaceM2": 36,
        "isVefa": false
      },
      {
        "date": "2024-08-17",
        "priceEur": 116000,
        "typeLocal": "Maison",
        "surfaceM2": 36,
        "isVefa": false
      }
    ]
  },
  "c72b27db2793": {
    "id": "c72b27db2793",
    "label": "255F MEGES, La Salvetat-sur-Agout",
    "lat": 43.626227,
    "lng": 2.673901,
    "transactions": [
      {
        "date": "2024-09-30",
        "priceEur": 190650,
        "typeLocal": "Maison",
        "surfaceM2": 78,
        "isVefa": false
      }
    ]
  },
  "63246d9f623f": {
    "id": "63246d9f623f",
    "label": "343 MEGES, La Salvetat-sur-Agout",
    "lat": 43.625982,
    "lng": 2.674137,
    "transactions": [
      {
        "date": "2024-12-19",
        "priceEur": 135800,
        "typeLocal": "Maison",
        "surfaceM2": 76,
        "isVefa": false
      }
    ]
  }
}