{
  "0e5dc595cb72": {
    "id": "0e5dc595cb72",
    "label": "72 RUE JULES GUESDE, Bauvin",
    "lat": 50.520983,
    "lng": 2.889835,
    "transactions": [
      {
        "date": "2020-09-08",
        "priceEur": 120000,
        "typeLocal": "Maison",
        "surfaceM2": 104,
        "isVefa": false
      }
    ]
  },
  "34f80f34acce": {
    "id": "34f80f34acce",
    "label": "34 RUE PAUL ELUARD, Bauvin",
    "lat": 50.521611,
    "lng": 2.895236,
    "transactions": [
      {
        "date": "2020-08-26",
        "priceEur": 50841,
        "typeLocal": "Maison",
        "surfaceM2": 129,
        "isVefa": false
      }
    ]
  },
  "dd98d714a107": {
    "id": "dd98d714a107",
    "label": "17 RUE FAIDHERBE, Bauvin",
    "lat": 50.520976,
    "lng": 2.894135,
    "transactions": [
      {
        "date": "2020-11-25",
        "priceEur": 199500,
        "typeLocal": "Maison",
        "surfaceM2": 131,
        "isVefa": false
      }
    ]
  },
  "de665b548765": {
    "id": "de665b548765",
    "label": "64 IMP DU MANOIR, Bauvin",
    "lat": 50.520559,
    "lng": 2.889844,
    "transactions": [
      {
        "date": "2021-10-28",
        "priceEur": 150000,
        "typeLocal": "Maison",
        "surfaceM2": 91,
        "isVefa": false
      }
    ]
  },
  "6e784441652f": {
    "id": "6e784441652f",
    "label": "54 IMP DU MANOIR, Bauvin",
    "lat": 50.520544,
    "lng": 2.890184,
    "transactions": [
      {
        "date": "2021-12-15",
        "priceEur": 100000,
        "typeLocal": "Maison",
        "surfaceM2": 65,
        "isVefa": false
      }
    ]
  },
  "06b1ffe29b18": {
    "id": "06b1ffe29b18",
    "label": "19 RUE FAIDHERBE, Bauvin",
    "lat": 50.520732,
    "lng": 2.89436,
    "transactions": [
      {
        "date": "2022-01-21",
        "priceEur": 280600,
        "typeLocal": "Maison",
        "surfaceM2": 213,
        "isVefa": false
      }
    ]
  },
  "2e75a03d0167": {
    "id": "2e75a03d0167",
    "label": "12B RUE EMILE ZOLA, Bauvin",
    "lat": 50.520723,
    "lng": 2.892497,
    "transactions": [
      {
        "date": "2022-08-09",
        "priceEur": 567200,
        "typeLocal": "Maison",
        "surfaceM2": 200,
        "isVefa": false
      }
    ]
  },
  "57f69f5c8af1": {
    "id": "57f69f5c8af1",
    "label": "83 RUE VICTOR HUGO, Bauvin",
    "lat": 50.520686,
    "lng": 2.898793,
    "transactions": [
      {
        "date": "2025-01-20",
        "priceEur": 264000,
        "typeLocal": "Maison",
        "surfaceM2": 111,
        "isVefa": false
      },
      {
        "date": "2022-08-08",
        "priceEur": 262900,
        "typeLocal": "Maison",
        "surfaceM2": 111,
        "isVefa": false
      }
    ]
  },
  "0eee2c2ad8dc": {
    "id": "0eee2c2ad8dc",
    "label": "93 RUE VICTOR HUGO, Bauvin",
    "lat": 50.520679,
    "lng": 2.899442,
    "transactions": [
      {
        "date": "2022-10-06",
        "priceEur": 156000,
        "typeLocal": "Maison",
        "surfaceM2": 72,
        "isVefa": false
      }
    ]
  },
  "ef4426d2bcfa": {
    "id": "ef4426d2bcfa",
    "label": "41B RUE EMILE ZOLA, Bauvin",
    "lat": 50.520983,
    "lng": 2.893293,
    "transactions": [
      {
        "date": "2022-12-22",
        "priceEur": 367420,
        "typeLocal": "Maison",
        "surfaceM2": 119,
        "isVefa": false
      }
    ]
  },
  "25a1ac08dec4": {
    "id": "25a1ac08dec4",
    "label": "6C RUE FAIDHERBE, Bauvin",
    "lat": 50.521327,
    "lng": 2.893541,
    "transactions": [
      {
        "date": "2023-01-13",
        "priceEur": 179130,
        "typeLocal": "Maison",
        "surfaceM2": 77,
        "isVefa": false
      }
    ]
  },
  "84140b907039": {
    "id": "84140b907039",
    "label": "67 RUE JULES GUESDE, Bauvin",
    "lat": 50.521333,
    "lng": 2.890397,
    "transactions": [
      {
        "date": "2023-02-27",
        "priceEur": 160000,
        "typeLocal": "Maison",
        "surfaceM2": 85,
        "isVefa": false
      }
    ]
  },
  "89d5ca394447": {
    "id": "89d5ca394447",
    "label": "95 RUE VICTOR HUGO, Bauvin",
    "lat": 50.520765,
    "lng": 2.899564,
    "transactions": [
      {
        "date": "2023-07-12",
        "priceEur": 144000,
        "typeLocal": "Maison",
        "surfaceM2": 79,
        "isVefa": false
      }
    ]
  },
  "cbbebc75a974": {
    "id": "cbbebc75a974",
    "label": "77 RUE VICTOR HUGO, Bauvin",
    "lat": 50.520699,
    "lng": 2.898388,
    "transactions": [
      {
        "date": "2024-01-18",
        "priceEur": 164000,
        "typeLocal": "Maison",
        "surfaceM2": 79,
        "isVefa": false
      }
    ]
  }
}