{
  "b931e34590c3": {
    "id": "b931e34590c3",
    "label": "1 IMP DE L HERMITAGE, Mèze",
    "lat": 43.431227,
    "lng": 3.599849,
    "transactions": [
      {
        "date": "2020-07-20",
        "priceEur": 340000,
        "typeLocal": "Maison",
        "surfaceM2": 127,
        "isVefa": false
      }
    ]
  },
  "7753f4a0ad20": {
    "id": "7753f4a0ad20",
    "label": "2 RUE LOU PASSERAT, Mèze",
    "lat": 43.435559,
    "lng": 3.598264,
    "transactions": [
      {
        "date": "2020-07-06",
        "priceEur": 259000,
        "typeLocal": "Maison",
        "surfaceM2": 75,
        "isVefa": false
      }
    ]
  },
  "36587954871e": {
    "id": "36587954871e",
    "label": "16 RUE DES CISTES, Mèze",
    "lat": 43.430333,
    "lng": 3.593006,
    "transactions": [
      {
        "date": "2020-07-27",
        "priceEur": 255000,
        "typeLocal": "Maison",
        "surfaceM2": 100,
        "isVefa": false
      }
    ]
  },
  "a8061b70a12c": {
    "id": "a8061b70a12c",
    "label": "4 RUE LOU PASSERAT, Mèze",
    "lat": 43.435585,
    "lng": 3.597948,
    "transactions": [
      {
        "date": "2020-07-30",
        "priceEur": 305100,
        "typeLocal": "Maison",
        "surfaceM2": 78,
        "isVefa": false
      }
    ]
  },
  "940640d0642d": {
    "id": "940640d0642d",
    "label": "4 RUE DES CISTES, Mèze",
    "lat": 43.431042,
    "lng": 3.593295,
    "transactions": [
      {
        "date": "2020-08-24",
        "priceEur": 306360,
        "typeLocal": "Maison",
        "surfaceM2": 117,
        "isVefa": false
      }
    ]
  },
  "e9a3a640c9d8": {
    "id": "e9a3a640c9d8",
    "label": "4 RUE JULES VERNE, Mèze",
    "lat": 43.434786,
    "lng": 3.598095,
    "transactions": [
      {
        "date": "2020-09-14",
        "priceEur": 270530,
        "typeLocal": "Maison",
        "surfaceM2": 82,
        "isVefa": false
      }
    ]
  },
  "823552bc7ed9": {
    "id": "823552bc7ed9",
    "label": "161 CHEM DU CROS, Mèze",
    "lat": 43.432751,
    "lng": 3.601233,
    "transactions": [
      {
        "date": "2024-08-29",
        "priceEur": 280500,
        "typeLocal": "Appartement",
        "surfaceM2": 80,
        "isVefa": false
      },
      {
        "date": "2024-04-30",
        "priceEur": 135000,
        "typeLocal": "Appartement",
        "surfaceM2": 41,
        "isVefa": false
      },
      {
        "date": "2023-06-15",
        "priceEur": 252500,
        "typeLocal": "Appartement",
        "surfaceM2": 80,
        "isVefa": false
      },
      {
        "date": "2023-02-17",
        "priceEur": 148000,
        "typeLocal": "Appartement",
        "surfaceM2": 47,
        "isVefa": false
      },
      {
        "date": "2022-12-12",
        "priceEur": 220000,
        "typeLocal": "Appartement",
        "surfaceM2": 62,
        "isVefa": false
      },
      {
        "date": "2022-09-06",
        "priceEur": 134700,
        "typeLocal": "Appartement",
        "surfaceM2": 43,
        "isVefa": false
      },
      {
        "date": "2022-08-03",
        "priceEur": 145000,
        "typeLocal": "Appartement",
        "surfaceM2": 44,
        "isVefa": false
      },
      {
        "date": "2022-05-19",
        "priceEur": 139750,
        "typeLocal": "Appartement",
        "surfaceM2": 46,
        "isVefa": false
      },
      {
        "date": "2022-05-05",
        "priceEur": 120000,
        "typeLocal": "Appartement",
        "surfaceM2": 42,
        "isVefa": false
      },
      {
        "date": "2022-03-09",
        "priceEur": 162000,
        "typeLocal": "Appartement",
        "surfaceM2": 66,
        "isVefa": false
      },
      {
        "date": "2022-02-21",
        "priceEur": 80000,
        "typeLocal": "Appartement",
        "surfaceM2": 25,
        "isVefa": false
      },
      {
        "date": "2022-02-17",
        "priceEur": 174500,
        "typeLocal": "Appartement",
        "surfaceM2": 62,
        "isVefa": false
      },
      {
        "date": "2021-11-19",
        "priceEur": 140000,
        "typeLocal": "Appartement",
        "surfaceM2": 44,
        "isVefa": false
      },
      {
        "date": "2021-10-30",
        "priceEur": 145116,
        "typeLocal": "Appartement",
        "surfaceM2": 66,
        "isVefa": false
      },
      {
        "date": "2021-09-27",
        "priceEur": 116279,
        "typeLocal": "Appartement",
        "surfaceM2": 41,
        "isVefa": false
      },
      {
        "date": "2021-09-08",
        "priceEur": 128500,
        "typeLocal": "Appartement",
        "surfaceM2": 43,
        "isVefa": false
      },
      {
        "date": "2021-09-01",
        "priceEur": 231500,
        "typeLocal": "Appartement",
        "surfaceM2": 80,
        "isVefa": false
      },
      {
        "date": "2021-07-20",
        "priceEur": 135290,
        "typeLocal": "Appartement",
        "surfaceM2": 43,
        "isVefa": false
      },
      {
        "date": "2021-05-05",
        "priceEur": 125000,
        "typeLocal": "Appartement",
        "surfaceM2": 47,
        "isVefa": false
      },
      {
        "date": "2021-03-26",
        "priceEur": 147000,
        "typeLocal": "Appartement",
        "surfaceM2": 63,
        "isVefa": false
      },
      {
        "date": "2020-11-27",
        "priceEur": 130820,
        "typeLocal": "Appartement",
        "surfaceM2": 47,
        "isVefa": false
      },
      {
        "date": "2020-10-21",
        "priceEur": 157100,
        "typeLocal": "Appartement",
        "surfaceM2": 61,
        "isVefa": false
      },
      {
        "date": "2020-09-30",
        "priceEur": 100000,
        "typeLocal": "Appartement",
        "surfaceM2": 43,
        "isVefa": false
      }
    ]
  },
  "390d60713828": {
    "id": "390d60713828",
    "label": "21 RUE MARIE CURIE, Mèze",
    "lat": 43.43519,
    "lng": 3.59657,
    "transactions": [
      {
        "date": "2020-09-04",
        "priceEur": 345000,
        "typeLocal": "Maison",
        "surfaceM2": 120,
        "isVefa": false
      }
    ]
  },
  "976afa09d5c0": {
    "id": "976afa09d5c0",
    "label": "2 CHE DES COSTES, Mèze",
    "lat": 43.433186,
    "lng": 3.593046,
    "transactions": [
      {
        "date": "2020-09-22",
        "priceEur": 390750,
        "typeLocal": "Maison",
        "surfaceM2": 131,
        "isVefa": false
      }
    ]
  },
  "f146f96bad59": {
    "id": "f146f96bad59",
    "label": "29 RUE DES CITRONNIERS, Mèze",
    "lat": 43.43616,
    "lng": 3.602076,
    "transactions": [
      {
        "date": "2024-12-20",
        "priceEur": 323450,
        "typeLocal": "Maison",
        "surfaceM2": 99,
        "isVefa": false
      },
      {
        "date": "2020-10-22",
        "priceEur": 270000,
        "typeLocal": "Maison",
        "surfaceM2": 99,
        "isVefa": false
      }
    ]
  },
  "bd8fa4ca1c1c": {
    "id": "bd8fa4ca1c1c",
    "label": "21 RUE DU BELVEDERE, Mèze",
    "lat": 43.432728,
    "lng": 3.598849,
    "transactions": [
      {
        "date": "2020-10-27",
        "priceEur": 266867,
        "typeLocal": "Maison",
        "surfaceM2": 97,
        "isVefa": false
      }
    ]
  },
  "93bdc072c71d": {
    "id": "93bdc072c71d",
    "label": "18 RUE DU CARIGNAN, Mèze",
    "lat": 43.429354,
    "lng": 3.595648,
    "transactions": [
      {
        "date": "2020-11-26",
        "priceEur": 280000,
        "typeLocal": "Maison",
        "surfaceM2": 84,
        "isVefa": false
      }
    ]
  },
  "90b56d2909f8": {
    "id": "90b56d2909f8",
    "label": "297 CHE DU ROMANY, Mèze",
    "lat": 43.431587,
    "lng": 3.598433,
    "transactions": [
      {
        "date": "2020-11-13",
        "priceEur": 528000,
        "typeLocal": "Maison",
        "surfaceM2": 182,
        "isVefa": false
      }
    ]
  },
  "e59201fb1688": {
    "id": "e59201fb1688",
    "label": "10 RUE DES CITRONNIERS, Mèze",
    "lat": 43.435902,
    "lng": 3.599859,
    "transactions": [
      {
        "date": "2020-12-23",
        "priceEur": 303000,
        "typeLocal": "Maison",
        "surfaceM2": 101,
        "isVefa": false
      }
    ]
  },
  "118d779c2c9c": {
    "id": "118d779c2c9c",
    "label": "24 RUE BEAU SOLEIL, Mèze",
    "lat": 43.436319,
    "lng": 3.598373,
    "transactions": [
      {
        "date": "2020-12-29",
        "priceEur": 315000,
        "typeLocal": "Maison",
        "surfaceM2": 90,
        "isVefa": false
      }
    ]
  },
  "f17ace50b8d8": {
    "id": "f17ace50b8d8",
    "label": "17 RUE BEAU SOLEIL, Mèze",
    "lat": 43.436862,
    "lng": 3.598642,
    "transactions": [
      {
        "date": "2021-01-18",
        "priceEur": 423720,
        "typeLocal": "Maison",
        "surfaceM2": 113,
        "isVefa": false
      }
    ]
  },
  "93ab53570e22": {
    "id": "93ab53570e22",
    "label": "6 RUE FERDINAND FABRE, Mèze",
    "lat": 43.430129,
    "lng": 3.603228,
    "transactions": [
      {
        "date": "2021-01-22",
        "priceEur": 399150,
        "typeLocal": "Maison",
        "surfaceM2": 148,
        "isVefa": false
      }
    ]
  },
  "8d7eadded806": {
    "id": "8d7eadded806",
    "label": "12B RUE DU HUIT MAI 1945, Mèze",
    "lat": 43.430053,
    "lng": 3.598207,
    "transactions": [
      {
        "date": "2021-03-01",
        "priceEur": 225000,
        "typeLocal": "Maison",
        "surfaceM2": 100,
        "isVefa": false
      }
    ]
  },
  "3efded272cd3": {
    "id": "3efded272cd3",
    "label": "17 RUE DU CERISIER, Mèze",
    "lat": 43.430226,
    "lng": 3.594488,
    "transactions": [
      {
        "date": "2021-03-19",
        "priceEur": 337900,
        "typeLocal": "Maison",
        "surfaceM2": 83,
        "isVefa": false
      }
    ]
  },
  "6408cfb3d2bd": {
    "id": "6408cfb3d2bd",
    "label": "11 RUE LA BELLONE, Mèze",
    "lat": 43.435807,
    "lng": 3.593523,
    "transactions": [
      {
        "date": "2021-03-22",
        "priceEur": 306000,
        "typeLocal": "Maison",
        "surfaceM2": 85,
        "isVefa": false
      }
    ]
  },
  "ec9b4fa2b800": {
    "id": "ec9b4fa2b800",
    "label": "22 RUE DU HUIT MAI 1945, Mèze",
    "lat": 43.430637,
    "lng": 3.596991,
    "transactions": [
      {
        "date": "2021-03-19",
        "priceEur": 385345,
        "typeLocal": "Maison",
        "surfaceM2": 88,
        "isVefa": false
      }
    ]
  },
  "598bc7ffdda0": {
    "id": "598bc7ffdda0",
    "label": "54 AV DE PEZENAS, Mèze",
    "lat": 43.43094,
    "lng": 3.598,
    "transactions": [
      {
        "date": "2021-03-26",
        "priceEur": 284800,
        "typeLocal": "Maison",
        "surfaceM2": 79,
        "isVefa": false
      }
    ]
  },
  "73ba38cf1902": {
    "id": "73ba38cf1902",
    "label": "14 RUE DU BOULETCHOU, Mèze",
    "lat": 43.43622,
    "lng": 3.597017,
    "transactions": [
      {
        "date": "2021-04-13",
        "priceEur": 222000,
        "typeLocal": "Maison",
        "surfaceM2": 70,
        "isVefa": false
      }
    ]
  },
  "bf2bd425e48e": {
    "id": "bf2bd425e48e",
    "label": "3 CHE DU ROMANY BAS, Mèze",
    "lat": 43.431404,
    "lng": 3.598092,
    "transactions": [
      {
        "date": "2021-04-22",
        "priceEur": 359670,
        "typeLocal": "Maison",
        "surfaceM2": 100,
        "isVefa": false
      }
    ]
  },
  "4d7c20c1d7f7": {
    "id": "4d7c20c1d7f7",
    "label": "6 RUE ADRIEN BERNARD, Mèze",
    "lat": 43.429045,
    "lng": 3.600128,
    "transactions": [
      {
        "date": "2024-10-17",
        "priceEur": 458570,
        "typeLocal": "Appartement",
        "surfaceM2": 60,
        "isVefa": false
      },
      {
        "date": "2024-10-17",
        "priceEur": 458570,
        "typeLocal": "Appartement",
        "surfaceM2": 120,
        "isVefa": false
      },
      {
        "date": "2021-05-03",
        "priceEur": 495270,
        "typeLocal": "Appartement",
        "surfaceM2": 60,
        "isVefa": false
      },
      {
        "date": "2021-05-03",
        "priceEur": 495270,
        "typeLocal": "Appartement",
        "surfaceM2": 120,
        "isVefa": false
      }
    ]
  },
  "bd8f84f42955": {
    "id": "bd8f84f42955",
    "label": "856 CHE DU ROMANY, Mèze",
    "lat": 43.435332,
    "lng": 3.593974,
    "transactions": [
      {
        "date": "2021-05-04",
        "priceEur": 295000,
        "typeLocal": "Maison",
        "surfaceM2": 90,
        "isVefa": false
      }
    ]
  },
  "e5a006e9434d": {
    "id": "e5a006e9434d",
    "label": "4 RUE DES ORANGERS, Mèze",
    "lat": 43.4349,
    "lng": 3.599603,
    "transactions": [
      {
        "date": "2021-06-01",
        "priceEur": 366000,
        "typeLocal": "Maison",
        "surfaceM2": 90,
        "isVefa": false
      }
    ]
  },
  "24959e9ab106": {
    "id": "24959e9ab106",
    "label": "5 RUE HENRI BESSEDE, Mèze",
    "lat": 43.43452,
    "lng": 3.597547,
    "transactions": [
      {
        "date": "2021-06-01",
        "priceEur": 281000,
        "typeLocal": "Maison",
        "surfaceM2": 92,
        "isVefa": false
      }
    ]
  },
  "3b06f2f54d83": {
    "id": "3b06f2f54d83",
    "label": "26 LOT LE CHEVREFEUILLE, Mèze",
    "lat": 43.431169,
    "lng": 3.593142,
    "transactions": [
      {
        "date": "2021-06-08",
        "priceEur": 211000,
        "typeLocal": "Maison",
        "surfaceM2": 75,
        "isVefa": false
      }
    ]
  },
  "ccd62bfc7f54": {
    "id": "ccd62bfc7f54",
    "label": "7 RUE DU CARIGNAN, Mèze",
    "lat": 43.429687,
    "lng": 3.596639,
    "transactions": [
      {
        "date": "2021-06-14",
        "priceEur": 315000,
        "typeLocal": "Maison",
        "surfaceM2": 95,
        "isVefa": false
      }
    ]
  },
  "290f6b81add9": {
    "id": "290f6b81add9",
    "label": "796 CHE DU ROMANY, Mèze",
    "lat": 43.435008,
    "lng": 3.594475,
    "transactions": [
      {
        "date": "2022-02-15",
        "priceEur": 367600,
        "typeLocal": "Maison",
        "surfaceM2": 90,
        "isVefa": false
      },
      {
        "date": "2021-06-14",
        "priceEur": 332600,
        "typeLocal": "Maison",
        "surfaceM2": 90,
        "isVefa": false
      }
    ]
  },
  "bbd81a1e133b": {
    "id": "bbd81a1e133b",
    "label": "19 RUE DU CHEVREFEUILLE, Mèze",
    "lat": 43.431056,
    "lng": 3.592598,
    "transactions": [
      {
        "date": "2021-06-22",
        "priceEur": 485050,
        "typeLocal": "Maison",
        "surfaceM2": 125,
        "isVefa": false
      }
    ]
  },
  "98c8107672a7": {
    "id": "98c8107672a7",
    "label": "8 RUE DU PARC, Mèze",
    "lat": 43.43629,
    "lng": 3.599509,
    "transactions": [
      {
        "date": "2021-07-01",
        "priceEur": 328300,
        "typeLocal": "Maison",
        "surfaceM2": 99,
        "isVefa": false
      }
    ]
  },
  "84dfbd1c52f7": {
    "id": "84dfbd1c52f7",
    "label": "18 IMP LE CLOS DES SESQUIERS, Mèze",
    "lat": 43.433441,
    "lng": 3.600313,
    "transactions": [
      {
        "date": "2021-07-15",
        "priceEur": 480000,
        "typeLocal": "Maison",
        "surfaceM2": 132,
        "isVefa": false
      }
    ]
  },
  "a99b0502297f": {
    "id": "a99b0502297f",
    "label": "15 RUE HENRI BESSEDE, Mèze",
    "lat": 43.433842,
    "lng": 3.597127,
    "transactions": [
      {
        "date": "2021-07-26",
        "priceEur": 374420,
        "typeLocal": "Maison",
        "surfaceM2": 123,
        "isVefa": false
      }
    ]
  },
  "4f888d27e5b2": {
    "id": "4f888d27e5b2",
    "label": "716 CHE DU ROMANY, Mèze",
    "lat": 43.434852,
    "lng": 3.595265,
    "transactions": [
      {
        "date": "2021-07-15",
        "priceEur": 369000,
        "typeLocal": "Maison",
        "surfaceM2": 116,
        "isVefa": false
      }
    ]
  },
  "2c1ec1155b12": {
    "id": "2c1ec1155b12",
    "label": "1B CAGUE LOUPS, Mèze",
    "lat": 43.433556,
    "lng": 3.593345,
    "transactions": [
      {
        "date": "2021-08-16",
        "priceEur": 526220,
        "typeLocal": "Maison",
        "surfaceM2": 165,
        "isVefa": false
      },
      {
        "date": "2021-08-16",
        "priceEur": 526220,
        "typeLocal": "Maison",
        "surfaceM2": 165,
        "isVefa": false
      }
    ]
  },
  "fc6911fd77c4": {
    "id": "fc6911fd77c4",
    "label": "607 CHE DU ROMANY, Mèze",
    "lat": 43.433224,
    "lng": 3.595439,
    "transactions": [
      {
        "date": "2021-07-28",
        "priceEur": 536800,
        "typeLocal": "Maison",
        "surfaceM2": 112,
        "isVefa": false
      },
      {
        "date": "2021-07-28",
        "priceEur": 536800,
        "typeLocal": "Maison",
        "surfaceM2": 112,
        "isVefa": false
      }
    ]
  },
  "1e4224095bd9": {
    "id": "1e4224095bd9",
    "label": "6 RUE MOULOUDJI, Mèze",
    "lat": 43.431611,
    "lng": 3.601404,
    "transactions": [
      {
        "date": "2025-02-17",
        "priceEur": 336000,
        "typeLocal": "Maison",
        "surfaceM2": 93,
        "isVefa": false
      },
      {
        "date": "2021-08-06",
        "priceEur": 305000,
        "typeLocal": "Maison",
        "surfaceM2": 93,
        "isVefa": false
      }
    ]
  },
  "8418d0a31289": {
    "id": "8418d0a31289",
    "label": "44B AV DE PEZENAS, Mèze",
    "lat": 43.429619,
    "lng": 3.600918,
    "transactions": [
      {
        "date": "2021-08-31",
        "priceEur": 630000,
        "typeLocal": "Maison",
        "surfaceM2": 80,
        "isVefa": false
      }
    ]
  },
  "a7749ae4aeb6": {
    "id": "a7749ae4aeb6",
    "label": "18 RUE DES ENFEDETTES, Mèze",
    "lat": 43.435832,
    "lng": 3.602771,
    "transactions": [
      {
        "date": "2024-11-05",
        "priceEur": 225000,
        "typeLocal": "Appartement",
        "surfaceM2": 71,
        "isVefa": false
      },
      {
        "date": "2024-05-24",
        "priceEur": 166850,
        "typeLocal": "Appartement",
        "surfaceM2": 48,
        "isVefa": false
      },
      {
        "date": "2023-12-06",
        "priceEur": 150500,
        "typeLocal": "Appartement",
        "surfaceM2": 49,
        "isVefa": false
      },
      {
        "date": "2023-09-19",
        "priceEur": 155500,
        "typeLocal": "Appartement",
        "surfaceM2": 48,
        "isVefa": false
      },
      {
        "date": "2023-01-13",
        "priceEur": 135000,
        "typeLocal": "Appartement",
        "surfaceM2": 49,
        "isVefa": false
      },
      {
        "date": "2021-11-12",
        "priceEur": 144000,
        "typeLocal": "Appartement",
        "surfaceM2": 48,
        "isVefa": false
      },
      {
        "date": "2021-09-10",
        "priceEur": 138000,
        "typeLocal": "Appartement",
        "surfaceM2": 46,
        "isVefa": false
      }
    ]
  },
  "cbd9474c2d5b": {
    "id": "cbd9474c2d5b",
    "label": "2 IMP DE L HERMITAGE, Mèze",
    "lat": 43.43134,
    "lng": 3.59999,
    "transactions": [
      {
        "date": "2021-09-21",
        "priceEur": 355150,
        "typeLocal": "Maison",
        "surfaceM2": 104,
        "isVefa": false
      }
    ]
  },
  "e1f8526b7cf3": {
    "id": "e1f8526b7cf3",
    "label": "9309F RUE DU CLAIR SOLEIL, Mèze",
    "lat": 43.43044,
    "lng": 3.60076,
    "transactions": [
      {
        "date": "2021-10-15",
        "priceEur": 538535,
        "typeLocal": "Maison",
        "surfaceM2": 104,
        "isVefa": false
      }
    ]
  },
  "62ecfe0a9503": {
    "id": "62ecfe0a9503",
    "label": "104 CHEM DU CROS, Mèze",
    "lat": 43.432521,
    "lng": 3.602392,
    "transactions": [
      {
        "date": "2021-04-28",
        "priceEur": 300000,
        "typeLocal": "Maison",
        "surfaceM2": 92,
        "isVefa": false
      }
    ]
  },
  "92f82fc338b4": {
    "id": "92f82fc338b4",
    "label": "3 RUE DU PARC, Mèze",
    "lat": 43.436421,
    "lng": 3.599103,
    "transactions": [
      {
        "date": "2021-10-25",
        "priceEur": 369000,
        "typeLocal": "Maison",
        "surfaceM2": 114,
        "isVefa": false
      }
    ]
  },
  "d9b2874140df": {
    "id": "d9b2874140df",
    "label": "3 RUE HENRI BESSEDE, Mèze",
    "lat": 43.434679,
    "lng": 3.597599,
    "transactions": [
      {
        "date": "2021-10-28",
        "priceEur": 248000,
        "typeLocal": "Maison",
        "surfaceM2": 75,
        "isVefa": false
      }
    ]
  },
  "1a5c9ad16ef1": {
    "id": "1a5c9ad16ef1",
    "label": "9 RUE LA BELLONE, Mèze",
    "lat": 43.43585,
    "lng": 3.593718,
    "transactions": [
      {
        "date": "2021-11-17",
        "priceEur": 310000,
        "typeLocal": "Maison",
        "surfaceM2": 95,
        "isVefa": false
      }
    ]
  },
  "71481927bab0": {
    "id": "71481927bab0",
    "label": "799 CHE DU ROMANY, Mèze",
    "lat": 43.43439,
    "lng": 3.594469,
    "transactions": [
      {
        "date": "2021-12-10",
        "priceEur": 600000,
        "typeLocal": "Maison",
        "surfaceM2": 84,
        "isVefa": false
      },
      {
        "date": "2021-12-10",
        "priceEur": 600000,
        "typeLocal": "Maison",
        "surfaceM2": 84,
        "isVefa": false
      }
    ]
  },
  "f4fbc4cddc08": {
    "id": "f4fbc4cddc08",
    "label": "4 RUE LA BELLONE, Mèze",
    "lat": 43.435884,
    "lng": 3.594715,
    "transactions": [
      {
        "date": "2021-11-23",
        "priceEur": 431650,
        "typeLocal": "Maison",
        "surfaceM2": 100,
        "isVefa": false
      }
    ]
  },
  "c851d091bccf": {
    "id": "c851d091bccf",
    "label": "6 RUE DU CLAIR SOLEIL, Mèze",
    "lat": 43.430944,
    "lng": 3.601348,
    "transactions": [
      {
        "date": "2021-12-20",
        "priceEur": 381500,
        "typeLocal": "Maison",
        "surfaceM2": 103,
        "isVefa": false
      }
    ]
  },
  "d6c6ef56a104": {
    "id": "d6c6ef56a104",
    "label": "21 RUE JULES VERNE, Mèze",
    "lat": 43.433679,
    "lng": 3.597788,
    "transactions": [
      {
        "date": "2021-12-08",
        "priceEur": 347250,
        "typeLocal": "Maison",
        "surfaceM2": 91,
        "isVefa": false
      }
    ]
  },
  "7ec631cd14e0": {
    "id": "7ec631cd14e0",
    "label": "25 RUE DES CITRONNIERS, Mèze",
    "lat": 43.436415,
    "lng": 3.60205,
    "transactions": [
      {
        "date": "2022-01-06",
        "priceEur": 374805,
        "typeLocal": "Maison",
        "surfaceM2": 85,
        "isVefa": false
      }
    ]
  },
  "3f62e2e5d6cd": {
    "id": "3f62e2e5d6cd",
    "label": "5 RUE DES COQUELICOTS, Mèze",
    "lat": 43.431646,
    "lng": 3.59379,
    "transactions": [
      {
        "date": "2022-01-17",
        "priceEur": 125679,
        "typeLocal": "Maison",
        "surfaceM2": 88,
        "isVefa": false
      }
    ]
  },
  "f0799ba91c10": {
    "id": "f0799ba91c10",
    "label": "4 CHE DU ROMANY BAS, Mèze",
    "lat": 43.431313,
    "lng": 3.598215,
    "transactions": [
      {
        "date": "2022-02-18",
        "priceEur": 395000,
        "typeLocal": "Maison",
        "surfaceM2": 112,
        "isVefa": false
      }
    ]
  },
  "bf5e1df4da7b": {
    "id": "bf5e1df4da7b",
    "label": "10 RUE HENRI BESSEDE, Mèze",
    "lat": 43.434349,
    "lng": 3.5969,
    "transactions": [
      {
        "date": "2022-01-27",
        "priceEur": 295000,
        "typeLocal": "Maison",
        "surfaceM2": 96,
        "isVefa": false
      }
    ]
  },
  "3d505cdb0f7b": {
    "id": "3d505cdb0f7b",
    "label": "4 RUE DES COQUELICOTS, Mèze",
    "lat": 43.431894,
    "lng": 3.593449,
    "transactions": [
      {
        "date": "2022-02-11",
        "priceEur": 345000,
        "typeLocal": "Maison",
        "surfaceM2": 102,
        "isVefa": false
      }
    ]
  },
  "c5994d643fb9": {
    "id": "c5994d643fb9",
    "label": "3 RUE DU CLAIR SOLEIL, Mèze",
    "lat": 43.430484,
    "lng": 3.60133,
    "transactions": [
      {
        "date": "2023-04-25",
        "priceEur": 35207.87,
        "typeLocal": "Appartement",
        "surfaceM2": 73,
        "isVefa": false
      },
      {
        "date": "2023-04-25",
        "priceEur": 35207.87,
        "typeLocal": "Appartement",
        "surfaceM2": 118,
        "isVefa": false
      },
      {
        "date": "2022-04-01",
        "priceEur": 480000,
        "typeLocal": "Appartement",
        "surfaceM2": 73,
        "isVefa": false
      },
      {
        "date": "2022-04-01",
        "priceEur": 480000,
        "typeLocal": "Appartement",
        "surfaceM2": 118,
        "isVefa": false
      }
    ]
  },
  "cc66801bf69a": {
    "id": "cc66801bf69a",
    "label": "19 RUE DU CARIGNAN, Mèze",
    "lat": 43.429273,
    "lng": 3.595903,
    "transactions": [
      {
        "date": "2022-04-25",
        "priceEur": 332910,
        "typeLocal": "Maison",
        "surfaceM2": 85,
        "isVefa": false
      }
    ]
  },
  "d57c1afc6010": {
    "id": "d57c1afc6010",
    "label": "4 CHEM DU CROS, Mèze",
    "lat": 43.435018,
    "lng": 3.596065,
    "transactions": [
      {
        "date": "2022-10-21",
        "priceEur": 328900,
        "typeLocal": "Maison",
        "surfaceM2": 96,
        "isVefa": false
      },
      {
        "date": "2022-04-21",
        "priceEur": 239730,
        "typeLocal": "Maison",
        "surfaceM2": 85,
        "isVefa": false
      }
    ]
  },
  "672a67aec212": {
    "id": "672a67aec212",
    "label": "16 RUE DU HUIT MAI 1945, Mèze",
    "lat": 43.430158,
    "lng": 3.597503,
    "transactions": [
      {
        "date": "2022-05-06",
        "priceEur": 250000,
        "typeLocal": "Maison",
        "surfaceM2": 45,
        "isVefa": false
      }
    ]
  },
  "7a4674bb39c5": {
    "id": "7a4674bb39c5",
    "label": "11 RUE DU CARIGNAN, Mèze",
    "lat": 43.429649,
    "lng": 3.596351,
    "transactions": [
      {
        "date": "2022-05-30",
        "priceEur": 351800,
        "typeLocal": "Maison",
        "surfaceM2": 100,
        "isVefa": false
      }
    ]
  },
  "5a72bebac093": {
    "id": "5a72bebac093",
    "label": "7 IMP CLOS DES MONTARELS, Mèze",
    "lat": 43.429854,
    "lng": 3.593716,
    "transactions": [
      {
        "date": "2022-06-09",
        "priceEur": 341280,
        "typeLocal": "Maison",
        "surfaceM2": 100,
        "isVefa": false
      }
    ]
  },
  "1d71218aa0eb": {
    "id": "1d71218aa0eb",
    "label": "11 CITE CLAIR SOLEIL, Mèze",
    "lat": 43.43089,
    "lng": 3.600501,
    "transactions": [
      {
        "date": "2022-06-03",
        "priceEur": 594500,
        "typeLocal": "Maison",
        "surfaceM2": 168,
        "isVefa": false
      }
    ]
  },
  "6b0c1196d1a2": {
    "id": "6b0c1196d1a2",
    "label": "4 RUE DES CIGALINES, Mèze",
    "lat": 43.429205,
    "lng": 3.596816,
    "transactions": [
      {
        "date": "2022-06-14",
        "priceEur": 314200,
        "typeLocal": "Maison",
        "surfaceM2": 85,
        "isVefa": false
      }
    ]
  },
  "f83064eeaeb9": {
    "id": "f83064eeaeb9",
    "label": "12 IMP FERDINAND FABRE, Mèze",
    "lat": 43.429109,
    "lng": 3.602999,
    "transactions": [
      {
        "date": "2025-01-15",
        "priceEur": 278500,
        "typeLocal": "Maison",
        "surfaceM2": 81,
        "isVefa": false
      },
      {
        "date": "2022-07-05",
        "priceEur": 290000,
        "typeLocal": "Maison",
        "surfaceM2": 81,
        "isVefa": false
      }
    ]
  },
  "719ec7fa3e85": {
    "id": "719ec7fa3e85",
    "label": "609 CHE DU ROMANY, Mèze",
    "lat": 43.433272,
    "lng": 3.595715,
    "transactions": [
      {
        "date": "2022-06-24",
        "priceEur": 576200,
        "typeLocal": "Maison",
        "surfaceM2": 170,
        "isVefa": false
      }
    ]
  },
  "fb474df047bf": {
    "id": "fb474df047bf",
    "label": "340 CHE DU ROMANY, Mèze",
    "lat": 43.432187,
    "lng": 3.598437,
    "transactions": [
      {
        "date": "2022-07-06",
        "priceEur": 410000,
        "typeLocal": "Maison",
        "surfaceM2": 97,
        "isVefa": false
      }
    ]
  },
  "3ad6cfc3911e": {
    "id": "3ad6cfc3911e",
    "label": "22 RUE DU BOULETCHOU, Mèze",
    "lat": 43.436322,
    "lng": 3.597468,
    "transactions": [
      {
        "date": "2022-07-19",
        "priceEur": 331000,
        "typeLocal": "Maison",
        "surfaceM2": 88,
        "isVefa": false
      }
    ]
  },
  "b6070736246d": {
    "id": "b6070736246d",
    "label": "2 IMP TOURNESOL, Mèze",
    "lat": 43.434751,
    "lng": 3.601504,
    "transactions": [
      {
        "date": "2022-07-06",
        "priceEur": 466900,
        "typeLocal": "Maison",
        "surfaceM2": 110,
        "isVefa": false
      }
    ]
  },
  "ed12f945348f": {
    "id": "ed12f945348f",
    "label": "12 RUE DU BOULETCHOU, Mèze",
    "lat": 43.436143,
    "lng": 3.59696,
    "transactions": [
      {
        "date": "2022-07-21",
        "priceEur": 330000,
        "typeLocal": "Maison",
        "surfaceM2": 70,
        "isVefa": false
      }
    ]
  },
  "fe230a3ef677": {
    "id": "fe230a3ef677",
    "label": "1 RUE DES ORANGERS, Mèze",
    "lat": 43.435101,
    "lng": 3.599117,
    "transactions": [
      {
        "date": "2022-08-12",
        "priceEur": 445000,
        "typeLocal": "Maison",
        "surfaceM2": 118,
        "isVefa": false
      }
    ]
  },
  "72060ce72d9e": {
    "id": "72060ce72d9e",
    "label": "10 RUE DES CISTES, Mèze",
    "lat": 43.430627,
    "lng": 3.593006,
    "transactions": [
      {
        "date": "2022-08-18",
        "priceEur": 498000,
        "typeLocal": "Maison",
        "surfaceM2": 110,
        "isVefa": false
      }
    ]
  },
  "9338a9522ff2": {
    "id": "9338a9522ff2",
    "label": "2 RUE MOULOUDJI, Mèze",
    "lat": 43.431732,
    "lng": 3.601118,
    "transactions": [
      {
        "date": "2022-08-10",
        "priceEur": 368500,
        "typeLocal": "Maison",
        "surfaceM2": 114,
        "isVefa": false
      }
    ]
  },
  "3bd17682e291": {
    "id": "3bd17682e291",
    "label": "4 IMP TOURNESOL, Mèze",
    "lat": 43.434556,
    "lng": 3.601214,
    "transactions": [
      {
        "date": "2022-09-16",
        "priceEur": 495820,
        "typeLocal": "Maison",
        "surfaceM2": 93,
        "isVefa": false
      }
    ]
  },
  "9a5f11b227d7": {
    "id": "9a5f11b227d7",
    "label": "30 RUE BEAU SOLEIL, Mèze",
    "lat": 43.436503,
    "lng": 3.598611,
    "transactions": [
      {
        "date": "2022-11-09",
        "priceEur": 374500,
        "typeLocal": "Maison",
        "surfaceM2": 100,
        "isVefa": false
      }
    ]
  },
  "952d905c0c66": {
    "id": "952d905c0c66",
    "label": "2 RUE DES LIONS, Mèze",
    "lat": 43.43055,
    "lng": 3.599645,
    "transactions": [
      {
        "date": "2022-11-18",
        "priceEur": 290000,
        "typeLocal": "Maison",
        "surfaceM2": 65,
        "isVefa": false
      }
    ]
  },
  "9dbdcb815304": {
    "id": "9dbdcb815304",
    "label": "201 CHE DU ROMANY BAS, Mèze",
    "lat": 43.430916,
    "lng": 3.5994,
    "transactions": [
      {
        "date": "2022-11-09",
        "priceEur": 328250,
        "typeLocal": "Maison",
        "surfaceM2": 89,
        "isVefa": false
      }
    ]
  },
  "993fe48a870a": {
    "id": "993fe48a870a",
    "label": "1 RUE PAUL DELBES, Mèze",
    "lat": 43.430284,
    "lng": 3.60244,
    "transactions": [
      {
        "date": "2022-11-09",
        "priceEur": 556850,
        "typeLocal": "Maison",
        "surfaceM2": 129,
        "isVefa": false
      }
    ]
  },
  "9cd6f2b14338": {
    "id": "9cd6f2b14338",
    "label": "36 RUE JULES VERNE, Mèze",
    "lat": 43.433121,
    "lng": 3.597311,
    "transactions": [
      {
        "date": "2022-11-14",
        "priceEur": 429600,
        "typeLocal": "Maison",
        "surfaceM2": 112,
        "isVefa": false
      }
    ]
  },
  "977ff94d32d5": {
    "id": "977ff94d32d5",
    "label": "577 CHEM DU CROS, Mèze",
    "lat": 43.435072,
    "lng": 3.598014,
    "transactions": [
      {
        "date": "2022-12-09",
        "priceEur": 228172,
        "typeLocal": "Maison",
        "surfaceM2": 124,
        "isVefa": false
      }
    ]
  },
  "c7b8ba9630d4": {
    "id": "c7b8ba9630d4",
    "label": "29 RUE JULES VERNE, Mèze",
    "lat": 43.433648,
    "lng": 3.597229,
    "transactions": [
      {
        "date": "2022-12-16",
        "priceEur": 485245,
        "typeLocal": "Maison",
        "surfaceM2": 136,
        "isVefa": false
      }
    ]
  },
  "735cca57c135": {
    "id": "735cca57c135",
    "label": "10 IMP DE LA CROIX DES AIGUILLONS, Mèze",
    "lat": 43.430154,
    "lng": 3.594849,
    "transactions": [
      {
        "date": "2023-01-26",
        "priceEur": 352950,
        "typeLocal": "Maison",
        "surfaceM2": 89,
        "isVefa": false
      }
    ]
  },
  "ad580bec5dfc": {
    "id": "ad580bec5dfc",
    "label": "503 CHEM DU CROS, Mèze",
    "lat": 43.434681,
    "lng": 3.598703,
    "transactions": [
      {
        "date": "2023-01-31",
        "priceEur": 414000,
        "typeLocal": "Maison",
        "surfaceM2": 85,
        "isVefa": false
      }
    ]
  },
  "759d8aba6be2": {
    "id": "759d8aba6be2",
    "label": "2 RUE DU CHEVAL BLANC, Mèze",
    "lat": 43.433419,
    "lng": 3.601869,
    "transactions": [
      {
        "date": "2023-03-14",
        "priceEur": 324300,
        "typeLocal": "Maison",
        "surfaceM2": 91,
        "isVefa": false
      }
    ]
  },
  "cc2fad1337d9": {
    "id": "cc2fad1337d9",
    "label": "6 RUE LE LISERON, Mèze",
    "lat": 43.435748,
    "lng": 3.594905,
    "transactions": [
      {
        "date": "2023-03-08",
        "priceEur": 301500,
        "typeLocal": "Maison",
        "surfaceM2": 89,
        "isVefa": false
      }
    ]
  },
  "5ebb54542357": {
    "id": "5ebb54542357",
    "label": "9 RUE LE LISERON, Mèze",
    "lat": 43.435401,
    "lng": 3.595364,
    "transactions": [
      {
        "date": "2023-04-11",
        "priceEur": 388200,
        "typeLocal": "Maison",
        "surfaceM2": 86,
        "isVefa": false
      }
    ]
  },
  "0fe4a854e428": {
    "id": "0fe4a854e428",
    "label": "16 RUE DES GENETS, Mèze",
    "lat": 43.436425,
    "lng": 3.596891,
    "transactions": [
      {
        "date": "2023-04-17",
        "priceEur": 417000,
        "typeLocal": "Maison",
        "surfaceM2": 92,
        "isVefa": false
      }
    ]
  },
  "842644d2352e": {
    "id": "842644d2352e",
    "label": "4 RUE LE LISERON, Mèze",
    "lat": 43.435875,
    "lng": 3.594988,
    "transactions": [
      {
        "date": "2023-03-30",
        "priceEur": 310000,
        "typeLocal": "Maison",
        "surfaceM2": 90,
        "isVefa": false
      }
    ]
  },
  "8bf74c2ced34": {
    "id": "8bf74c2ced34",
    "label": "2 RUE DU CERISIER, Mèze",
    "lat": 43.431426,
    "lng": 3.59494,
    "transactions": [
      {
        "date": "2023-04-13",
        "priceEur": 225000,
        "typeLocal": "Maison",
        "surfaceM2": 85,
        "isVefa": false
      }
    ]
  },
  "f69d0c667883": {
    "id": "f69d0c667883",
    "label": "13 RUE MARIE CURIE, Mèze",
    "lat": 43.434662,
    "lng": 3.596217,
    "transactions": [
      {
        "date": "2023-04-28",
        "priceEur": 280000,
        "typeLocal": "Maison",
        "surfaceM2": 95,
        "isVefa": false
      }
    ]
  },
  "fd00d2f36c25": {
    "id": "fd00d2f36c25",
    "label": "17 RUE JULES VERNE, Mèze",
    "lat": 43.433841,
    "lng": 3.598002,
    "transactions": [
      {
        "date": "2023-05-26",
        "priceEur": 395000,
        "typeLocal": "Maison",
        "surfaceM2": 96,
        "isVefa": false
      }
    ]
  },
  "5c49b9a76357": {
    "id": "5c49b9a76357",
    "label": "15 RUE DES COQUELICOTS, Mèze",
    "lat": 43.43116,
    "lng": 3.593926,
    "transactions": [
      {
        "date": "2023-07-18",
        "priceEur": 402400,
        "typeLocal": "Maison",
        "surfaceM2": 104,
        "isVefa": false
      }
    ]
  },
  "4dcdfc87f986": {
    "id": "4dcdfc87f986",
    "label": "2 IMP FERDINAND FABRE, Mèze",
    "lat": 43.429322,
    "lng": 3.602707,
    "transactions": [
      {
        "date": "2023-07-21",
        "priceEur": 295000,
        "typeLocal": "Maison",
        "surfaceM2": 84,
        "isVefa": false
      }
    ]
  },
  "ab147815b814": {
    "id": "ab147815b814",
    "label": "718 CHE DU ROMANY, Mèze",
    "lat": 43.434822,
    "lng": 3.59568,
    "transactions": [
      {
        "date": "2023-07-20",
        "priceEur": 580000,
        "typeLocal": "Maison",
        "surfaceM2": 137,
        "isVefa": false
      }
    ]
  },
  "029104dae9a6": {
    "id": "029104dae9a6",
    "label": "757 CHE DU ROMANY, Mèze",
    "lat": 43.43439,
    "lng": 3.59395,
    "transactions": [
      {
        "date": "2023-07-05",
        "priceEur": 7680,
        "typeLocal": "Maison",
        "surfaceM2": 169,
        "isVefa": false
      }
    ]
  },
  "4396dc615641": {
    "id": "4396dc615641",
    "label": "370 CHE DU ROMANY, Mèze",
    "lat": 43.432359,
    "lng": 3.59813,
    "transactions": [
      {
        "date": "2023-07-20",
        "priceEur": 405230,
        "typeLocal": "Maison",
        "surfaceM2": 86,
        "isVefa": false
      }
    ]
  },
  "c644445d35db": {
    "id": "c644445d35db",
    "label": "591 CHE DU ROMANY, Mèze",
    "lat": 43.433431,
    "lng": 3.596063,
    "transactions": [
      {
        "date": "2023-08-18",
        "priceEur": 630000,
        "typeLocal": "Maison",
        "surfaceM2": 148,
        "isVefa": false
      }
    ]
  },
  "efc27b6e6ae3": {
    "id": "efc27b6e6ae3",
    "label": "90 RTE DE VILLEVEYRAC, Mèze",
    "lat": 43.432388,
    "lng": 3.60348,
    "transactions": [
      {
        "date": "2023-08-31",
        "priceEur": 541380,
        "typeLocal": "Maison",
        "surfaceM2": 121,
        "isVefa": false
      },
      {
        "date": "2023-08-31",
        "priceEur": 541380,
        "typeLocal": "Maison",
        "surfaceM2": 121,
        "isVefa": false
      }
    ]
  },
  "f4a9e7b338a1": {
    "id": "f4a9e7b338a1",
    "label": "211 CHE DU ROMANY BAS, Mèze",
    "lat": 43.43095,
    "lng": 3.599257,
    "transactions": [
      {
        "date": "2023-09-05",
        "priceEur": 295000,
        "typeLocal": "Maison",
        "surfaceM2": 77,
        "isVefa": false
      }
    ]
  },
  "fba5f9b79e7c": {
    "id": "fba5f9b79e7c",
    "label": "23 RUE DU CARIGNAN, Mèze",
    "lat": 43.42907,
    "lng": 3.595957,
    "transactions": [
      {
        "date": "2023-09-06",
        "priceEur": 332000,
        "typeLocal": "Maison",
        "surfaceM2": 111,
        "isVefa": false
      }
    ]
  },
  "6683cf5165e5": {
    "id": "6683cf5165e5",
    "label": "1 RUE LEO FERRE, Mèze",
    "lat": 43.431916,
    "lng": 3.600268,
    "transactions": [
      {
        "date": "2023-09-22",
        "priceEur": 345000,
        "typeLocal": "Maison",
        "surfaceM2": 92,
        "isVefa": false
      }
    ]
  },
  "cb587fa88460": {
    "id": "cb587fa88460",
    "label": "6 RUE DES LIONS, Mèze",
    "lat": 43.430655,
    "lng": 3.59929,
    "transactions": [
      {
        "date": "2023-09-25",
        "priceEur": 357000,
        "typeLocal": "Maison",
        "surfaceM2": 82,
        "isVefa": false
      }
    ]
  },
  "16884cace19f": {
    "id": "16884cace19f",
    "label": "4 IMP FERDINAND FABRE, Mèze",
    "lat": 43.429236,
    "lng": 3.602778,
    "transactions": [
      {
        "date": "2023-10-03",
        "priceEur": 292000,
        "typeLocal": "Maison",
        "surfaceM2": 80,
        "isVefa": false
      }
    ]
  },
  "1f87816e2f06": {
    "id": "1f87816e2f06",
    "label": "6 RUE MARIE CURIE, Mèze",
    "lat": 43.434447,
    "lng": 3.596598,
    "transactions": [
      {
        "date": "2023-12-05",
        "priceEur": 349200,
        "typeLocal": "Maison",
        "surfaceM2": 85,
        "isVefa": false
      }
    ]
  },
  "3a17e71025c4": {
    "id": "3a17e71025c4",
    "label": "43 AV DE PEZENAS, Mèze",
    "lat": 43.428999,
    "lng": 3.601363,
    "transactions": [
      {
        "date": "2023-12-22",
        "priceEur": 213300,
        "typeLocal": "Maison",
        "surfaceM2": 55,
        "isVefa": false
      }
    ]
  },
  "af56948a3c26": {
    "id": "af56948a3c26",
    "label": "6 RUE LOU PASSERAT, Mèze",
    "lat": 43.43577,
    "lng": 3.59766,
    "transactions": [
      {
        "date": "2024-04-05",
        "priceEur": 313000,
        "typeLocal": "Maison",
        "surfaceM2": 70,
        "isVefa": false
      }
    ]
  },
  "959cef3d944e": {
    "id": "959cef3d944e",
    "label": "6 IMP FERDINAND FABRE, Mèze",
    "lat": 43.429216,
    "lng": 3.602836,
    "transactions": [
      {
        "date": "2024-04-26",
        "priceEur": 300000,
        "typeLocal": "Maison",
        "surfaceM2": 81,
        "isVefa": false
      }
    ]
  },
  "8cbe90dbcb13": {
    "id": "8cbe90dbcb13",
    "label": "199 RTE DE PEZENAS, Mèze",
    "lat": 43.432599,
    "lng": 3.595363,
    "transactions": [
      {
        "date": "2024-04-22",
        "priceEur": 441000,
        "typeLocal": "Maison",
        "surfaceM2": 126,
        "isVefa": false
      }
    ]
  },
  "5bb87a6e061a": {
    "id": "5bb87a6e061a",
    "label": "10 RUE DU CARIGNAN, Mèze",
    "lat": 43.429785,
    "lng": 3.596062,
    "transactions": [
      {
        "date": "2024-05-27",
        "priceEur": 275000,
        "typeLocal": "Maison",
        "surfaceM2": 75,
        "isVefa": false
      }
    ]
  },
  "0b21acace8d4": {
    "id": "0b21acace8d4",
    "label": "2 RUE DU CARIGNAN, Mèze",
    "lat": 43.430152,
    "lng": 3.596607,
    "transactions": [
      {
        "date": "2024-06-04",
        "priceEur": 108000,
        "typeLocal": "Maison",
        "surfaceM2": 90,
        "isVefa": false
      }
    ]
  },
  "071ffc20c736": {
    "id": "071ffc20c736",
    "label": "81 CHE DU ROMANY, Mèze",
    "lat": 43.430244,
    "lng": 3.600266,
    "transactions": [
      {
        "date": "2024-06-13",
        "priceEur": 600000,
        "typeLocal": "Maison",
        "surfaceM2": 200,
        "isVefa": false
      },
      {
        "date": "2024-06-13",
        "priceEur": 600000,
        "typeLocal": "Maison",
        "surfaceM2": 200,
        "isVefa": false
      }
    ]
  },
  "0ec82ea3e5a0": {
    "id": "0ec82ea3e5a0",
    "label": "4 RUE DES LIONS, Mèze",
    "lat": 43.430635,
    "lng": 3.599485,
    "transactions": [
      {
        "date": "2024-06-14",
        "priceEur": 335780,
        "typeLocal": "Maison",
        "surfaceM2": 86,
        "isVefa": false
      }
    ]
  },
  "04fc0db084ed": {
    "id": "04fc0db084ed",
    "label": "3 RUE LA BELLONE, Mèze",
    "lat": 43.436017,
    "lng": 3.594253,
    "transactions": [
      {
        "date": "2024-07-25",
        "priceEur": 308500,
        "typeLocal": "Maison",
        "surfaceM2": 85,
        "isVefa": false
      }
    ]
  },
  "d89987c26ea0": {
    "id": "d89987c26ea0",
    "label": "4 IMP DE L HERMITAGE, Mèze",
    "lat": 43.43157,
    "lng": 3.599926,
    "transactions": [
      {
        "date": "2024-07-23",
        "priceEur": 365000,
        "typeLocal": "Maison",
        "surfaceM2": 102,
        "isVefa": false
      }
    ]
  },
  "b04e1d87d36b": {
    "id": "b04e1d87d36b",
    "label": "806 CHE DU ROMANY, Mèze",
    "lat": 43.43511,
    "lng": 3.594456,
    "transactions": [
      {
        "date": "2024-07-11",
        "priceEur": 325000,
        "typeLocal": "Maison",
        "surfaceM2": 80,
        "isVefa": false
      }
    ]
  },
  "e3a06ec4e95a": {
    "id": "e3a06ec4e95a",
    "label": "5 RUE LOU PASSERAT, Mèze",
    "lat": 43.435649,
    "lng": 3.597779,
    "transactions": [
      {
        "date": "2024-07-26",
        "priceEur": 316010,
        "typeLocal": "Maison",
        "surfaceM2": 71,
        "isVefa": false
      }
    ]
  },
  "bbf08fc6e485": {
    "id": "bbf08fc6e485",
    "label": "13 RUE JULES VERNE, Mèze",
    "lat": 43.434139,
    "lng": 3.598233,
    "transactions": [
      {
        "date": "2024-08-14",
        "priceEur": 355000,
        "typeLocal": "Maison",
        "surfaceM2": 124,
        "isVefa": false
      }
    ]
  },
  "4d843d8fcd26": {
    "id": "4d843d8fcd26",
    "label": "4 RUE HENRI BESSEDE, Mèze",
    "lat": 43.434723,
    "lng": 3.597194,
    "transactions": [
      {
        "date": "2024-08-29",
        "priceEur": 466600,
        "typeLocal": "Maison",
        "surfaceM2": 118,
        "isVefa": false
      }
    ]
  },
  "38c015633303": {
    "id": "38c015633303",
    "label": "714 CHE DU ROMANY, Mèze",
    "lat": 43.434623,
    "lng": 3.595458,
    "transactions": [
      {
        "date": "2024-09-30",
        "priceEur": 347500,
        "typeLocal": "Maison",
        "surfaceM2": 145,
        "isVefa": false
      }
    ]
  },
  "3a9aa0b0346d": {
    "id": "3a9aa0b0346d",
    "label": "412 RTE DE VILLEVEYRAC, Mèze",
    "lat": 43.435101,
    "lng": 3.602458,
    "transactions": [
      {
        "date": "2024-10-15",
        "priceEur": 525000,
        "typeLocal": "Maison",
        "surfaceM2": 124,
        "isVefa": false
      }
    ]
  },
  "815b21d5ec25": {
    "id": "815b21d5ec25",
    "label": "15B RUE DU HUIT MAI 1945, Mèze",
    "lat": 43.429927,
    "lng": 3.597229,
    "transactions": [
      {
        "date": "2024-10-17",
        "priceEur": 510000,
        "typeLocal": "Maison",
        "surfaceM2": 107,
        "isVefa": false
      }
    ]
  },
  "363f9c3e8b52": {
    "id": "363f9c3e8b52",
    "label": "6 RUE HENRI BESSEDE, Mèze",
    "lat": 43.434512,
    "lng": 3.597083,
    "transactions": [
      {
        "date": "2024-10-28",
        "priceEur": 329790,
        "typeLocal": "Maison",
        "surfaceM2": 95,
        "isVefa": false
      }
    ]
  },
  "5b251599b0c7": {
    "id": "5b251599b0c7",
    "label": "44 AV DE PEZENAS, Mèze",
    "lat": 43.429507,
    "lng": 3.601249,
    "transactions": [
      {
        "date": "2024-12-16",
        "priceEur": 240000,
        "typeLocal": "Maison",
        "surfaceM2": 81,
        "isVefa": false
      }
    ]
  },
  "7bd392482617": {
    "id": "7bd392482617",
    "label": "9978 AV DE PEZENAS, Mèze",
    "lat": 43.43305,
    "lng": 3.594565,
    "transactions": [
      {
        "date": "2024-12-19",
        "priceEur": 250000,
        "typeLocal": "Maison",
        "surfaceM2": 100,
        "isVefa": false
      }
    ]
  },
  "70300328f9db": {
    "id": "70300328f9db",
    "label": "5 RUE DU CLAIR SOLEIL, Mèze",
    "lat": 43.430791,
    "lng": 3.60142,
    "transactions": [
      {
        "date": "2024-12-23",
        "priceEur": 330000,
        "typeLocal": "Maison",
        "surfaceM2": 103,
        "isVefa": false
      }
    ]
  },
  "7c29fbd4f340": {
    "id": "7c29fbd4f340",
    "label": "13 CHE DU ROMANY BAS, Mèze",
    "lat": 43.431126,
    "lng": 3.598486,
    "transactions": [
      {
        "date": "2024-12-23",
        "priceEur": 217200,
        "typeLocal": "Maison",
        "surfaceM2": 44,
        "isVefa": false
      }
    ]
  },
  "48f6967a2d61": {
    "id": "48f6967a2d61",
    "label": "40 AV DE PEZENAS, Mèze",
    "lat": 43.429355,
    "lng": 3.601627,
    "transactions": [
      {
        "date": "2025-01-31",
        "priceEur": 334000,
        "typeLocal": "Appartement",
        "surfaceM2": 82,
        "isVefa": false
      }
    ]
  },
  "5592bf3a873d": {
    "id": "5592bf3a873d",
    "label": "6 IMP CLOS DES MONTARELS, Mèze",
    "lat": 43.429756,
    "lng": 3.593877,
    "transactions": [
      {
        "date": "2025-02-21",
        "priceEur": 299900,
        "typeLocal": "Maison",
        "surfaceM2": 91,
        "isVefa": false
      }
    ]
  },
  "4a0292ea7523": {
    "id": "4a0292ea7523",
    "label": "20 RUE DU CARIGNAN, Mèze",
    "lat": 43.429229,
    "lng": 3.595612,
    "transactions": [
      {
        "date": "2025-02-27",
        "priceEur": 310000,
        "typeLocal": "Maison",
        "surfaceM2": 85,
        "isVefa": false
      }
    ]
  },
  "1c234ee2efdd": {
    "id": "1c234ee2efdd",
    "label": "13 RUE HENRI BESSEDE, Mèze",
    "lat": 43.433874,
    "lng": 3.597321,
    "transactions": [
      {
        "date": "2025-03-31",
        "priceEur": 535100,
        "typeLocal": "Maison",
        "surfaceM2": 144,
        "isVefa": false
      }
    ]
  },
  "4a40b96dd934": {
    "id": "4a40b96dd934",
    "label": "32 RUE DU CHEVREFEUILLE, Mèze",
    "lat": 43.430523,
    "lng": 3.592578,
    "transactions": [
      {
        "date": "2025-03-31",
        "priceEur": 294000,
        "typeLocal": "Maison",
        "surfaceM2": 85,
        "isVefa": false
      }
    ]
  },
  "9e84a5cf1519": {
    "id": "9e84a5cf1519",
    "label": "10 PL GILBERT BECAUD, Mèze",
    "lat": 43.43216,
    "lng": 3.600614,
    "transactions": [
      {
        "date": "2025-05-14",
        "priceEur": 330000,
        "typeLocal": "Maison",
        "surfaceM2": 90,
        "isVefa": false
      }
    ]
  },
  "02fe5721d87f": {
    "id": "02fe5721d87f",
    "label": "161 CHE DU CROS, Mèze",
    "lat": 43.432751,
    "lng": 3.601233,
    "transactions": [
      {
        "date": "2025-06-18",
        "priceEur": 151700,
        "typeLocal": "Appartement",
        "surfaceM2": 43,
        "isVefa": false
      }
    ]
  }
}