{
  "58438281bbb9": {
    "id": "58438281bbb9",
    "label": "5311 HAMEAU DU CARREAU, Saint-Laurent-de-Brèvedent",
    "lat": 49.54278,
    "lng": 0.258958,
    "transactions": [
      {
        "date": "2020-12-18",
        "priceEur": 180000,
        "typeLocal": "Maison",
        "surfaceM2": 120,
        "isVefa": false
      }
    ]
  },
  "44d0b38c9779": {
    "id": "44d0b38c9779",
    "label": "16 CHE DE LA BREDOUILLE, Saint-Laurent-de-Brèvedent",
    "lat": 49.545618,
    "lng": 0.257346,
    "transactions": [
      {
        "date": "2021-04-27",
        "priceEur": 299400,
        "typeLocal": "Maison",
        "surfaceM2": 135,
        "isVefa": false
      }
    ]
  },
  "f62bd4fd95bb": {
    "id": "f62bd4fd95bb",
    "label": "47 RUE DU POINT DU JOUR, Saint-Laurent-de-Brèvedent",
    "lat": 49.543123,
    "lng": 0.257135,
    "transactions": [
      {
        "date": "2021-05-27",
        "priceEur": 355500,
        "typeLocal": "Maison",
        "surfaceM2": 135,
        "isVefa": false
      }
    ]
  },
  "01e7583d864e": {
    "id": "01e7583d864e",
    "label": "50B RUE DU POINT DU JOUR, Saint-Laurent-de-Brèvedent",
    "lat": 49.540745,
    "lng": 0.256978,
    "transactions": [
      {
        "date": "2021-07-19",
        "priceEur": 354800,
        "typeLocal": "Maison",
        "surfaceM2": 111,
        "isVefa": false
      }
    ]
  },
  "1612af0c36df": {
    "id": "1612af0c36df",
    "label": "2 CHE DU FOUR A PAIN, Saint-Laurent-de-Brèvedent",
    "lat": 49.539846,
    "lng": 0.255586,
    "transactions": [
      {
        "date": "2022-02-28",
        "priceEur": 410000,
        "typeLocal": "Maison",
        "surfaceM2": 145,
        "isVefa": false
      }
    ]
  },
  "7257134bae32": {
    "id": "7257134bae32",
    "label": "64 RUE DU POINT DU JOUR, Saint-Laurent-de-Brèvedent",
    "lat": 49.543112,
    "lng": 0.257752,
    "transactions": [
      {
        "date": "2022-06-13",
        "priceEur": 491890,
        "typeLocal": "Maison",
        "surfaceM2": 201,
        "isVefa": false
      }
    ]
  },
  "39b277878a4d": {
    "id": "39b277878a4d",
    "label": "4 CHE DU RONCERET, Saint-Laurent-de-Brèvedent",
    "lat": 49.544403,
    "lng": 0.259789,
    "transactions": [
      {
        "date": "2022-09-23",
        "priceEur": 283300,
        "typeLocal": "Maison",
        "surfaceM2": 142,
        "isVefa": false
      }
    ]
  },
  "04197cfcc856": {
    "id": "04197cfcc856",
    "label": "31T RUE DU POINT DU JOUR, Saint-Laurent-de-Brèvedent",
    "lat": 49.540193,
    "lng": 0.255806,
    "transactions": [
      {
        "date": "2022-10-28",
        "priceEur": 331000,
        "typeLocal": "Maison",
        "surfaceM2": 133,
        "isVefa": false
      }
    ]
  },
  "5ef8be4d6689": {
    "id": "5ef8be4d6689",
    "label": "3 ALL DES FRESNES, Saint-Laurent-de-Brèvedent",
    "lat": 49.542498,
    "lng": 0.258583,
    "transactions": [
      {
        "date": "2024-05-21",
        "priceEur": 435000,
        "typeLocal": "Maison",
        "surfaceM2": 146,
        "isVefa": false
      }
    ]
  }
}