{
  "317bcfbf5db8": {
    "id": "317bcfbf5db8",
    "label": "2 IMP DE LA FORGE, Criquetot-l'Esneval",
    "lat": 49.638975,
    "lng": 0.26542,
    "transactions": [
      {
        "date": "2022-09-15",
        "priceEur": 308000,
        "typeLocal": "Maison",
        "surfaceM2": 92,
        "isVefa": false
      }
    ]
  },
  "88792ae4c782": {
    "id": "88792ae4c782",
    "label": "33T RTE DE VERGETOT, Criquetot-l'Esneval",
    "lat": 49.638141,
    "lng": 0.270401,
    "transactions": [
      {
        "date": "2023-03-15",
        "priceEur": 440950,
        "typeLocal": "Maison",
        "surfaceM2": 147,
        "isVefa": false
      }
    ]
  },
  "49b46d29006c": {
    "id": "49b46d29006c",
    "label": "15 CLOS DE LA FORGE, Criquetot-l'Esneval",
    "lat": 49.639047,
    "lng": 0.267618,
    "transactions": [
      {
        "date": "2023-05-05",
        "priceEur": 322000,
        "typeLocal": "Maison",
        "surfaceM2": 148,
        "isVefa": false
      }
    ]
  },
  "c22b43a7afd0": {
    "id": "c22b43a7afd0",
    "label": "6B HAMEAU DE LA FORGE, Criquetot-l'Esneval",
    "lat": 49.632152,
    "lng": 0.267685,
    "transactions": [
      {
        "date": "2023-06-13",
        "priceEur": 140000,
        "typeLocal": "Maison",
        "surfaceM2": 75,
        "isVefa": false
      }
    ]
  },
  "0441e52c87aa": {
    "id": "0441e52c87aa",
    "label": "5367 HAMEAU DE L ORMERIE, Criquetot-l'Esneval",
    "lat": 49.633548,
    "lng": 0.272046,
    "transactions": [
      {
        "date": "2023-10-13",
        "priceEur": 200000,
        "typeLocal": "Maison",
        "surfaceM2": 100,
        "isVefa": false
      }
    ]
  },
  "05be2c7f77ed": {
    "id": "05be2c7f77ed",
    "label": "1T IMP DE LA FORGE, Criquetot-l'Esneval",
    "lat": 49.639019,
    "lng": 0.264877,
    "transactions": [
      {
        "date": "2024-05-07",
        "priceEur": 242300,
        "typeLocal": "Maison",
        "surfaceM2": 91,
        "isVefa": false
      }
    ]
  },
  "027edd7cc228": {
    "id": "027edd7cc228",
    "label": "4 RUE SIMONE VEIL, Criquetot-l'Esneval",
    "lat": 49.638243,
    "lng": 0.263877,
    "transactions": [
      {
        "date": "2025-05-16",
        "priceEur": 284300,
        "typeLocal": "Maison",
        "surfaceM2": 119,
        "isVefa": false
      }
    ]
  }
}