{
  "fc4432bcd859": {
    "id": "fc4432bcd859",
    "label": "2 RTE D ETOUTTEVILLE, Hautot-Saint-Sulpice",
    "lat": 49.679722,
    "lng": 0.739513,
    "transactions": [
      {
        "date": "2020-10-02",
        "priceEur": 301000,
        "typeLocal": "Maison",
        "surfaceM2": 190,
        "isVefa": false
      }
    ]
  },
  "857f56266868": {
    "id": "857f56266868",
    "label": "49 ALL DES LAURIERS, Hautot-Saint-Sulpice",
    "lat": 49.679674,
    "lng": 0.742168,
    "transactions": [
      {
        "date": "2020-10-02",
        "priceEur": 162000,
        "typeLocal": "Maison",
        "surfaceM2": 80,
        "isVefa": false
      }
    ]
  },
  "ee9a2f7b35d6": {
    "id": "ee9a2f7b35d6",
    "label": "145 RTE DE DOUDEVILLE, Hautot-Saint-Sulpice",
    "lat": 49.680976,
    "lng": 0.741058,
    "transactions": [
      {
        "date": "2020-12-10",
        "priceEur": 70000,
        "typeLocal": "Maison",
        "surfaceM2": 61,
        "isVefa": false
      },
      {
        "date": "2020-12-10",
        "priceEur": 70000,
        "typeLocal": "Maison",
        "surfaceM2": 54,
        "isVefa": false
      }
    ]
  },
  "66b4bf0e4759": {
    "id": "66b4bf0e4759",
    "label": "136 RTE DU GRAND TOT, Hautot-Saint-Sulpice",
    "lat": 49.679223,
    "lng": 0.737735,
    "transactions": [
      {
        "date": "2021-03-31",
        "priceEur": 158000,
        "typeLocal": "Maison",
        "surfaceM2": 89,
        "isVefa": false
      }
    ]
  },
  "95df0e97f431": {
    "id": "95df0e97f431",
    "label": "100 RTE DU GRAND TOT, Hautot-Saint-Sulpice",
    "lat": 49.67976,
    "lng": 0.738687,
    "transactions": [
      {
        "date": "2021-05-12",
        "priceEur": 196000,
        "typeLocal": "Maison",
        "surfaceM2": 110,
        "isVefa": false
      }
    ]
  },
  "19ee0b0d1ec2": {
    "id": "19ee0b0d1ec2",
    "label": "320 RTE DE DOUDEVILLE, Hautot-Saint-Sulpice",
    "lat": 49.680534,
    "lng": 0.743227,
    "transactions": [
      {
        "date": "2021-05-12",
        "priceEur": 210000,
        "typeLocal": "Maison",
        "surfaceM2": 84,
        "isVefa": false
      }
    ]
  },
  "1f7ae6dea177": {
    "id": "1f7ae6dea177",
    "label": "80 RTE D YVETOT, Hautot-Saint-Sulpice",
    "lat": 49.678738,
    "lng": 0.740802,
    "transactions": [
      {
        "date": "2021-08-26",
        "priceEur": 185000,
        "typeLocal": "Maison",
        "surfaceM2": 80,
        "isVefa": false
      }
    ]
  },
  "31334d15b0b8": {
    "id": "31334d15b0b8",
    "label": "20 ALL DE L EGLISE, Hautot-Saint-Sulpice",
    "lat": 49.681018,
    "lng": 0.740941,
    "transactions": [
      {
        "date": "2021-09-28",
        "priceEur": 245000,
        "typeLocal": "Appartement",
        "surfaceM2": 103,
        "isVefa": false
      }
    ]
  },
  "6e34c7092919": {
    "id": "6e34c7092919",
    "label": "259 RTE D HERICOURT, Hautot-Saint-Sulpice",
    "lat": 49.681661,
    "lng": 0.736606,
    "transactions": [
      {
        "date": "2022-01-12",
        "priceEur": 60000,
        "typeLocal": "Maison",
        "surfaceM2": 102,
        "isVefa": false
      }
    ]
  },
  "8f289b55566f": {
    "id": "8f289b55566f",
    "label": "362 RTE DE DOUDEVILLE, Hautot-Saint-Sulpice",
    "lat": 49.681468,
    "lng": 0.744165,
    "transactions": [
      {
        "date": "2022-05-09",
        "priceEur": 245600,
        "typeLocal": "Maison",
        "surfaceM2": 116,
        "isVefa": false
      }
    ]
  },
  "6f66cfddacd3": {
    "id": "6f66cfddacd3",
    "label": "99 RTE DE DOUDEVILLE, Hautot-Saint-Sulpice",
    "lat": 49.681021,
    "lng": 0.740186,
    "transactions": [
      {
        "date": "2022-07-18",
        "priceEur": 30000,
        "typeLocal": "Maison",
        "surfaceM2": 85,
        "isVefa": false
      }
    ]
  },
  "b4e7663b7ab0": {
    "id": "b4e7663b7ab0",
    "label": "38 ALL DE LA MAIRIE, Hautot-Saint-Sulpice",
    "lat": 49.680385,
    "lng": 0.742316,
    "transactions": [
      {
        "date": "2024-06-03",
        "priceEur": 128000,
        "typeLocal": "Maison",
        "surfaceM2": 80,
        "isVefa": false
      },
      {
        "date": "2024-06-03",
        "priceEur": 128000,
        "typeLocal": "Maison",
        "surfaceM2": 26,
        "isVefa": false
      }
    ]
  },
  "9ed802476caa": {
    "id": "9ed802476caa",
    "label": "66 RTE D YVETOT, Hautot-Saint-Sulpice",
    "lat": 49.678639,
    "lng": 0.741102,
    "transactions": [
      {
        "date": "2024-08-27",
        "priceEur": 200775,
        "typeLocal": "Maison",
        "surfaceM2": 87,
        "isVefa": false
      }
    ]
  },
  "86ff8d2f821f": {
    "id": "86ff8d2f821f",
    "label": "10 LOTISSEMENT DE LA RUETTE, Hautot-Saint-Sulpice",
    "lat": 49.680288,
    "lng": 0.741003,
    "transactions": [
      {
        "date": "2024-11-15",
        "priceEur": 114000,
        "typeLocal": "Maison",
        "surfaceM2": 81,
        "isVefa": false
      }
    ]
  },
  "a785b1137850": {
    "id": "a785b1137850",
    "label": "215 RTE DE DOUDEVILLE, Hautot-Saint-Sulpice",
    "lat": 49.681158,
    "lng": 0.742193,
    "transactions": [
      {
        "date": "2025-02-03",
        "priceEur": 232000,
        "typeLocal": "Maison",
        "surfaceM2": 108,
        "isVefa": false
      }
    ]
  },
  "569cfa47dbf0": {
    "id": "569cfa47dbf0",
    "label": "60 RTE D YVETOT, Hautot-Saint-Sulpice",
    "lat": 49.678966,
    "lng": 0.741099,
    "transactions": [
      {
        "date": "2025-05-30",
        "priceEur": 244200,
        "typeLocal": "Maison",
        "surfaceM2": 113,
        "isVefa": false
      }
    ]
  }
}