{
  "9bbf5c19aaa4": {
    "id": "9bbf5c19aaa4",
    "label": "39F RUE CLOS DES PARTS, Yvetot",
    "lat": 49.620955,
    "lng": 0.745369,
    "transactions": [
      {
        "date": "2020-12-15",
        "priceEur": 267750,
        "typeLocal": "Maison",
        "surfaceM2": 126,
        "isVefa": false
      }
    ]
  },
  "5d1cba7789b4": {
    "id": "5d1cba7789b4",
    "label": "6A RESIDENCE DU MOULIN, Valliquerville",
    "lat": 49.624276,
    "lng": 0.736446,
    "transactions": [
      {
        "date": "2021-07-16",
        "priceEur": 333000,
        "typeLocal": "Maison",
        "surfaceM2": 26,
        "isVefa": false
      },
      {
        "date": "2021-07-16",
        "priceEur": 333000,
        "typeLocal": "Maison",
        "surfaceM2": 160,
        "isVefa": false
      }
    ]
  },
  "f3dc10fe2cd3": {
    "id": "f3dc10fe2cd3",
    "label": "35C RUE DU CLOS DES PARTS, Yvetot",
    "lat": 49.620862,
    "lng": 0.746415,
    "transactions": [
      {
        "date": "2021-09-15",
        "priceEur": 272000,
        "typeLocal": "Maison",
        "surfaceM2": 110,
        "isVefa": false
      }
    ]
  },
  "891933ac87c2": {
    "id": "891933ac87c2",
    "label": "17 RESIDENCE DU MOULIN, Valliquerville",
    "lat": 49.623861,
    "lng": 0.737555,
    "transactions": [
      {
        "date": "2021-09-29",
        "priceEur": 183500,
        "typeLocal": "Maison",
        "surfaceM2": 94,
        "isVefa": false
      }
    ]
  },
  "7e959252c116": {
    "id": "7e959252c116",
    "label": "14 RUE DE LA CORDERIE, Yvetot",
    "lat": 49.622972,
    "lng": 0.741723,
    "transactions": [
      {
        "date": "2022-03-10",
        "priceEur": 1250000,
        "typeLocal": "Maison",
        "surfaceM2": 81,
        "isVefa": false
      },
      {
        "date": "2022-03-10",
        "priceEur": 1250000,
        "typeLocal": "Maison",
        "surfaceM2": 70,
        "isVefa": false
      }
    ]
  },
  "5c47434e971c": {
    "id": "5c47434e971c",
    "label": "71 RUE DE LA REPUBLIQUE, Yvetot",
    "lat": 49.623452,
    "lng": 0.743498,
    "transactions": [
      {
        "date": "2022-05-25",
        "priceEur": 200000,
        "typeLocal": "Maison",
        "surfaceM2": 100,
        "isVefa": false
      }
    ]
  },
  "b2da89e1ae4f": {
    "id": "b2da89e1ae4f",
    "label": "37 AV MAL FOCH, Yvetot",
    "lat": 49.618047,
    "lng": 0.744831,
    "transactions": [
      {
        "date": "2022-09-26",
        "priceEur": 121000,
        "typeLocal": "Maison",
        "surfaceM2": 64,
        "isVefa": false
      }
    ]
  },
  "e760087314d4": {
    "id": "e760087314d4",
    "label": "40 RUE DE LA REPUBLIQUE, Yvetot",
    "lat": 49.624154,
    "lng": 0.743754,
    "transactions": [
      {
        "date": "2022-10-06",
        "priceEur": 222000,
        "typeLocal": "Maison",
        "surfaceM2": 104,
        "isVefa": false
      }
    ]
  },
  "f21c404d2c4a": {
    "id": "f21c404d2c4a",
    "label": "25 RESIDENCE DU MOULIN, Valliquerville",
    "lat": 49.623241,
    "lng": 0.739298,
    "transactions": [
      {
        "date": "2023-06-19",
        "priceEur": 220000,
        "typeLocal": "Maison",
        "surfaceM2": 102,
        "isVefa": false
      }
    ]
  },
  "595c4d6896ac": {
    "id": "595c4d6896ac",
    "label": "16 RESIDENCE LA CHATAIGNERAIE, Yvetot",
    "lat": 49.620862,
    "lng": 0.746415,
    "transactions": [
      {
        "date": "2023-11-15",
        "priceEur": 153000,
        "typeLocal": "Appartement",
        "surfaceM2": 72,
        "isVefa": false
      }
    ]
  },
  "268c6b1e2b80": {
    "id": "268c6b1e2b80",
    "label": "51 AV MAL FOCH, Yvetot",
    "lat": 49.617979,
    "lng": 0.743868,
    "transactions": [
      {
        "date": "2024-01-12",
        "priceEur": 144000,
        "typeLocal": "Maison",
        "surfaceM2": 68,
        "isVefa": false
      }
    ]
  },
  "dd57a24e0730": {
    "id": "dd57a24e0730",
    "label": "22 RUE DE LA CORDERIE, Yvetot",
    "lat": 49.622149,
    "lng": 0.73867,
    "transactions": [
      {
        "date": "2024-01-15",
        "priceEur": 260000,
        "typeLocal": "Maison",
        "surfaceM2": 106,
        "isVefa": false
      }
    ]
  },
  "ce8c82b7697a": {
    "id": "ce8c82b7697a",
    "label": "11 RESIDENCE LA CHATAIGNERAIE, Yvetot",
    "lat": 49.620862,
    "lng": 0.746415,
    "transactions": [
      {
        "date": "2024-03-08",
        "priceEur": 203000,
        "typeLocal": "Appartement",
        "surfaceM2": 72,
        "isVefa": false
      }
    ]
  },
  "68ff83ca1d9b": {
    "id": "68ff83ca1d9b",
    "label": "4 RUE LEON BIANCOTTO, Yvetot",
    "lat": 49.622749,
    "lng": 0.738417,
    "transactions": [
      {
        "date": "2024-03-22",
        "priceEur": 275000,
        "typeLocal": "Maison",
        "surfaceM2": 126,
        "isVefa": false
      }
    ]
  },
  "96c6b499f44b": {
    "id": "96c6b499f44b",
    "label": "22 RUE JEAN FRANCOIS, Yvetot",
    "lat": 49.619788,
    "lng": 0.746267,
    "transactions": [
      {
        "date": "2024-06-11",
        "priceEur": 143000,
        "typeLocal": "Maison",
        "surfaceM2": 47,
        "isVefa": false
      }
    ]
  },
  "602f71b695c5": {
    "id": "602f71b695c5",
    "label": "32 RUE DU CHAMP DE COURSES, Yvetot",
    "lat": 49.621544,
    "lng": 0.744006,
    "transactions": [
      {
        "date": "2024-11-13",
        "priceEur": 83500,
        "typeLocal": "Maison",
        "surfaceM2": 65,
        "isVefa": false
      },
      {
        "date": "2024-06-27",
        "priceEur": 70000,
        "typeLocal": "Maison",
        "surfaceM2": 65,
        "isVefa": false
      }
    ]
  },
  "15475a83e8f6": {
    "id": "15475a83e8f6",
    "label": "30B RUE DU CHAMP DE COURSES, Yvetot",
    "lat": 49.621611,
    "lng": 0.74426,
    "transactions": [
      {
        "date": "2024-11-13",
        "priceEur": 83500,
        "typeLocal": "Maison",
        "surfaceM2": 60,
        "isVefa": false
      },
      {
        "date": "2024-06-27",
        "priceEur": 70000,
        "typeLocal": "Maison",
        "surfaceM2": 60,
        "isVefa": false
      }
    ]
  },
  "6823cf079285": {
    "id": "6823cf079285",
    "label": "95 RUE DE LA CORDERIE, Valliquerville",
    "lat": 49.621758,
    "lng": 0.738499,
    "transactions": [
      {
        "date": "2024-09-18",
        "priceEur": 149000,
        "typeLocal": "Maison",
        "surfaceM2": 75,
        "isVefa": false
      }
    ]
  },
  "ac1811528714": {
    "id": "ac1811528714",
    "label": "30T RUE DU CHAMP DE COURSES, Yvetot",
    "lat": 49.621585,
    "lng": 0.744521,
    "transactions": [
      {
        "date": "2024-11-15",
        "priceEur": 201500,
        "typeLocal": "Maison",
        "surfaceM2": 122,
        "isVefa": false
      }
    ]
  },
  "ac2f89239e9f": {
    "id": "ac2f89239e9f",
    "label": "41 AV MAL FOCH, Yvetot",
    "lat": 49.618029,
    "lng": 0.744514,
    "transactions": [
      {
        "date": "2024-11-18",
        "priceEur": 158000,
        "typeLocal": "Maison",
        "surfaceM2": 76,
        "isVefa": false
      }
    ]
  },
  "3b6f7f809b8f": {
    "id": "3b6f7f809b8f",
    "label": "2 RUE DE L ENFER, Yvetot",
    "lat": 49.622826,
    "lng": 0.745369,
    "transactions": [
      {
        "date": "2024-11-29",
        "priceEur": 224000,
        "typeLocal": "Maison",
        "surfaceM2": 127,
        "isVefa": false
      }
    ]
  },
  "36ffbb6fa733": {
    "id": "36ffbb6fa733",
    "label": "36B RUE DE LA REPUBLIQUE, Yvetot",
    "lat": 49.623008,
    "lng": 0.745074,
    "transactions": [
      {
        "date": "2024-12-20",
        "priceEur": 83000,
        "typeLocal": "Maison",
        "surfaceM2": 20,
        "isVefa": false
      }
    ]
  },
  "3513da665355": {
    "id": "3513da665355",
    "label": "2 RUE LEON BIANCOTTO, Yvetot",
    "lat": 49.622758,
    "lng": 0.738883,
    "transactions": [
      {
        "date": "2025-02-28",
        "priceEur": 215000,
        "typeLocal": "Maison",
        "surfaceM2": 115,
        "isVefa": false
      }
    ]
  },
  "4612e8fabb88": {
    "id": "4612e8fabb88",
    "label": "21 RUE DE LA CORDERIE, Valliquerville",
    "lat": 49.62185,
    "lng": 0.739654,
    "transactions": [
      {
        "date": "2025-04-17",
        "priceEur": 106700,
        "typeLocal": "Maison",
        "surfaceM2": 75,
        "isVefa": false
      }
    ]
  },
  "37684848ba92": {
    "id": "37684848ba92",
    "label": "6 RUE DE LA CORDERIE, Yvetot",
    "lat": 49.623333,
    "lng": 0.743007,
    "transactions": [
      {
        "date": "2025-05-26",
        "priceEur": 153615,
        "typeLocal": "Maison",
        "surfaceM2": 67,
        "isVefa": false
      }
    ]
  },
  "6a3ef15e59e2": {
    "id": "6a3ef15e59e2",
    "label": "49 AV MAL FOCH, Yvetot",
    "lat": 49.617983,
    "lng": 0.743941,
    "transactions": [
      {
        "date": "2025-06-21",
        "priceEur": 115000,
        "typeLocal": "Maison",
        "surfaceM2": 64,
        "isVefa": false
      }
    ]
  }
}