{
  "6c9d506a4529": {
    "id": "6c9d506a4529",
    "label": "19 RUE JEAN RACINE, Marcq-en-Barœul",
    "lat": 50.676733,
    "lng": 3.095963,
    "transactions": [
      {
        "date": "2020-07-10",
        "priceEur": 620000,
        "typeLocal": "Maison",
        "surfaceM2": 150,
        "isVefa": false
      }
    ]
  },
  "26de96883ab4": {
    "id": "26de96883ab4",
    "label": "48 RUE RAYMOND DERAIN, Marcq-en-Barœul",
    "lat": 50.674878,
    "lng": 3.090887,
    "transactions": [
      {
        "date": "2023-08-11",
        "priceEur": 400000,
        "typeLocal": "Maison",
        "surfaceM2": 76,
        "isVefa": false
      },
      {
        "date": "2020-07-08",
        "priceEur": 353500,
        "typeLocal": "Maison",
        "surfaceM2": 76,
        "isVefa": false
      }
    ]
  },
  "ca85ae53e818": {
    "id": "ca85ae53e818",
    "label": "63 RUE DU DOCTEUR DUCROQUET, Marcq-en-Barœul",
    "lat": 50.678982,
    "lng": 3.090239,
    "transactions": [
      {
        "date": "2023-12-12",
        "priceEur": 426900,
        "typeLocal": "Maison",
        "surfaceM2": 120,
        "isVefa": false
      },
      {
        "date": "2020-07-16",
        "priceEur": 320000,
        "typeLocal": "Maison",
        "surfaceM2": 120,
        "isVefa": false
      }
    ]
  },
  "4fcfc6e2ba90": {
    "id": "4fcfc6e2ba90",
    "label": "19 PL DU GENERAL DE GAULLE, Marcq-en-Barœul",
    "lat": 50.676904,
    "lng": 3.090561,
    "transactions": [
      {
        "date": "2020-07-17",
        "priceEur": 340000,
        "typeLocal": "Appartement",
        "surfaceM2": 50,
        "isVefa": false
      }
    ]
  },
  "f072b6025019": {
    "id": "f072b6025019",
    "label": "6 ALL DES TULIPES, Marcq-en-Barœul",
    "lat": 50.680572,
    "lng": 3.091,
    "transactions": [
      {
        "date": "2020-07-23",
        "priceEur": 322950,
        "typeLocal": "Maison",
        "surfaceM2": 89,
        "isVefa": false
      }
    ]
  },
  "43a34ee6dc43": {
    "id": "43a34ee6dc43",
    "label": "30 RUE JEAN RACINE, Marcq-en-Barœul",
    "lat": 50.677213,
    "lng": 3.097412,
    "transactions": [
      {
        "date": "2020-07-24",
        "priceEur": 690000,
        "typeLocal": "Maison",
        "surfaceM2": 101,
        "isVefa": false
      }
    ]
  },
  "7200cf99e169": {
    "id": "7200cf99e169",
    "label": "115 AV DU MARECHAL FOCH, Marcq-en-Barœul",
    "lat": 50.674529,
    "lng": 3.093429,
    "transactions": [
      {
        "date": "2023-12-18",
        "priceEur": 230000,
        "typeLocal": "Appartement",
        "surfaceM2": 68,
        "isVefa": false
      },
      {
        "date": "2023-08-31",
        "priceEur": 243500,
        "typeLocal": "Appartement",
        "surfaceM2": 81,
        "isVefa": false
      },
      {
        "date": "2022-05-24",
        "priceEur": 294800,
        "typeLocal": "Appartement",
        "surfaceM2": 81,
        "isVefa": false
      },
      {
        "date": "2022-02-02",
        "priceEur": 108000,
        "typeLocal": "Appartement",
        "surfaceM2": 81,
        "isVefa": false
      },
      {
        "date": "2021-05-11",
        "priceEur": 235000,
        "typeLocal": "Appartement",
        "surfaceM2": 68,
        "isVefa": false
      },
      {
        "date": "2020-07-24",
        "priceEur": 175000,
        "typeLocal": "Appartement",
        "surfaceM2": 68,
        "isVefa": false
      }
    ]
  },
  "9adf170a9486": {
    "id": "9adf170a9486",
    "label": "56 RUE JOEL BRAEMS, Marcq-en-Barœul",
    "lat": 50.677935,
    "lng": 3.090241,
    "transactions": [
      {
        "date": "2024-10-01",
        "priceEur": 325910,
        "typeLocal": "Maison",
        "surfaceM2": 92,
        "isVefa": false
      },
      {
        "date": "2021-06-01",
        "priceEur": 358000,
        "typeLocal": "Maison",
        "surfaceM2": 68,
        "isVefa": false
      },
      {
        "date": "2020-08-28",
        "priceEur": 225000,
        "typeLocal": "Maison",
        "surfaceM2": 68,
        "isVefa": false
      },
      {
        "date": "2020-08-03",
        "priceEur": 160000,
        "typeLocal": "Maison",
        "surfaceM2": 68,
        "isVefa": false
      }
    ]
  },
  "7938e94adb18": {
    "id": "7938e94adb18",
    "label": "33 RUE DU LAZARO, Marcq-en-Barœul",
    "lat": 50.676565,
    "lng": 3.087169,
    "transactions": [
      {
        "date": "2020-10-30",
        "priceEur": 225000,
        "typeLocal": "Appartement",
        "surfaceM2": 51,
        "isVefa": true
      },
      {
        "date": "2020-10-22",
        "priceEur": 366900,
        "typeLocal": "Appartement",
        "surfaceM2": 87,
        "isVefa": true
      },
      {
        "date": "2020-10-08",
        "priceEur": 225200,
        "typeLocal": "Appartement",
        "surfaceM2": 50,
        "isVefa": true
      },
      {
        "date": "2020-10-05",
        "priceEur": 217100,
        "typeLocal": "Appartement",
        "surfaceM2": 51,
        "isVefa": true
      },
      {
        "date": "2020-10-01",
        "priceEur": 312800,
        "typeLocal": "Appartement",
        "surfaceM2": 68,
        "isVefa": true
      },
      {
        "date": "2020-09-30",
        "priceEur": 362000,
        "typeLocal": "Appartement",
        "surfaceM2": 80,
        "isVefa": true
      },
      {
        "date": "2020-09-28",
        "priceEur": 294600,
        "typeLocal": "Appartement",
        "surfaceM2": 70,
        "isVefa": true
      },
      {
        "date": "2020-09-25",
        "priceEur": 299600,
        "typeLocal": "Appartement",
        "surfaceM2": 70,
        "isVefa": true
      },
      {
        "date": "2020-09-25",
        "priceEur": 220200,
        "typeLocal": "Appartement",
        "surfaceM2": 51,
        "isVefa": true
      },
      {
        "date": "2020-09-23",
        "priceEur": 308850,
        "typeLocal": "Appartement",
        "surfaceM2": 68,
        "isVefa": true
      },
      {
        "date": "2020-09-22",
        "priceEur": 222050,
        "typeLocal": "Appartement",
        "surfaceM2": 51,
        "isVefa": true
      },
      {
        "date": "2020-09-17",
        "priceEur": 226100,
        "typeLocal": "Appartement",
        "surfaceM2": 51,
        "isVefa": true
      },
      {
        "date": "2020-09-04",
        "priceEur": 292850,
        "typeLocal": "Appartement",
        "surfaceM2": 68,
        "isVefa": true
      },
      {
        "date": "2020-08-31",
        "priceEur": 299200,
        "typeLocal": "Appartement",
        "surfaceM2": 70,
        "isVefa": true
      },
      {
        "date": "2020-08-26",
        "priceEur": 227550,
        "typeLocal": "Appartement",
        "surfaceM2": 51,
        "isVefa": true
      },
      {
        "date": "2020-08-07",
        "priceEur": 228950,
        "typeLocal": "Appartement",
        "surfaceM2": 51,
        "isVefa": true
      },
      {
        "date": "2020-08-05",
        "priceEur": 221600,
        "typeLocal": "Appartement",
        "surfaceM2": 51,
        "isVefa": true
      },
      {
        "date": "2020-07-31",
        "priceEur": 225600,
        "typeLocal": "Appartement",
        "surfaceM2": 50,
        "isVefa": true
      },
      {
        "date": "2020-07-30",
        "priceEur": 301950,
        "typeLocal": "Appartement",
        "surfaceM2": 70,
        "isVefa": true
      },
      {
        "date": "2020-07-29",
        "priceEur": 224200,
        "typeLocal": "Appartement",
        "surfaceM2": 50,
        "isVefa": true
      },
      {
        "date": "2020-07-28",
        "priceEur": 221100,
        "typeLocal": "Appartement",
        "surfaceM2": 51,
        "isVefa": true
      }
    ]
  },
  "42b777f04c20": {
    "id": "42b777f04c20",
    "label": "8 RUE DU DOCTEUR DUCROQUET, Marcq-en-Barœul",
    "lat": 50.677654,
    "lng": 3.091425,
    "transactions": [
      {
        "date": "2021-12-21",
        "priceEur": 287500,
        "typeLocal": "Appartement",
        "surfaceM2": 74,
        "isVefa": false
      },
      {
        "date": "2021-06-07",
        "priceEur": 239000,
        "typeLocal": "Appartement",
        "surfaceM2": 76,
        "isVefa": false
      },
      {
        "date": "2020-08-19",
        "priceEur": 324000,
        "typeLocal": "Appartement",
        "surfaceM2": 93,
        "isVefa": false
      }
    ]
  },
  "14470d621a2b": {
    "id": "14470d621a2b",
    "label": "34 RUE DE LA CENSE A L' EAU, Marcq-en-Barœul",
    "lat": 50.676256,
    "lng": 3.096223,
    "transactions": [
      {
        "date": "2020-09-11",
        "priceEur": 264000,
        "typeLocal": "Maison",
        "surfaceM2": 80,
        "isVefa": false
      }
    ]
  },
  "dea730b40f77": {
    "id": "dea730b40f77",
    "label": "15 RUE MAURICE GENEVOIX, Marcq-en-Barœul",
    "lat": 50.678646,
    "lng": 3.094768,
    "transactions": [
      {
        "date": "2020-09-03",
        "priceEur": 336000,
        "typeLocal": "Maison",
        "surfaceM2": 78,
        "isVefa": false
      }
    ]
  },
  "99f7fbff8db1": {
    "id": "99f7fbff8db1",
    "label": "8 SEN TOULEMONDE, Marcq-en-Barœul",
    "lat": 50.679997,
    "lng": 3.093671,
    "transactions": [
      {
        "date": "2020-09-17",
        "priceEur": 300000,
        "typeLocal": "Maison",
        "surfaceM2": 90,
        "isVefa": false
      }
    ]
  },
  "408febf73fc9": {
    "id": "408febf73fc9",
    "label": "9007 RUE ANDRE COISNE, Marcq-en-Barœul",
    "lat": 50.674524,
    "lng": 3.09579,
    "transactions": [
      {
        "date": "2020-10-14",
        "priceEur": 442000,
        "typeLocal": "Maison",
        "surfaceM2": 81,
        "isVefa": false
      }
    ]
  },
  "602a8aff9567": {
    "id": "602a8aff9567",
    "label": "40 RUE RAYMOND DERAIN, Marcq-en-Barœul",
    "lat": 50.675009,
    "lng": 3.090866,
    "transactions": [
      {
        "date": "2020-10-05",
        "priceEur": 73842.98,
        "typeLocal": "Maison",
        "surfaceM2": 56,
        "isVefa": false
      }
    ]
  },
  "cd609fb7260c": {
    "id": "cd609fb7260c",
    "label": "7 RUE ALBERT BAILLY, Marcq-en-Barœul",
    "lat": 50.677654,
    "lng": 3.091425,
    "transactions": [
      {
        "date": "2024-10-30",
        "priceEur": 295770,
        "typeLocal": "Appartement",
        "surfaceM2": 73,
        "isVefa": false
      },
      {
        "date": "2024-02-22",
        "priceEur": 162500,
        "typeLocal": "Appartement",
        "surfaceM2": 48,
        "isVefa": false
      },
      {
        "date": "2022-05-23",
        "priceEur": 206000,
        "typeLocal": "Appartement",
        "surfaceM2": 48,
        "isVefa": false
      },
      {
        "date": "2021-11-26",
        "priceEur": 158000,
        "typeLocal": "Appartement",
        "surfaceM2": 49,
        "isVefa": false
      },
      {
        "date": "2020-10-23",
        "priceEur": 224000,
        "typeLocal": "Appartement",
        "surfaceM2": 74,
        "isVefa": false
      }
    ]
  },
  "be3c0152a269": {
    "id": "be3c0152a269",
    "label": "104 AV DU MARECHAL FOCH, Marcq-en-Barœul",
    "lat": 50.67479,
    "lng": 3.094605,
    "transactions": [
      {
        "date": "2024-06-24",
        "priceEur": 170000,
        "typeLocal": "Appartement",
        "surfaceM2": 67,
        "isVefa": false
      },
      {
        "date": "2024-04-22",
        "priceEur": 165000,
        "typeLocal": "Appartement",
        "surfaceM2": 85,
        "isVefa": false
      },
      {
        "date": "2023-07-18",
        "priceEur": 205000,
        "typeLocal": "Appartement",
        "surfaceM2": 67,
        "isVefa": false
      },
      {
        "date": "2023-06-29",
        "priceEur": 225500,
        "typeLocal": "Appartement",
        "surfaceM2": 85,
        "isVefa": false
      },
      {
        "date": "2023-06-06",
        "priceEur": 158000,
        "typeLocal": "Appartement",
        "surfaceM2": 67,
        "isVefa": false
      },
      {
        "date": "2023-03-29",
        "priceEur": 156000,
        "typeLocal": "Appartement",
        "surfaceM2": 58,
        "isVefa": false
      },
      {
        "date": "2020-11-04",
        "priceEur": 150000,
        "typeLocal": "Appartement",
        "surfaceM2": 58,
        "isVefa": false
      }
    ]
  },
  "a183e087136b": {
    "id": "a183e087136b",
    "label": "35 ALL DES CHARMES, Marcq-en-Barœul",
    "lat": 50.680666,
    "lng": 3.093126,
    "transactions": [
      {
        "date": "2020-11-09",
        "priceEur": 500000,
        "typeLocal": "Maison",
        "surfaceM2": 113,
        "isVefa": false
      }
    ]
  },
  "17fe6781112c": {
    "id": "17fe6781112c",
    "label": "7 RUE DES LILAS, Marcq-en-Barœul",
    "lat": 50.680309,
    "lng": 3.089064,
    "transactions": [
      {
        "date": "2020-11-13",
        "priceEur": 143333.33,
        "typeLocal": "Maison",
        "surfaceM2": 43,
        "isVefa": false
      }
    ]
  },
  "dd36e6617f97": {
    "id": "dd36e6617f97",
    "label": "7 RUE D ORCHIES, Marcq-en-Barœul",
    "lat": 50.677484,
    "lng": 3.092672,
    "transactions": [
      {
        "date": "2020-12-09",
        "priceEur": 642900,
        "typeLocal": "Maison",
        "surfaceM2": 80,
        "isVefa": false
      }
    ]
  },
  "f6fcb2138969": {
    "id": "f6fcb2138969",
    "label": "5 RUE D ORCHIES, Marcq-en-Barœul",
    "lat": 50.67749,
    "lng": 3.092594,
    "transactions": [
      {
        "date": "2020-12-09",
        "priceEur": 642900,
        "typeLocal": "Maison",
        "surfaceM2": 68,
        "isVefa": false
      }
    ]
  },
  "224f3a505dfe": {
    "id": "224f3a505dfe",
    "label": "3 RUE D ORCHIES, Marcq-en-Barœul",
    "lat": 50.677493,
    "lng": 3.092546,
    "transactions": [
      {
        "date": "2020-12-09",
        "priceEur": 642900,
        "typeLocal": "Maison",
        "surfaceM2": 61,
        "isVefa": false
      }
    ]
  },
  "69c65e2bd1a1": {
    "id": "69c65e2bd1a1",
    "label": "16 RUE ALBERT BAILLY, Marcq-en-Barœul",
    "lat": 50.676822,
    "lng": 3.092499,
    "transactions": [
      {
        "date": "2020-12-09",
        "priceEur": 1050355,
        "typeLocal": "Maison",
        "surfaceM2": 284,
        "isVefa": false
      }
    ]
  },
  "052f270ce610": {
    "id": "052f270ce610",
    "label": "113 AV DU MARECHAL FOCH, Marcq-en-Barœul",
    "lat": 50.674529,
    "lng": 3.093429,
    "transactions": [
      {
        "date": "2023-06-30",
        "priceEur": 216000,
        "typeLocal": "Appartement",
        "surfaceM2": 68,
        "isVefa": false
      },
      {
        "date": "2023-05-04",
        "priceEur": 179670,
        "typeLocal": "Appartement",
        "surfaceM2": 68,
        "isVefa": false
      },
      {
        "date": "2023-02-10",
        "priceEur": 264107,
        "typeLocal": "Appartement",
        "surfaceM2": 68,
        "isVefa": false
      },
      {
        "date": "2021-09-10",
        "priceEur": 383000,
        "typeLocal": "Appartement",
        "surfaceM2": 96,
        "isVefa": false
      },
      {
        "date": "2021-03-25",
        "priceEur": 252500,
        "typeLocal": "Appartement",
        "surfaceM2": 81,
        "isVefa": false
      },
      {
        "date": "2020-12-29",
        "priceEur": 233200,
        "typeLocal": "Appartement",
        "surfaceM2": 81,
        "isVefa": false
      }
    ]
  },
  "cf3f405e0c03": {
    "id": "cf3f405e0c03",
    "label": "31 RUE DU QUESNE, Marcq-en-Barœul",
    "lat": 50.67397,
    "lng": 3.092397,
    "transactions": [
      {
        "date": "2025-06-20",
        "priceEur": 308400,
        "typeLocal": "Appartement",
        "surfaceM2": 85,
        "isVefa": false
      },
      {
        "date": "2021-12-16",
        "priceEur": 355000,
        "typeLocal": "Appartement",
        "surfaceM2": 85,
        "isVefa": false
      },
      {
        "date": "2021-10-08",
        "priceEur": 116000,
        "typeLocal": "Appartement",
        "surfaceM2": 37,
        "isVefa": false
      },
      {
        "date": "2021-01-08",
        "priceEur": 585000,
        "typeLocal": "Appartement",
        "surfaceM2": 135,
        "isVefa": false
      }
    ]
  },
  "2b646974b4a2": {
    "id": "2b646974b4a2",
    "label": "14 RUE ALBERT BAILLY, Marcq-en-Barœul",
    "lat": 50.676822,
    "lng": 3.092499,
    "transactions": [
      {
        "date": "2024-03-14",
        "priceEur": 185000,
        "typeLocal": "Appartement",
        "surfaceM2": 46,
        "isVefa": false
      },
      {
        "date": "2023-10-13",
        "priceEur": 575300,
        "typeLocal": "Appartement",
        "surfaceM2": 120,
        "isVefa": false
      },
      {
        "date": "2022-04-04",
        "priceEur": 533500,
        "typeLocal": "Appartement",
        "surfaceM2": 112,
        "isVefa": false
      },
      {
        "date": "2022-04-01",
        "priceEur": 116000,
        "typeLocal": "Appartement",
        "surfaceM2": 42,
        "isVefa": false
      },
      {
        "date": "2021-09-10",
        "priceEur": 185000,
        "typeLocal": "Appartement",
        "surfaceM2": 50,
        "isVefa": false
      },
      {
        "date": "2021-07-09",
        "priceEur": 387600,
        "typeLocal": "Appartement",
        "surfaceM2": 75,
        "isVefa": false
      },
      {
        "date": "2021-01-29",
        "priceEur": 142000,
        "typeLocal": "Appartement",
        "surfaceM2": 46,
        "isVefa": false
      }
    ]
  },
  "8f1d283e3844": {
    "id": "8f1d283e3844",
    "label": "106 AV DU MARECHAL FOCH, Marcq-en-Barœul",
    "lat": 50.67479,
    "lng": 3.094605,
    "transactions": [
      {
        "date": "2022-08-05",
        "priceEur": 173000,
        "typeLocal": "Appartement",
        "surfaceM2": 58,
        "isVefa": false
      },
      {
        "date": "2021-01-29",
        "priceEur": 182000,
        "typeLocal": "Appartement",
        "surfaceM2": 67,
        "isVefa": false
      }
    ]
  },
  "d79d1005fa32": {
    "id": "d79d1005fa32",
    "label": "29 RUE DU QUESNE, Marcq-en-Barœul",
    "lat": 50.67397,
    "lng": 3.092397,
    "transactions": [
      {
        "date": "2025-03-13",
        "priceEur": 207500,
        "typeLocal": "Appartement",
        "surfaceM2": 100,
        "isVefa": false
      },
      {
        "date": "2025-02-28",
        "priceEur": 665000,
        "typeLocal": "Appartement",
        "surfaceM2": 143,
        "isVefa": false
      },
      {
        "date": "2024-04-30",
        "priceEur": 320650,
        "typeLocal": "Appartement",
        "surfaceM2": 85,
        "isVefa": false
      },
      {
        "date": "2024-03-12",
        "priceEur": 770000,
        "typeLocal": "Appartement",
        "surfaceM2": 153,
        "isVefa": false
      },
      {
        "date": "2024-03-05",
        "priceEur": 500000,
        "typeLocal": "Appartement",
        "surfaceM2": 126,
        "isVefa": false
      },
      {
        "date": "2023-02-06",
        "priceEur": 289800,
        "typeLocal": "Appartement",
        "surfaceM2": 76,
        "isVefa": false
      },
      {
        "date": "2021-01-14",
        "priceEur": 142000,
        "typeLocal": "Appartement",
        "surfaceM2": 42,
        "isVefa": false
      }
    ]
  },
  "82739c56114a": {
    "id": "82739c56114a",
    "label": "16 RUE D ORCHIES, Marcq-en-Barœul",
    "lat": 50.6772,
    "lng": 3.093125,
    "transactions": [
      {
        "date": "2021-01-14",
        "priceEur": 289900,
        "typeLocal": "Maison",
        "surfaceM2": 70,
        "isVefa": false
      }
    ]
  },
  "e97b192a7c4c": {
    "id": "e97b192a7c4c",
    "label": "117 RUE ALBERT BAILLY, Marcq-en-Barœul",
    "lat": 50.679703,
    "lng": 3.094177,
    "transactions": [
      {
        "date": "2021-01-28",
        "priceEur": 90000,
        "typeLocal": "Maison",
        "surfaceM2": 49,
        "isVefa": false
      }
    ]
  },
  "d009ed49c4d6": {
    "id": "d009ed49c4d6",
    "label": "119 RUE ALBERT BAILLY, Marcq-en-Barœul",
    "lat": 50.679705,
    "lng": 3.094215,
    "transactions": [
      {
        "date": "2021-01-28",
        "priceEur": 90000,
        "typeLocal": "Maison",
        "surfaceM2": 49,
        "isVefa": false
      }
    ]
  },
  "8e275902eb8c": {
    "id": "8e275902eb8c",
    "label": "4 SEN TOULEMONDE, Marcq-en-Barœul",
    "lat": 50.679942,
    "lng": 3.093912,
    "transactions": [
      {
        "date": "2021-02-12",
        "priceEur": 105584.88,
        "typeLocal": "Maison",
        "surfaceM2": 60,
        "isVefa": false
      }
    ]
  },
  "b9cc90c26478": {
    "id": "b9cc90c26478",
    "label": "27 RUE DU QUESNE, Marcq-en-Barœul",
    "lat": 50.67397,
    "lng": 3.092397,
    "transactions": [
      {
        "date": "2023-11-07",
        "priceEur": 193875,
        "typeLocal": "Appartement",
        "surfaceM2": 48,
        "isVefa": false
      },
      {
        "date": "2023-09-29",
        "priceEur": 113000,
        "typeLocal": "Appartement",
        "surfaceM2": 37,
        "isVefa": false
      },
      {
        "date": "2023-02-08",
        "priceEur": 139000,
        "typeLocal": "Appartement",
        "surfaceM2": 25,
        "isVefa": false
      },
      {
        "date": "2022-10-18",
        "priceEur": 185000,
        "typeLocal": "Appartement",
        "surfaceM2": 48,
        "isVefa": false
      },
      {
        "date": "2022-08-02",
        "priceEur": 121500,
        "typeLocal": "Appartement",
        "surfaceM2": 35,
        "isVefa": false
      },
      {
        "date": "2022-05-30",
        "priceEur": 570000,
        "typeLocal": "Appartement",
        "surfaceM2": 121,
        "isVefa": false
      },
      {
        "date": "2022-01-28",
        "priceEur": 571200,
        "typeLocal": "Appartement",
        "surfaceM2": 126,
        "isVefa": false
      },
      {
        "date": "2021-09-17",
        "priceEur": 271000,
        "typeLocal": "Appartement",
        "surfaceM2": 83,
        "isVefa": false
      },
      {
        "date": "2021-05-18",
        "priceEur": 564620,
        "typeLocal": "Appartement",
        "surfaceM2": 126,
        "isVefa": false
      },
      {
        "date": "2021-02-19",
        "priceEur": 124700,
        "typeLocal": "Appartement",
        "surfaceM2": 35,
        "isVefa": false
      }
    ]
  },
  "af1dccb1d7c6": {
    "id": "af1dccb1d7c6",
    "label": "23 RUE DES LILAS, Marcq-en-Barœul",
    "lat": 50.680134,
    "lng": 3.088271,
    "transactions": [
      {
        "date": "2024-03-13",
        "priceEur": 255000,
        "typeLocal": "Maison",
        "surfaceM2": 68,
        "isVefa": false
      },
      {
        "date": "2021-04-09",
        "priceEur": 268000,
        "typeLocal": "Maison",
        "surfaceM2": 68,
        "isVefa": false
      }
    ]
  },
  "8db27a3bd260": {
    "id": "8db27a3bd260",
    "label": "29 RUE DU DOCTEUR DUCROQUET, Marcq-en-Barœul",
    "lat": 50.678095,
    "lng": 3.090581,
    "transactions": [
      {
        "date": "2022-12-29",
        "priceEur": 610640,
        "typeLocal": "Maison",
        "surfaceM2": 130,
        "isVefa": false
      },
      {
        "date": "2021-04-06",
        "priceEur": 255000,
        "typeLocal": "Maison",
        "surfaceM2": 80,
        "isVefa": false
      }
    ]
  },
  "33c62bc54b8c": {
    "id": "33c62bc54b8c",
    "label": "12 RUE ALBERT BAILLY, Marcq-en-Barœul",
    "lat": 50.676822,
    "lng": 3.092499,
    "transactions": [
      {
        "date": "2024-12-10",
        "priceEur": 302500,
        "typeLocal": "Appartement",
        "surfaceM2": 70,
        "isVefa": false
      },
      {
        "date": "2023-03-13",
        "priceEur": 195000,
        "typeLocal": "Appartement",
        "surfaceM2": 52,
        "isVefa": false
      },
      {
        "date": "2023-01-09",
        "priceEur": 333000,
        "typeLocal": "Appartement",
        "surfaceM2": 76,
        "isVefa": false
      },
      {
        "date": "2021-10-29",
        "priceEur": 285000,
        "typeLocal": "Appartement",
        "surfaceM2": 75,
        "isVefa": false
      },
      {
        "date": "2021-04-16",
        "priceEur": 240000,
        "typeLocal": "Appartement",
        "surfaceM2": 70,
        "isVefa": false
      }
    ]
  },
  "049f68c4a12b": {
    "id": "049f68c4a12b",
    "label": "2 RUE DE LA CENSE A L' EAU, Marcq-en-Barœul",
    "lat": 50.674959,
    "lng": 3.097592,
    "transactions": [
      {
        "date": "2021-04-23",
        "priceEur": 475000,
        "typeLocal": "Maison",
        "surfaceM2": 90,
        "isVefa": false
      }
    ]
  },
  "f73a1419cace": {
    "id": "f73a1419cace",
    "label": "41 RUE ANDRE COISNE, Marcq-en-Barœul",
    "lat": 50.675707,
    "lng": 3.094305,
    "transactions": [
      {
        "date": "2021-05-19",
        "priceEur": 45097,
        "typeLocal": "Maison",
        "surfaceM2": 150,
        "isVefa": false
      }
    ]
  },
  "d3318136334b": {
    "id": "d3318136334b",
    "label": "1 RUE CLAUDE HUET, Marcq-en-Barœul",
    "lat": 50.67839,
    "lng": 3.089505,
    "transactions": [
      {
        "date": "2022-08-26",
        "priceEur": 215000,
        "typeLocal": "Appartement",
        "surfaceM2": 54,
        "isVefa": false
      },
      {
        "date": "2021-05-18",
        "priceEur": 245000,
        "typeLocal": "Appartement",
        "surfaceM2": 70,
        "isVefa": false
      }
    ]
  },
  "9f7b251ee907": {
    "id": "9f7b251ee907",
    "label": "114 AV DU MARECHAL FOCH, Marcq-en-Barœul",
    "lat": 50.675631,
    "lng": 3.093984,
    "transactions": [
      {
        "date": "2025-02-06",
        "priceEur": 123000,
        "typeLocal": "Appartement",
        "surfaceM2": 39,
        "isVefa": false
      },
      {
        "date": "2024-06-27",
        "priceEur": 740000,
        "typeLocal": "Appartement",
        "surfaceM2": 164,
        "isVefa": false
      },
      {
        "date": "2024-05-06",
        "priceEur": 275000,
        "typeLocal": "Appartement",
        "surfaceM2": 71,
        "isVefa": false
      },
      {
        "date": "2023-04-07",
        "priceEur": 344000,
        "typeLocal": "Appartement",
        "surfaceM2": 71,
        "isVefa": false
      },
      {
        "date": "2022-12-12",
        "priceEur": 282000,
        "typeLocal": "Appartement",
        "surfaceM2": 78,
        "isVefa": false
      },
      {
        "date": "2022-08-31",
        "priceEur": 575000,
        "typeLocal": "Appartement",
        "surfaceM2": 112,
        "isVefa": false
      },
      {
        "date": "2022-06-02",
        "priceEur": 399000,
        "typeLocal": "Appartement",
        "surfaceM2": 80,
        "isVefa": false
      },
      {
        "date": "2021-09-23",
        "priceEur": 382600,
        "typeLocal": "Appartement",
        "surfaceM2": 77,
        "isVefa": false
      },
      {
        "date": "2021-06-04",
        "priceEur": 350000,
        "typeLocal": "Appartement",
        "surfaceM2": 95,
        "isVefa": false
      }
    ]
  },
  "a1d2e2de1472": {
    "id": "a1d2e2de1472",
    "label": "7 RUE CHUFFART, Marcq-en-Barœul",
    "lat": 50.675627,
    "lng": 3.090434,
    "transactions": [
      {
        "date": "2024-06-06",
        "priceEur": 267000,
        "typeLocal": "Maison",
        "surfaceM2": 65,
        "isVefa": false
      },
      {
        "date": "2021-06-18",
        "priceEur": 189000,
        "typeLocal": "Maison",
        "surfaceM2": 65,
        "isVefa": false
      }
    ]
  },
  "24d36b97fea4": {
    "id": "24d36b97fea4",
    "label": "47 RUE GABRIEL PERI, Marcq-en-Barœul",
    "lat": 50.674863,
    "lng": 3.087764,
    "transactions": [
      {
        "date": "2021-07-09",
        "priceEur": 364800,
        "typeLocal": "Maison",
        "surfaceM2": 89,
        "isVefa": false
      }
    ]
  },
  "c25b20127930": {
    "id": "c25b20127930",
    "label": "80 RUE ALBERT BAILLY, Marcq-en-Barœul",
    "lat": 50.67937,
    "lng": 3.094954,
    "transactions": [
      {
        "date": "2021-06-28",
        "priceEur": 75000,
        "typeLocal": "Maison",
        "surfaceM2": 42,
        "isVefa": false
      }
    ]
  },
  "27101d01565a": {
    "id": "27101d01565a",
    "label": "110 AV DU MARECHAL FOCH, Marcq-en-Barœul",
    "lat": 50.67479,
    "lng": 3.094605,
    "transactions": [
      {
        "date": "2022-03-01",
        "priceEur": 212000,
        "typeLocal": "Appartement",
        "surfaceM2": 85,
        "isVefa": false
      },
      {
        "date": "2021-07-19",
        "priceEur": 213000,
        "typeLocal": "Appartement",
        "surfaceM2": 85,
        "isVefa": false
      }
    ]
  },
  "26f6f4437037": {
    "id": "26f6f4437037",
    "label": "68 RUE JOEL BRAEMS, Marcq-en-Barœul",
    "lat": 50.678143,
    "lng": 3.090475,
    "transactions": [
      {
        "date": "2021-07-21",
        "priceEur": 244000,
        "typeLocal": "Maison",
        "surfaceM2": 66,
        "isVefa": false
      }
    ]
  },
  "96cdc83c63a9": {
    "id": "96cdc83c63a9",
    "label": "33 RUE DE LA CENSE A L' EAU, Marcq-en-Barœul",
    "lat": 50.675788,
    "lng": 3.095839,
    "transactions": [
      {
        "date": "2021-07-23",
        "priceEur": 440000,
        "typeLocal": "Maison",
        "surfaceM2": 70,
        "isVefa": false
      }
    ]
  },
  "f0c8fb7cc81d": {
    "id": "f0c8fb7cc81d",
    "label": "73 RUE DU DOCTEUR DUCROQUET, Marcq-en-Barœul",
    "lat": 50.679248,
    "lng": 3.090094,
    "transactions": [
      {
        "date": "2021-08-04",
        "priceEur": 480000,
        "typeLocal": "Maison",
        "surfaceM2": 125,
        "isVefa": false
      }
    ]
  },
  "35fa6d26d4b5": {
    "id": "35fa6d26d4b5",
    "label": "32 RUE CHUFFART, Marcq-en-Barœul",
    "lat": 50.675221,
    "lng": 3.090728,
    "transactions": [
      {
        "date": "2021-08-09",
        "priceEur": 430000,
        "typeLocal": "Maison",
        "surfaceM2": 63,
        "isVefa": false
      }
    ]
  },
  "e94d551514b9": {
    "id": "e94d551514b9",
    "label": "25 RUE DES LILAS, Marcq-en-Barœul",
    "lat": 50.680159,
    "lng": 3.088042,
    "transactions": [
      {
        "date": "2021-09-06",
        "priceEur": 420500,
        "typeLocal": "Maison",
        "surfaceM2": 101,
        "isVefa": false
      }
    ]
  },
  "91d3dcc25bc1": {
    "id": "91d3dcc25bc1",
    "label": "22 RUE RAYMOND DERAIN, Marcq-en-Barœul",
    "lat": 50.675519,
    "lng": 3.090656,
    "transactions": [
      {
        "date": "2021-08-31",
        "priceEur": 267000,
        "typeLocal": "Maison",
        "surfaceM2": 85,
        "isVefa": false
      }
    ]
  },
  "68e136ab688d": {
    "id": "68e136ab688d",
    "label": "63 RUE RAYMOND DERAIN, Marcq-en-Barœul",
    "lat": 50.67397,
    "lng": 3.092397,
    "transactions": [
      {
        "date": "2022-04-06",
        "priceEur": 569000,
        "typeLocal": "Appartement",
        "surfaceM2": 127,
        "isVefa": false
      },
      {
        "date": "2021-10-21",
        "priceEur": 160000,
        "typeLocal": "Appartement",
        "surfaceM2": 44,
        "isVefa": false
      },
      {
        "date": "2021-09-14",
        "priceEur": 270000,
        "typeLocal": "Appartement",
        "surfaceM2": 71,
        "isVefa": false
      }
    ]
  },
  "d5d915140cfd": {
    "id": "d5d915140cfd",
    "label": "87 RUE DU DOCTEUR DUCROQUET, Marcq-en-Barœul",
    "lat": 50.679836,
    "lng": 3.089944,
    "transactions": [
      {
        "date": "2021-09-17",
        "priceEur": 448900,
        "typeLocal": "Maison",
        "surfaceM2": 113,
        "isVefa": false
      }
    ]
  },
  "235b4ed6b90d": {
    "id": "235b4ed6b90d",
    "label": "5 SEN TOULEMONDE, Marcq-en-Barœul",
    "lat": 50.679945,
    "lng": 3.093833,
    "transactions": [
      {
        "date": "2021-09-30",
        "priceEur": 242900,
        "typeLocal": "Maison",
        "surfaceM2": 56,
        "isVefa": false
      }
    ]
  },
  "ae6dae562820": {
    "id": "ae6dae562820",
    "label": "19 ALL DES TULIPES, Marcq-en-Barœul",
    "lat": 50.680439,
    "lng": 3.092067,
    "transactions": [
      {
        "date": "2021-09-29",
        "priceEur": 273950,
        "typeLocal": "Maison",
        "surfaceM2": 80,
        "isVefa": false
      }
    ]
  },
  "8e3d871d36fc": {
    "id": "8e3d871d36fc",
    "label": "7 RUE MAURICE GENEVOIX, Marcq-en-Barœul",
    "lat": 50.678748,
    "lng": 3.094444,
    "transactions": [
      {
        "date": "2021-09-23",
        "priceEur": 337000,
        "typeLocal": "Maison",
        "surfaceM2": 78,
        "isVefa": false
      }
    ]
  },
  "6d5ec19817ee": {
    "id": "6d5ec19817ee",
    "label": "31 RUE FAIDHERBE, Marcq-en-Barœul",
    "lat": 50.674942,
    "lng": 3.090235,
    "transactions": [
      {
        "date": "2021-10-07",
        "priceEur": 338000,
        "typeLocal": "Appartement",
        "surfaceM2": 62,
        "isVefa": false
      }
    ]
  },
  "7304ad444c89": {
    "id": "7304ad444c89",
    "label": "28 RUE DU COLLEGE, Marcq-en-Barœul",
    "lat": 50.679914,
    "lng": 3.098063,
    "transactions": [
      {
        "date": "2024-08-02",
        "priceEur": 927400,
        "typeLocal": "Maison",
        "surfaceM2": 175,
        "isVefa": false
      },
      {
        "date": "2021-10-08",
        "priceEur": 890000,
        "typeLocal": "Maison",
        "surfaceM2": 175,
        "isVefa": false
      }
    ]
  },
  "52468fcc3dc9": {
    "id": "52468fcc3dc9",
    "label": "42 RUE DE LA CENSE A L' EAU, Marcq-en-Barœul",
    "lat": 50.676589,
    "lng": 3.095668,
    "transactions": [
      {
        "date": "2021-10-08",
        "priceEur": 405000,
        "typeLocal": "Maison",
        "surfaceM2": 105,
        "isVefa": false
      }
    ]
  },
  "7ffd1d0c57af": {
    "id": "7ffd1d0c57af",
    "label": "102 AV DU MARECHAL FOCH, Marcq-en-Barœul",
    "lat": 50.67479,
    "lng": 3.094605,
    "transactions": [
      {
        "date": "2021-11-05",
        "priceEur": 233000,
        "typeLocal": "Appartement",
        "surfaceM2": 85,
        "isVefa": false
      }
    ]
  },
  "b8aa8b0d8cf4": {
    "id": "b8aa8b0d8cf4",
    "label": "6 RUE ROSE VALLAND, Marcq-en-Barœul",
    "lat": 50.674942,
    "lng": 3.090235,
    "transactions": [
      {
        "date": "2021-11-09",
        "priceEur": 1062420,
        "typeLocal": "Appartement",
        "surfaceM2": 160,
        "isVefa": false
      }
    ]
  },
  "9b49e369ce25": {
    "id": "9b49e369ce25",
    "label": "4 RUE ROSE VALLAND, Marcq-en-Barœul",
    "lat": 50.674942,
    "lng": 3.090235,
    "transactions": [
      {
        "date": "2021-12-08",
        "priceEur": 760000,
        "typeLocal": "Appartement",
        "surfaceM2": 141,
        "isVefa": false
      }
    ]
  },
  "1dbdb2d8f622": {
    "id": "1dbdb2d8f622",
    "label": "13 RUE JULES WATTEUW, Marcq-en-Barœul",
    "lat": 50.676232,
    "lng": 3.096943,
    "transactions": [
      {
        "date": "2021-12-09",
        "priceEur": 393000,
        "typeLocal": "Maison",
        "surfaceM2": 108,
        "isVefa": false
      }
    ]
  },
  "7d5a229eb84d": {
    "id": "7d5a229eb84d",
    "label": "35 RUE MAURICE GENEVOIX, Marcq-en-Barœul",
    "lat": 50.678725,
    "lng": 3.095719,
    "transactions": [
      {
        "date": "2021-12-15",
        "priceEur": 395000,
        "typeLocal": "Maison",
        "surfaceM2": 108,
        "isVefa": false
      }
    ]
  },
  "0e90f7e6de6a": {
    "id": "0e90f7e6de6a",
    "label": "120 AV DU MARECHAL FOCH, Marcq-en-Barœul",
    "lat": 50.676283,
    "lng": 3.09239,
    "transactions": [
      {
        "date": "2024-05-31",
        "priceEur": 347000,
        "typeLocal": "Appartement",
        "surfaceM2": 103,
        "isVefa": false
      },
      {
        "date": "2022-03-02",
        "priceEur": 380000,
        "typeLocal": "Appartement",
        "surfaceM2": 98,
        "isVefa": false
      },
      {
        "date": "2022-01-10",
        "priceEur": 200000,
        "typeLocal": "Appartement",
        "surfaceM2": 98,
        "isVefa": false
      }
    ]
  },
  "2c1f5cb8606a": {
    "id": "2c1f5cb8606a",
    "label": "4 ALL DES TAMARIS, Marcq-en-Barœul",
    "lat": 50.680188,
    "lng": 3.09127,
    "transactions": [
      {
        "date": "2022-01-18",
        "priceEur": 295000,
        "typeLocal": "Maison",
        "surfaceM2": 80,
        "isVefa": false
      }
    ]
  },
  "9f2e669fdb81": {
    "id": "9f2e669fdb81",
    "label": "12 RUE JULES WATTEUW, Marcq-en-Barœul",
    "lat": 50.675995,
    "lng": 3.097617,
    "transactions": [
      {
        "date": "2022-01-20",
        "priceEur": 420000,
        "typeLocal": "Maison",
        "surfaceM2": 84,
        "isVefa": false
      }
    ]
  },
  "fcbc085ec00a": {
    "id": "fcbc085ec00a",
    "label": "18 RUE DU LAZARO, Marcq-en-Barœul",
    "lat": 50.676887,
    "lng": 3.089243,
    "transactions": [
      {
        "date": "2022-03-30",
        "priceEur": 420000,
        "typeLocal": "Maison",
        "surfaceM2": 103,
        "isVefa": false
      },
      {
        "date": "2022-01-19",
        "priceEur": 300000,
        "typeLocal": "Maison",
        "surfaceM2": 103,
        "isVefa": false
      }
    ]
  },
  "feb7a1c73043": {
    "id": "feb7a1c73043",
    "label": "12 RUE DES AUBEPINES, Marcq-en-Barœul",
    "lat": 50.679715,
    "lng": 3.089495,
    "transactions": [
      {
        "date": "2022-01-20",
        "priceEur": 375300,
        "typeLocal": "Maison",
        "surfaceM2": 89,
        "isVefa": false
      }
    ]
  },
  "931dd7c68177": {
    "id": "931dd7c68177",
    "label": "82 RUE ALBERT BAILLY, Marcq-en-Barœul",
    "lat": 50.679404,
    "lng": 3.095019,
    "transactions": [
      {
        "date": "2022-01-13",
        "priceEur": 380000,
        "typeLocal": "Maison",
        "surfaceM2": 105,
        "isVefa": false
      }
    ]
  },
  "43f509aa1de3": {
    "id": "43f509aa1de3",
    "label": "111 RUE ALBERT BAILLY, Marcq-en-Barœul",
    "lat": 50.67965,
    "lng": 3.094055,
    "transactions": [
      {
        "date": "2022-02-15",
        "priceEur": 50000,
        "typeLocal": "Maison",
        "surfaceM2": 58,
        "isVefa": false
      }
    ]
  },
  "c709ed15c164": {
    "id": "c709ed15c164",
    "label": "8 RUE PIERRE CORNEILLE, Marcq-en-Barœul",
    "lat": 50.675277,
    "lng": 3.098072,
    "transactions": [
      {
        "date": "2022-03-03",
        "priceEur": 384000,
        "typeLocal": "Maison",
        "surfaceM2": 93,
        "isVefa": false
      }
    ]
  },
  "e0895fe6518c": {
    "id": "e0895fe6518c",
    "label": "16 ALL DES TULIPES, Marcq-en-Barœul",
    "lat": 50.680261,
    "lng": 3.091762,
    "transactions": [
      {
        "date": "2022-03-29",
        "priceEur": 625000,
        "typeLocal": "Maison",
        "surfaceM2": 143,
        "isVefa": false
      }
    ]
  },
  "c74cc1ad4ff7": {
    "id": "c74cc1ad4ff7",
    "label": "123 RUE ALBERT BAILLY, Marcq-en-Barœul",
    "lat": 50.679733,
    "lng": 3.094282,
    "transactions": [
      {
        "date": "2022-03-15",
        "priceEur": 90000,
        "typeLocal": "Maison",
        "surfaceM2": 49,
        "isVefa": false
      }
    ]
  },
  "6a28f392cafe": {
    "id": "6a28f392cafe",
    "label": "125 RUE ALBERT BAILLY, Marcq-en-Barœul",
    "lat": 50.679855,
    "lng": 3.094266,
    "transactions": [
      {
        "date": "2022-03-15",
        "priceEur": 90000,
        "typeLocal": "Maison",
        "surfaceM2": 46,
        "isVefa": false
      }
    ]
  },
  "ed6074a371fd": {
    "id": "ed6074a371fd",
    "label": "124 AV DU MARECHAL FOCH, Marcq-en-Barœul",
    "lat": 50.676283,
    "lng": 3.09239,
    "transactions": [
      {
        "date": "2022-04-21",
        "priceEur": 295000,
        "typeLocal": "Appartement",
        "surfaceM2": 98,
        "isVefa": false
      }
    ]
  },
  "6c1fd2ecbda3": {
    "id": "6c1fd2ecbda3",
    "label": "115 RUE ALBERT BAILLY, Marcq-en-Barœul",
    "lat": 50.679696,
    "lng": 3.094116,
    "transactions": [
      {
        "date": "2022-04-22",
        "priceEur": 40000,
        "typeLocal": "Maison",
        "surfaceM2": 49,
        "isVefa": false
      }
    ]
  },
  "43adc2ad764c": {
    "id": "43adc2ad764c",
    "label": "24 RUE CHUFFART, Marcq-en-Barœul",
    "lat": 50.675357,
    "lng": 3.090239,
    "transactions": [
      {
        "date": "2022-04-19",
        "priceEur": 500000,
        "typeLocal": "Maison",
        "surfaceM2": 80,
        "isVefa": false
      }
    ]
  },
  "3bcf16fade52": {
    "id": "3bcf16fade52",
    "label": "10 RUE JULES WATTEUW, Marcq-en-Barœul",
    "lat": 50.675945,
    "lng": 3.097526,
    "transactions": [
      {
        "date": "2022-05-13",
        "priceEur": 531000,
        "typeLocal": "Maison",
        "surfaceM2": 100,
        "isVefa": false
      }
    ]
  },
  "008cfbf821b5": {
    "id": "008cfbf821b5",
    "label": "113 RUE ALBERT BAILLY, Marcq-en-Barœul",
    "lat": 50.679685,
    "lng": 3.094068,
    "transactions": [
      {
        "date": "2022-05-12",
        "priceEur": 233000,
        "typeLocal": "Maison",
        "surfaceM2": 49,
        "isVefa": false
      }
    ]
  },
  "f8f53a5bf19e": {
    "id": "f8f53a5bf19e",
    "label": "121 RUE ALBERT BAILLY, Marcq-en-Barœul",
    "lat": 50.679716,
    "lng": 3.094247,
    "transactions": [
      {
        "date": "2022-05-16",
        "priceEur": 40000,
        "typeLocal": "Maison",
        "surfaceM2": 49,
        "isVefa": false
      }
    ]
  },
  "217e287d126b": {
    "id": "217e287d126b",
    "label": "1 RUE ROSE VALLAND, Marcq-en-Barœul",
    "lat": 50.674942,
    "lng": 3.090235,
    "transactions": [
      {
        "date": "2022-05-30",
        "priceEur": 70000,
        "typeLocal": "Appartement",
        "surfaceM2": 27,
        "isVefa": false
      }
    ]
  },
  "60a5641eda67": {
    "id": "60a5641eda67",
    "label": "28 RUE MAURICE GENEVOIX, Marcq-en-Barœul",
    "lat": 50.67843,
    "lng": 3.095877,
    "transactions": [
      {
        "date": "2022-06-07",
        "priceEur": 460000,
        "typeLocal": "Maison",
        "surfaceM2": 90,
        "isVefa": false
      }
    ]
  },
  "3f1fe10226b3": {
    "id": "3f1fe10226b3",
    "label": "108 AV DU MARECHAL FOCH, Marcq-en-Barœul",
    "lat": 50.67479,
    "lng": 3.094605,
    "transactions": [
      {
        "date": "2022-06-23",
        "priceEur": 188440,
        "typeLocal": "Appartement",
        "surfaceM2": 67,
        "isVefa": false
      }
    ]
  },
  "9f8170880339": {
    "id": "9f8170880339",
    "label": "3 RUE DU DOCTEUR DUCROQUET, Marcq-en-Barœul",
    "lat": 50.677384,
    "lng": 3.090562,
    "transactions": [
      {
        "date": "2022-06-30",
        "priceEur": 937810,
        "typeLocal": "Maison",
        "surfaceM2": 190,
        "isVefa": false
      }
    ]
  },
  "031aba88a74b": {
    "id": "031aba88a74b",
    "label": "23 RUE DU LAZARO, Marcq-en-Barœul",
    "lat": 50.676796,
    "lng": 3.088753,
    "transactions": [
      {
        "date": "2022-06-22",
        "priceEur": 560000,
        "typeLocal": "Maison",
        "surfaceM2": 116,
        "isVefa": false
      }
    ]
  },
  "143371c7cc16": {
    "id": "143371c7cc16",
    "label": "54 RUE ALBERT BAILLY, Marcq-en-Barœul",
    "lat": 50.678564,
    "lng": 3.092954,
    "transactions": [
      {
        "date": "2022-08-01",
        "priceEur": 642620,
        "typeLocal": "Maison",
        "surfaceM2": 120,
        "isVefa": false
      }
    ]
  },
  "77cfa45a4a67": {
    "id": "77cfa45a4a67",
    "label": "33 RUE ANDRE COISNE, Marcq-en-Barœul",
    "lat": 50.675448,
    "lng": 3.094619,
    "transactions": [
      {
        "date": "2024-07-18",
        "priceEur": 743480,
        "typeLocal": "Maison",
        "surfaceM2": 80,
        "isVefa": false
      },
      {
        "date": "2022-08-11",
        "priceEur": 350000,
        "typeLocal": "Maison",
        "surfaceM2": 80,
        "isVefa": false
      }
    ]
  },
  "03c37c22c666": {
    "id": "03c37c22c666",
    "label": "25 RUE JULES WATTEUW, Marcq-en-Barœul",
    "lat": 50.676435,
    "lng": 3.097378,
    "transactions": [
      {
        "date": "2022-08-25",
        "priceEur": 373000,
        "typeLocal": "Maison",
        "surfaceM2": 73,
        "isVefa": false
      }
    ]
  },
  "7d9746a1e69d": {
    "id": "7d9746a1e69d",
    "label": "12 RUE ANDRE COISNE, Marcq-en-Barœul",
    "lat": 50.674947,
    "lng": 3.09604,
    "transactions": [
      {
        "date": "2022-08-25",
        "priceEur": 338000,
        "typeLocal": "Maison",
        "surfaceM2": 72,
        "isVefa": false
      }
    ]
  },
  "18519e3295d8": {
    "id": "18519e3295d8",
    "label": "27 RUE GABRIEL PERI, Marcq-en-Barœul",
    "lat": 50.675282,
    "lng": 3.088991,
    "transactions": [
      {
        "date": "2022-09-06",
        "priceEur": 1000000,
        "typeLocal": "Maison",
        "surfaceM2": 140,
        "isVefa": false
      }
    ]
  },
  "4e9a2c150520": {
    "id": "4e9a2c150520",
    "label": "26 RUE DES AUBEPINES, Marcq-en-Barœul",
    "lat": 50.680088,
    "lng": 3.089189,
    "transactions": [
      {
        "date": "2022-09-07",
        "priceEur": 330000,
        "typeLocal": "Maison",
        "surfaceM2": 89,
        "isVefa": false
      }
    ]
  },
  "0d731dff446f": {
    "id": "0d731dff446f",
    "label": "87 RUE ALBERT BAILLY, Marcq-en-Barœul",
    "lat": 50.679318,
    "lng": 3.093212,
    "transactions": [
      {
        "date": "2022-09-28",
        "priceEur": 1068300,
        "typeLocal": "Maison",
        "surfaceM2": 174,
        "isVefa": false
      }
    ]
  },
  "483aedeb0e99": {
    "id": "483aedeb0e99",
    "label": "23 RUE MAURICE GENEVOIX, Marcq-en-Barœul",
    "lat": 50.67872,
    "lng": 3.095115,
    "transactions": [
      {
        "date": "2022-10-10",
        "priceEur": 385000,
        "typeLocal": "Maison",
        "surfaceM2": 80,
        "isVefa": false
      }
    ]
  },
  "b51b5244a86e": {
    "id": "b51b5244a86e",
    "label": "23B RUE GABRIEL PERI, Marcq-en-Barœul",
    "lat": 50.675335,
    "lng": 3.089054,
    "transactions": [
      {
        "date": "2022-10-12",
        "priceEur": 175000,
        "typeLocal": "Appartement",
        "surfaceM2": 110,
        "isVefa": false
      }
    ]
  },
  "f8135ea34468": {
    "id": "f8135ea34468",
    "label": "2 RUE ANDRE COISNE, Marcq-en-Barœul",
    "lat": 50.674759,
    "lng": 3.096241,
    "transactions": [
      {
        "date": "2022-10-11",
        "priceEur": 620000,
        "typeLocal": "Maison",
        "surfaceM2": 89,
        "isVefa": false
      }
    ]
  },
  "628609bf2da5": {
    "id": "628609bf2da5",
    "label": "7 RUE CHABAN DELMAS, Marcq-en-Barœul",
    "lat": 50.676565,
    "lng": 3.087169,
    "transactions": [
      {
        "date": "2022-10-18",
        "priceEur": 306000,
        "typeLocal": "Appartement",
        "surfaceM2": 68,
        "isVefa": false
      }
    ]
  },
  "941dba9b1dd5": {
    "id": "941dba9b1dd5",
    "label": "15 RUE JULES WATTEUW, Marcq-en-Barœul",
    "lat": 50.676259,
    "lng": 3.097005,
    "transactions": [
      {
        "date": "2022-10-12",
        "priceEur": 325000,
        "typeLocal": "Maison",
        "surfaceM2": 73,
        "isVefa": false
      }
    ]
  },
  "6adc36fb121f": {
    "id": "6adc36fb121f",
    "label": "27 RUE DES LILAS, Marcq-en-Barœul",
    "lat": 50.680118,
    "lng": 3.087854,
    "transactions": [
      {
        "date": "2022-11-03",
        "priceEur": 169000,
        "typeLocal": "Maison",
        "surfaceM2": 64,
        "isVefa": false
      }
    ]
  },
  "2c96780e35b6": {
    "id": "2c96780e35b6",
    "label": "37 RUE MAURICE GENEVOIX, Marcq-en-Barœul",
    "lat": 50.678767,
    "lng": 3.095932,
    "transactions": [
      {
        "date": "2022-11-16",
        "priceEur": 500000,
        "typeLocal": "Maison",
        "surfaceM2": 108,
        "isVefa": false
      }
    ]
  },
  "6dbeb0f27b92": {
    "id": "6dbeb0f27b92",
    "label": "100 AV DU MARECHAL FOCH, Marcq-en-Barœul",
    "lat": 50.67479,
    "lng": 3.094605,
    "transactions": [
      {
        "date": "2024-11-12",
        "priceEur": 131500,
        "typeLocal": "Appartement",
        "surfaceM2": 85,
        "isVefa": false
      },
      {
        "date": "2022-11-16",
        "priceEur": 204000,
        "typeLocal": "Appartement",
        "surfaceM2": 85,
        "isVefa": false
      }
    ]
  },
  "1e6cf01a433b": {
    "id": "1e6cf01a433b",
    "label": "37 RUE DE LA CENSE A L' EAU, Marcq-en-Barœul",
    "lat": 50.675933,
    "lng": 3.095635,
    "transactions": [
      {
        "date": "2022-11-15",
        "priceEur": 729000,
        "typeLocal": "Maison",
        "surfaceM2": 220,
        "isVefa": false
      }
    ]
  },
  "464f15690273": {
    "id": "464f15690273",
    "label": "24 RUE DE LA CENSE A L' EAU, Marcq-en-Barœul",
    "lat": 50.675956,
    "lng": 3.096367,
    "transactions": [
      {
        "date": "2022-12-09",
        "priceEur": 384245,
        "typeLocal": "Maison",
        "surfaceM2": 86,
        "isVefa": false
      }
    ]
  },
  "5177100d6292": {
    "id": "5177100d6292",
    "label": "109 RUE ALBERT BAILLY, Marcq-en-Barœul",
    "lat": 50.679585,
    "lng": 3.094084,
    "transactions": [
      {
        "date": "2024-03-18",
        "priceEur": 157500,
        "typeLocal": "Maison",
        "surfaceM2": 50,
        "isVefa": false
      },
      {
        "date": "2022-12-01",
        "priceEur": 50000,
        "typeLocal": "Maison",
        "surfaceM2": 50,
        "isVefa": false
      }
    ]
  },
  "ff47ec408fd7": {
    "id": "ff47ec408fd7",
    "label": "20 RUE JOEL BRAEMS, Marcq-en-Barœul",
    "lat": 50.677543,
    "lng": 3.089382,
    "transactions": [
      {
        "date": "2022-12-29",
        "priceEur": 221250,
        "typeLocal": "Maison",
        "surfaceM2": 54,
        "isVefa": false
      }
    ]
  },
  "50cbf495bbfe": {
    "id": "50cbf495bbfe",
    "label": "76 RUE ALBERT BAILLY, Marcq-en-Barœul",
    "lat": 50.679293,
    "lng": 3.094805,
    "transactions": [
      {
        "date": "2022-12-28",
        "priceEur": 750000,
        "typeLocal": "Maison",
        "surfaceM2": 200,
        "isVefa": false
      }
    ]
  },
  "e625b83c508f": {
    "id": "e625b83c508f",
    "label": "14 RUE JULES WATTEUW, Marcq-en-Barœul",
    "lat": 50.676035,
    "lng": 3.097716,
    "transactions": [
      {
        "date": "2023-01-03",
        "priceEur": 580000,
        "typeLocal": "Maison",
        "surfaceM2": 100,
        "isVefa": false
      }
    ]
  },
  "7839c1eaf6e7": {
    "id": "7839c1eaf6e7",
    "label": "5 RUE DES AUBEPINES, Marcq-en-Barœul",
    "lat": 50.679156,
    "lng": 3.089658,
    "transactions": [
      {
        "date": "2023-01-24",
        "priceEur": 476560,
        "typeLocal": "Maison",
        "surfaceM2": 89,
        "isVefa": false
      }
    ]
  },
  "768789f6b556": {
    "id": "768789f6b556",
    "label": "43 RUE DU DOCTEUR DUCROQUET, Marcq-en-Barœul",
    "lat": 50.678569,
    "lng": 3.090272,
    "transactions": [
      {
        "date": "2023-01-27",
        "priceEur": 655000,
        "typeLocal": "Maison",
        "surfaceM2": 147,
        "isVefa": false
      }
    ]
  },
  "9d841c12cb11": {
    "id": "9d841c12cb11",
    "label": "13 RUE DES AUBEPINES, Marcq-en-Barœul",
    "lat": 50.679196,
    "lng": 3.089199,
    "transactions": [
      {
        "date": "2023-02-28",
        "priceEur": 260000,
        "typeLocal": "Maison",
        "surfaceM2": 69,
        "isVefa": false
      }
    ]
  },
  "82c2709b47d0": {
    "id": "82c2709b47d0",
    "label": "61 RUE RAYMOND DERAIN, Marcq-en-Barœul",
    "lat": 50.67397,
    "lng": 3.092397,
    "transactions": [
      {
        "date": "2025-06-16",
        "priceEur": 485000,
        "typeLocal": "Appartement",
        "surfaceM2": 114,
        "isVefa": false
      },
      {
        "date": "2023-03-14",
        "priceEur": 174000,
        "typeLocal": "Appartement",
        "surfaceM2": 47,
        "isVefa": false
      }
    ]
  },
  "4b8156883bd3": {
    "id": "4b8156883bd3",
    "label": "29 RUE DES AUBEPINES, Marcq-en-Barœul",
    "lat": 50.67967,
    "lng": 3.088818,
    "transactions": [
      {
        "date": "2023-06-29",
        "priceEur": 297000,
        "typeLocal": "Maison",
        "surfaceM2": 69,
        "isVefa": false
      }
    ]
  },
  "f7fad418b91a": {
    "id": "f7fad418b91a",
    "label": "1 ALL DES PIVOINES, Marcq-en-Barœul",
    "lat": 50.679807,
    "lng": 3.091185,
    "transactions": [
      {
        "date": "2023-06-12",
        "priceEur": 414000,
        "typeLocal": "Maison",
        "surfaceM2": 89,
        "isVefa": false
      }
    ]
  },
  "8dd9b121e810": {
    "id": "8dd9b121e810",
    "label": "41 RUE DU DOCTEUR DUCROQUET, Marcq-en-Barœul",
    "lat": 50.678521,
    "lng": 3.090313,
    "transactions": [
      {
        "date": "2024-07-31",
        "priceEur": 528700,
        "typeLocal": "Maison",
        "surfaceM2": 105,
        "isVefa": false
      },
      {
        "date": "2023-09-08",
        "priceEur": 250000,
        "typeLocal": "Maison",
        "surfaceM2": 105,
        "isVefa": false
      }
    ]
  },
  "14838e31af82": {
    "id": "14838e31af82",
    "label": "10 RUE D ORCHIES, Marcq-en-Barœul",
    "lat": 50.677222,
    "lng": 3.092949,
    "transactions": [
      {
        "date": "2023-09-15",
        "priceEur": 185000,
        "typeLocal": "Appartement",
        "surfaceM2": 75,
        "isVefa": false
      }
    ]
  },
  "bd2c2cf4eb47": {
    "id": "bd2c2cf4eb47",
    "label": "97 RUE ALBERT BAILLY, Marcq-en-Barœul",
    "lat": 50.679539,
    "lng": 3.093625,
    "transactions": [
      {
        "date": "2025-01-31",
        "priceEur": 735000,
        "typeLocal": "Maison",
        "surfaceM2": 99,
        "isVefa": false
      },
      {
        "date": "2023-09-29",
        "priceEur": 391000,
        "typeLocal": "Maison",
        "surfaceM2": 99,
        "isVefa": false
      }
    ]
  },
  "801742aa4d2c": {
    "id": "801742aa4d2c",
    "label": "77 RUE ALBERT BAILLY, Marcq-en-Barœul",
    "lat": 50.678988,
    "lng": 3.092956,
    "transactions": [
      {
        "date": "2023-10-06",
        "priceEur": 260000,
        "typeLocal": "Maison",
        "surfaceM2": 51,
        "isVefa": false
      }
    ]
  },
  "630c553257bc": {
    "id": "630c553257bc",
    "label": "52 RUE ALBERT BAILLY, Marcq-en-Barœul",
    "lat": 50.678495,
    "lng": 3.092893,
    "transactions": [
      {
        "date": "2024-01-11",
        "priceEur": 378500,
        "typeLocal": "Maison",
        "surfaceM2": 120,
        "isVefa": false
      },
      {
        "date": "2023-09-18",
        "priceEur": 235000,
        "typeLocal": "Maison",
        "surfaceM2": 120,
        "isVefa": false
      }
    ]
  },
  "9dd4a3803a96": {
    "id": "9dd4a3803a96",
    "label": "27 RUE JEAN RACINE, Marcq-en-Barœul",
    "lat": 50.67642,
    "lng": 3.094664,
    "transactions": [
      {
        "date": "2023-10-13",
        "priceEur": 860000,
        "typeLocal": "Maison",
        "surfaceM2": 137,
        "isVefa": false
      }
    ]
  },
  "b6af871a5cb1": {
    "id": "b6af871a5cb1",
    "label": "20 RUE CHUFFART, Marcq-en-Barœul",
    "lat": 50.675442,
    "lng": 3.090132,
    "transactions": [
      {
        "date": "2023-11-13",
        "priceEur": 472900,
        "typeLocal": "Maison",
        "surfaceM2": 105,
        "isVefa": false
      }
    ]
  },
  "6bd0a52c2f4d": {
    "id": "6bd0a52c2f4d",
    "label": "16 RUE DES AUBEPINES, Marcq-en-Barœul",
    "lat": 50.679819,
    "lng": 3.089476,
    "transactions": [
      {
        "date": "2023-11-08",
        "priceEur": 275000,
        "typeLocal": "Maison",
        "surfaceM2": 89,
        "isVefa": false
      }
    ]
  },
  "c6e0ecce5902": {
    "id": "c6e0ecce5902",
    "label": "3 ALL DES CHENES, Marcq-en-Barœul",
    "lat": 50.680604,
    "lng": 3.096369,
    "transactions": [
      {
        "date": "2023-12-11",
        "priceEur": 622500,
        "typeLocal": "Maison",
        "surfaceM2": 106,
        "isVefa": false
      }
    ]
  },
  "3e940be3e164": {
    "id": "3e940be3e164",
    "label": "22 RUE MAURICE GENEVOIX, Marcq-en-Barœul",
    "lat": 50.678477,
    "lng": 3.095589,
    "transactions": [
      {
        "date": "2023-12-22",
        "priceEur": 445000,
        "typeLocal": "Maison",
        "surfaceM2": 90,
        "isVefa": false
      }
    ]
  },
  "8ebf18b493c3": {
    "id": "8ebf18b493c3",
    "label": "5 ALL DES CHENES, Marcq-en-Barœul",
    "lat": 50.680775,
    "lng": 3.096234,
    "transactions": [
      {
        "date": "2024-03-07",
        "priceEur": 454800,
        "typeLocal": "Maison",
        "surfaceM2": 105,
        "isVefa": false
      }
    ]
  },
  "62ae703e8bef": {
    "id": "62ae703e8bef",
    "label": "3 RUE DU LAZARO, Marcq-en-Barœul",
    "lat": 50.676241,
    "lng": 3.089398,
    "transactions": [
      {
        "date": "2024-02-23",
        "priceEur": 380000,
        "typeLocal": "Maison",
        "surfaceM2": 111,
        "isVefa": false
      }
    ]
  },
  "1c3f595292f2": {
    "id": "1c3f595292f2",
    "label": "8 RUE BOILEAU, Marcq-en-Barœul",
    "lat": 50.677469,
    "lng": 3.095848,
    "transactions": [
      {
        "date": "2024-03-12",
        "priceEur": 698000,
        "typeLocal": "Maison",
        "surfaceM2": 150,
        "isVefa": false
      }
    ]
  },
  "f9997080e4e9": {
    "id": "f9997080e4e9",
    "label": "10 RUE JOEL BRAEMS, Marcq-en-Barœul",
    "lat": 50.677423,
    "lng": 3.089049,
    "transactions": [
      {
        "date": "2024-03-12",
        "priceEur": 110000,
        "typeLocal": "Maison",
        "surfaceM2": 62,
        "isVefa": false
      }
    ]
  },
  "f623b53a59bc": {
    "id": "f623b53a59bc",
    "label": "6 RUE PIERRE CORNEILLE, Marcq-en-Barœul",
    "lat": 50.675223,
    "lng": 3.097992,
    "transactions": [
      {
        "date": "2024-04-19",
        "priceEur": 459000,
        "typeLocal": "Maison",
        "surfaceM2": 87,
        "isVefa": false
      }
    ]
  },
  "a6188ed12184": {
    "id": "a6188ed12184",
    "label": "66 RUE JOEL BRAEMS, Marcq-en-Barœul",
    "lat": 50.678101,
    "lng": 3.090423,
    "transactions": [
      {
        "date": "2024-04-11",
        "priceEur": 216346,
        "typeLocal": "Maison",
        "surfaceM2": 51,
        "isVefa": false
      }
    ]
  },
  "f712e92a02f0": {
    "id": "f712e92a02f0",
    "label": "25 PL DU GENERAL DE GAULLE, Marcq-en-Barœul",
    "lat": 50.677037,
    "lng": 3.090765,
    "transactions": [
      {
        "date": "2024-06-14",
        "priceEur": 720000,
        "typeLocal": "Maison",
        "surfaceM2": 190,
        "isVefa": false
      }
    ]
  },
  "835ecb9b3d79": {
    "id": "835ecb9b3d79",
    "label": "85 RUE ALBERT BAILLY, Marcq-en-Barœul",
    "lat": 50.679168,
    "lng": 3.093091,
    "transactions": [
      {
        "date": "2024-06-11",
        "priceEur": 1040000,
        "typeLocal": "Maison",
        "surfaceM2": 171,
        "isVefa": false
      }
    ]
  },
  "63d27eaaaf21": {
    "id": "63d27eaaaf21",
    "label": "50 RUE ALBERT BAILLY, Marcq-en-Barœul",
    "lat": 50.678526,
    "lng": 3.09271,
    "transactions": [
      {
        "date": "2024-07-23",
        "priceEur": 75000,
        "typeLocal": "Maison",
        "surfaceM2": 80,
        "isVefa": false
      }
    ]
  },
  "edc9eedb6373": {
    "id": "edc9eedb6373",
    "label": "24 RUE ANDRE COISNE, Marcq-en-Barœul",
    "lat": 50.675306,
    "lng": 3.095674,
    "transactions": [
      {
        "date": "2024-07-18",
        "priceEur": 525000,
        "typeLocal": "Maison",
        "surfaceM2": 105,
        "isVefa": false
      }
    ]
  },
  "1910408ea038": {
    "id": "1910408ea038",
    "label": "49 RUE GABRIEL PERI, Marcq-en-Barœul",
    "lat": 50.674839,
    "lng": 3.087716,
    "transactions": [
      {
        "date": "2024-08-01",
        "priceEur": 145000,
        "typeLocal": "Maison",
        "surfaceM2": 81,
        "isVefa": false
      }
    ]
  },
  "f1cadd0519b7": {
    "id": "f1cadd0519b7",
    "label": "18 RUE JOEL BRAEMS, Marcq-en-Barœul",
    "lat": 50.677522,
    "lng": 3.089354,
    "transactions": [
      {
        "date": "2024-11-07",
        "priceEur": 185000,
        "typeLocal": "Maison",
        "surfaceM2": 54,
        "isVefa": false
      },
      {
        "date": "2024-08-14",
        "priceEur": 145500,
        "typeLocal": "Maison",
        "surfaceM2": 54,
        "isVefa": false
      }
    ]
  },
  "036ecba0cb01": {
    "id": "036ecba0cb01",
    "label": "8 RUE DES AUBEPINES, Marcq-en-Barœul",
    "lat": 50.679572,
    "lng": 3.089524,
    "transactions": [
      {
        "date": "2024-09-10",
        "priceEur": 303000,
        "typeLocal": "Maison",
        "surfaceM2": 89,
        "isVefa": false
      }
    ]
  },
  "027e54cdff1b": {
    "id": "027e54cdff1b",
    "label": "34 RUE ANDRE COISNE, Marcq-en-Barœul",
    "lat": 50.675584,
    "lng": 3.09527,
    "transactions": [
      {
        "date": "2024-09-20",
        "priceEur": 295000,
        "typeLocal": "Maison",
        "surfaceM2": 95,
        "isVefa": false
      }
    ]
  },
  "c61aaaf92d72": {
    "id": "c61aaaf92d72",
    "label": "55 RUE GABRIEL PERI, Marcq-en-Barœul",
    "lat": 50.674762,
    "lng": 3.087401,
    "transactions": [
      {
        "date": "2024-09-24",
        "priceEur": 460000,
        "typeLocal": "Maison",
        "surfaceM2": 159,
        "isVefa": false
      }
    ]
  },
  "c51d592930ae": {
    "id": "c51d592930ae",
    "label": "37 RUE JULES WATTEUW, Marcq-en-Barœul",
    "lat": 50.676681,
    "lng": 3.098005,
    "transactions": [
      {
        "date": "2024-10-31",
        "priceEur": 690000,
        "typeLocal": "Maison",
        "surfaceM2": 129,
        "isVefa": false
      }
    ]
  },
  "73aa27e84a16": {
    "id": "73aa27e84a16",
    "label": "19 RUE MAURICE GENEVOIX, Marcq-en-Barœul",
    "lat": 50.6787,
    "lng": 3.094929,
    "transactions": [
      {
        "date": "2024-12-06",
        "priceEur": 405000,
        "typeLocal": "Maison",
        "surfaceM2": 96,
        "isVefa": false
      }
    ]
  },
  "7807214cb022": {
    "id": "7807214cb022",
    "label": "71B RUE ALBERT BAILLY, Marcq-en-Barœul",
    "lat": 50.679057,
    "lng": 3.092371,
    "transactions": [
      {
        "date": "2024-12-23",
        "priceEur": 680000,
        "typeLocal": "Maison",
        "surfaceM2": 178,
        "isVefa": false
      }
    ]
  },
  "b3ba2c3f6db5": {
    "id": "b3ba2c3f6db5",
    "label": "31 RUE ANDRE COISNE, Marcq-en-Barœul",
    "lat": 50.675369,
    "lng": 3.094734,
    "transactions": [
      {
        "date": "2024-12-17",
        "priceEur": 810000,
        "typeLocal": "Maison",
        "surfaceM2": 130,
        "isVefa": false
      }
    ]
  },
  "c88115a2bced": {
    "id": "c88115a2bced",
    "label": "7 RUE FENELON, Marcq-en-Barœul",
    "lat": 50.678647,
    "lng": 3.091589,
    "transactions": [
      {
        "date": "2024-12-11",
        "priceEur": 486200,
        "typeLocal": "Maison",
        "surfaceM2": 128,
        "isVefa": false
      }
    ]
  },
  "0941f39ade9c": {
    "id": "0941f39ade9c",
    "label": "71 RUE ALBERT BAILLY, Marcq-en-Barœul",
    "lat": 50.67891,
    "lng": 3.092571,
    "transactions": [
      {
        "date": "2025-01-31",
        "priceEur": 410648,
        "typeLocal": "Maison",
        "surfaceM2": 124,
        "isVefa": false
      }
    ]
  },
  "87371f48e61a": {
    "id": "87371f48e61a",
    "label": "23 RUE ANDRE COISNE, Marcq-en-Barœul",
    "lat": 50.675082,
    "lng": 3.095001,
    "transactions": [
      {
        "date": "2025-03-05",
        "priceEur": 369000,
        "typeLocal": "Maison",
        "surfaceM2": 114,
        "isVefa": false
      }
    ]
  },
  "14b9046cefec": {
    "id": "14b9046cefec",
    "label": "11 ALL DES TAMARIS, Marcq-en-Barœul",
    "lat": 50.680162,
    "lng": 3.090824,
    "transactions": [
      {
        "date": "2025-03-10",
        "priceEur": 416400,
        "typeLocal": "Maison",
        "surfaceM2": 109,
        "isVefa": false
      }
    ]
  },
  "cfe573b39719": {
    "id": "cfe573b39719",
    "label": "49 RUE DU DOCTEUR DUCROQUET, Marcq-en-Barœul",
    "lat": 50.678681,
    "lng": 3.090196,
    "transactions": [
      {
        "date": "2025-03-26",
        "priceEur": 262000,
        "typeLocal": "Maison",
        "surfaceM2": 83,
        "isVefa": false
      }
    ]
  },
  "a0d30e5437fa": {
    "id": "a0d30e5437fa",
    "label": "25 RUE ANDRE COISNE, Marcq-en-Barœul",
    "lat": 50.675163,
    "lng": 3.094943,
    "transactions": [
      {
        "date": "2025-04-02",
        "priceEur": 730000,
        "typeLocal": "Maison",
        "surfaceM2": 153,
        "isVefa": false
      }
    ]
  },
  "fc24e7a214c6": {
    "id": "fc24e7a214c6",
    "label": "122 AV DU MARECHAL FOCH, Marcq-en-Barœul",
    "lat": 50.676283,
    "lng": 3.09239,
    "transactions": [
      {
        "date": "2025-03-28",
        "priceEur": 351975,
        "typeLocal": "Appartement",
        "surfaceM2": 86,
        "isVefa": false
      }
    ]
  },
  "ad7864873a3d": {
    "id": "ad7864873a3d",
    "label": "32 RUE DE LA CENSE A L' EAU, Marcq-en-Barœul",
    "lat": 50.676221,
    "lng": 3.096322,
    "transactions": [
      {
        "date": "2025-04-04",
        "priceEur": 335000,
        "typeLocal": "Maison",
        "surfaceM2": 52,
        "isVefa": false
      }
    ]
  },
  "71d8a6bd8422": {
    "id": "71d8a6bd8422",
    "label": "23 RUE DES AUBEPINES, Marcq-en-Barœul",
    "lat": 50.679524,
    "lng": 3.08891,
    "transactions": [
      {
        "date": "2025-04-15",
        "priceEur": 283000,
        "typeLocal": "Maison",
        "surfaceM2": 92,
        "isVefa": false
      }
    ]
  },
  "f26fad4084f0": {
    "id": "f26fad4084f0",
    "label": "44 RUE RAYMOND DERAIN, Marcq-en-Barœul",
    "lat": 50.674944,
    "lng": 3.090843,
    "transactions": [
      {
        "date": "2025-04-28",
        "priceEur": 205000,
        "typeLocal": "Maison",
        "surfaceM2": 86,
        "isVefa": false
      }
    ]
  },
  "a7be96a7d0a9": {
    "id": "a7be96a7d0a9",
    "label": "2 RUE FENELON, Marcq-en-Barœul",
    "lat": 50.678647,
    "lng": 3.091589,
    "transactions": [
      {
        "date": "2025-04-29",
        "priceEur": 159000,
        "typeLocal": "Appartement",
        "surfaceM2": 55,
        "isVefa": false
      }
    ]
  },
  "31ac47f25cf7": {
    "id": "31ac47f25cf7",
    "label": "32 RUE JEAN RACINE, Marcq-en-Barœul",
    "lat": 50.677338,
    "lng": 3.097063,
    "transactions": [
      {
        "date": "2025-05-22",
        "priceEur": 815000,
        "typeLocal": "Maison",
        "surfaceM2": 170,
        "isVefa": false
      }
    ]
  },
  "82bb3bc52d2d": {
    "id": "82bb3bc52d2d",
    "label": "21 RUE MAURICE GENEVOIX, Marcq-en-Barœul",
    "lat": 50.678706,
    "lng": 3.095009,
    "transactions": [
      {
        "date": "2025-05-26",
        "priceEur": 330000,
        "typeLocal": "Maison",
        "surfaceM2": 78,
        "isVefa": false
      }
    ]
  },
  "8de8bee030ef": {
    "id": "8de8bee030ef",
    "label": "22 RUE ANDRE COISNE, Marcq-en-Barœul",
    "lat": 50.67524,
    "lng": 3.095713,
    "transactions": [
      {
        "date": "2025-06-26",
        "priceEur": 279000,
        "typeLocal": "Maison",
        "surfaceM2": 60,
        "isVefa": false
      }
    ]
  }
}