{
  "118c58074a75": {
    "id": "118c58074a75",
    "label": "87 RUE DU PETIT ENNETIERES, Avelin",
    "lat": 50.557101,
    "lng": 3.092499,
    "transactions": [
      {
        "date": "2020-09-08",
        "priceEur": 292000,
        "typeLocal": "Maison",
        "surfaceM2": 112,
        "isVefa": false
      }
    ]
  },
  "3980a5cf46cf": {
    "id": "3980a5cf46cf",
    "label": "87B RUE DU PETIT ENNETIERES, Avelin",
    "lat": 50.557022,
    "lng": 3.092351,
    "transactions": [
      {
        "date": "2021-01-14",
        "priceEur": 277255,
        "typeLocal": "Maison",
        "surfaceM2": 111,
        "isVefa": false
      }
    ]
  },
  "d6187897e320": {
    "id": "d6187897e320",
    "label": "41B RUE ROILLE, Avelin",
    "lat": 50.556417,
    "lng": 3.092702,
    "transactions": [
      {
        "date": "2021-11-18",
        "priceEur": 436000,
        "typeLocal": "Maison",
        "surfaceM2": 220,
        "isVefa": false
      }
    ]
  },
  "66c2cb3a711e": {
    "id": "66c2cb3a711e",
    "label": "89 RUE DU PETIT ENNETIERES, Avelin",
    "lat": 50.557327,
    "lng": 3.09183,
    "transactions": [
      {
        "date": "2022-10-27",
        "priceEur": 532000,
        "typeLocal": "Maison",
        "surfaceM2": 168,
        "isVefa": false
      }
    ]
  },
  "1b41e4c51823": {
    "id": "1b41e4c51823",
    "label": "66 RUE DU PETIT ENNETIERES, Avelin",
    "lat": 50.556805,
    "lng": 3.093549,
    "transactions": [
      {
        "date": "2023-03-03",
        "priceEur": 410000,
        "typeLocal": "Maison",
        "surfaceM2": 148,
        "isVefa": false
      }
    ]
  },
  "bf2d2b8b5266": {
    "id": "bf2d2b8b5266",
    "label": "87F RUE DU PETIT ENNETIERES, Avelin",
    "lat": 50.557248,
    "lng": 3.09223,
    "transactions": [
      {
        "date": "2023-10-19",
        "priceEur": 235000,
        "typeLocal": "Maison",
        "surfaceM2": 80,
        "isVefa": false
      }
    ]
  },
  "0d330267dd9a": {
    "id": "0d330267dd9a",
    "label": "87E RUE DU PETIT ENNETIERES, Avelin",
    "lat": 50.557177,
    "lng": 3.092067,
    "transactions": [
      {
        "date": "2023-12-04",
        "priceEur": 250000,
        "typeLocal": "Maison",
        "surfaceM2": 81,
        "isVefa": false
      }
    ]
  }
}