{
  "97c3e2df4184": {
    "id": "97c3e2df4184",
    "label": "11 AV GEORGES CLEMENCEAU, Saint-Jean-de-Védas",
    "lat": 43.578316,
    "lng": 3.825561,
    "transactions": [
      {
        "date": "2020-07-01",
        "priceEur": 337770,
        "typeLocal": "Maison",
        "surfaceM2": 68,
        "isVefa": false
      }
    ]
  },
  "b6d64780df79": {
    "id": "b6d64780df79",
    "label": "1 RUE DES PEUPLIERS, Saint-Jean-de-Védas",
    "lat": 43.574885,
    "lng": 3.824995,
    "transactions": [
      {
        "date": "2020-07-10",
        "priceEur": 335000,
        "typeLocal": "Maison",
        "surfaceM2": 77,
        "isVefa": false
      }
    ]
  },
  "26fa80e2de1c": {
    "id": "26fa80e2de1c",
    "label": "131 PL PIERRE MASSET, Saint-Jean-de-Védas",
    "lat": 43.575258,
    "lng": 3.83324,
    "transactions": [
      {
        "date": "2024-03-19",
        "priceEur": 305300,
        "typeLocal": "Maison",
        "surfaceM2": 82,
        "isVefa": false
      },
      {
        "date": "2021-11-15",
        "priceEur": 255000,
        "typeLocal": "Maison",
        "surfaceM2": 72,
        "isVefa": false
      },
      {
        "date": "2021-04-16",
        "priceEur": 183150,
        "typeLocal": "Maison",
        "surfaceM2": 82,
        "isVefa": true
      },
      {
        "date": "2020-12-16",
        "priceEur": 123750,
        "typeLocal": "Appartement",
        "surfaceM2": 46,
        "isVefa": true
      },
      {
        "date": "2020-12-04",
        "priceEur": 158400,
        "typeLocal": "Appartement",
        "surfaceM2": 70,
        "isVefa": true
      },
      {
        "date": "2020-09-09",
        "priceEur": 168300,
        "typeLocal": "Maison",
        "surfaceM2": 69,
        "isVefa": true
      },
      {
        "date": "2020-07-20",
        "priceEur": 183150,
        "typeLocal": "Maison",
        "surfaceM2": 82,
        "isVefa": true
      },
      {
        "date": "2020-07-20",
        "priceEur": 168300,
        "typeLocal": "Maison",
        "surfaceM2": 69,
        "isVefa": true
      }
    ]
  },
  "7d4c8c4a1027": {
    "id": "7d4c8c4a1027",
    "label": "15 RUE DE LA TREILLE, Saint-Jean-de-Védas",
    "lat": 43.578017,
    "lng": 3.825621,
    "transactions": [
      {
        "date": "2024-10-25",
        "priceEur": 265000,
        "typeLocal": "Maison",
        "surfaceM2": 80,
        "isVefa": false
      },
      {
        "date": "2020-07-10",
        "priceEur": 135000,
        "typeLocal": "Maison",
        "surfaceM2": 80,
        "isVefa": false
      }
    ]
  },
  "31fc1704c1ac": {
    "id": "31fc1704c1ac",
    "label": "25 RUE GUY PIGOULLIE, Saint-Jean-de-Védas",
    "lat": 43.575882,
    "lng": 3.828125,
    "transactions": [
      {
        "date": "2024-09-16",
        "priceEur": 253340,
        "typeLocal": "Appartement",
        "surfaceM2": 66,
        "isVefa": false
      },
      {
        "date": "2023-07-05",
        "priceEur": 274300,
        "typeLocal": "Appartement",
        "surfaceM2": 70,
        "isVefa": false
      },
      {
        "date": "2020-07-23",
        "priceEur": 279000,
        "typeLocal": "Appartement",
        "surfaceM2": 82,
        "isVefa": true
      }
    ]
  },
  "ca5baca28472": {
    "id": "ca5baca28472",
    "label": "4 RUE DES ECOLES, Saint-Jean-de-Védas",
    "lat": 43.575977,
    "lng": 3.827864,
    "transactions": [
      {
        "date": "2020-07-31",
        "priceEur": 320000,
        "typeLocal": "Maison",
        "surfaceM2": 80,
        "isVefa": false
      }
    ]
  },
  "bec03748ae61": {
    "id": "bec03748ae61",
    "label": "129 CHE DE LA ROQUE, Saint-Jean-de-Védas",
    "lat": 43.573224,
    "lng": 3.831382,
    "transactions": [
      {
        "date": "2025-03-05",
        "priceEur": 195950,
        "typeLocal": "Appartement",
        "surfaceM2": 42,
        "isVefa": false
      },
      {
        "date": "2024-11-06",
        "priceEur": 98900,
        "typeLocal": "Appartement",
        "surfaceM2": 25,
        "isVefa": false
      },
      {
        "date": "2024-06-07",
        "priceEur": 228000,
        "typeLocal": "Appartement",
        "surfaceM2": 49,
        "isVefa": false
      },
      {
        "date": "2023-07-07",
        "priceEur": 353600,
        "typeLocal": "Appartement",
        "surfaceM2": 87,
        "isVefa": false
      },
      {
        "date": "2023-05-30",
        "priceEur": 243500,
        "typeLocal": "Appartement",
        "surfaceM2": 68,
        "isVefa": false
      },
      {
        "date": "2023-02-08",
        "priceEur": 205200,
        "typeLocal": "Appartement",
        "surfaceM2": 43,
        "isVefa": false
      },
      {
        "date": "2022-10-25",
        "priceEur": 290150,
        "typeLocal": "Appartement",
        "surfaceM2": 69,
        "isVefa": false
      },
      {
        "date": "2022-05-30",
        "priceEur": 276900,
        "typeLocal": "Appartement",
        "surfaceM2": 68,
        "isVefa": false
      },
      {
        "date": "2022-05-30",
        "priceEur": 315000,
        "typeLocal": "Appartement",
        "surfaceM2": 77,
        "isVefa": false
      },
      {
        "date": "2022-03-31",
        "priceEur": 236000,
        "typeLocal": "Appartement",
        "surfaceM2": 64,
        "isVefa": false
      },
      {
        "date": "2022-03-25",
        "priceEur": 245500,
        "typeLocal": "Appartement",
        "surfaceM2": 67,
        "isVefa": false
      },
      {
        "date": "2021-11-30",
        "priceEur": 245000,
        "typeLocal": "Appartement",
        "surfaceM2": 68,
        "isVefa": false
      },
      {
        "date": "2021-11-12",
        "priceEur": 229800,
        "typeLocal": "Appartement",
        "surfaceM2": 65,
        "isVefa": false
      },
      {
        "date": "2021-10-08",
        "priceEur": 364800,
        "typeLocal": "Appartement",
        "surfaceM2": 87,
        "isVefa": false
      },
      {
        "date": "2021-06-18",
        "priceEur": 290100,
        "typeLocal": "Appartement",
        "surfaceM2": 87,
        "isVefa": false
      },
      {
        "date": "2021-06-18",
        "priceEur": 290100,
        "typeLocal": "Appartement",
        "surfaceM2": 43,
        "isVefa": false
      },
      {
        "date": "2021-03-24",
        "priceEur": 340000,
        "typeLocal": "Appartement",
        "surfaceM2": 77,
        "isVefa": false
      },
      {
        "date": "2020-08-24",
        "priceEur": 171000,
        "typeLocal": "Appartement",
        "surfaceM2": 43,
        "isVefa": false
      }
    ]
  },
  "5c08cc721348": {
    "id": "5c08cc721348",
    "label": "3 RUE DES PEUPLIERS, Saint-Jean-de-Védas",
    "lat": 43.574885,
    "lng": 3.824995,
    "transactions": [
      {
        "date": "2020-08-17",
        "priceEur": 312800,
        "typeLocal": "Maison",
        "surfaceM2": 80,
        "isVefa": false
      }
    ]
  },
  "be131a117fbb": {
    "id": "be131a117fbb",
    "label": "1 RUE PASTEUR, Saint-Jean-de-Védas",
    "lat": 43.576537,
    "lng": 3.826914,
    "transactions": [
      {
        "date": "2020-08-18",
        "priceEur": 90000,
        "typeLocal": "Appartement",
        "surfaceM2": 47,
        "isVefa": false
      },
      {
        "date": "2020-08-18",
        "priceEur": 90000,
        "typeLocal": "Appartement",
        "surfaceM2": 69,
        "isVefa": false
      }
    ]
  },
  "e710f04d4b5c": {
    "id": "e710f04d4b5c",
    "label": "143 RUE DU PICPOUL, Saint-Jean-de-Védas",
    "lat": 43.574515,
    "lng": 3.830107,
    "transactions": [
      {
        "date": "2024-04-25",
        "priceEur": 220000,
        "typeLocal": "Appartement",
        "surfaceM2": 63,
        "isVefa": false
      },
      {
        "date": "2024-04-04",
        "priceEur": 321770,
        "typeLocal": "Appartement",
        "surfaceM2": 72,
        "isVefa": false
      },
      {
        "date": "2022-12-20",
        "priceEur": 317500,
        "typeLocal": "Appartement",
        "surfaceM2": 72,
        "isVefa": false
      },
      {
        "date": "2022-11-16",
        "priceEur": 255000,
        "typeLocal": "Appartement",
        "surfaceM2": 64,
        "isVefa": false
      },
      {
        "date": "2022-10-18",
        "priceEur": 237700,
        "typeLocal": "Appartement",
        "surfaceM2": 61,
        "isVefa": false
      },
      {
        "date": "2022-08-31",
        "priceEur": 264186,
        "typeLocal": "Appartement",
        "surfaceM2": 74,
        "isVefa": false
      },
      {
        "date": "2021-09-24",
        "priceEur": 249930,
        "typeLocal": "Appartement",
        "surfaceM2": 62,
        "isVefa": false
      },
      {
        "date": "2021-06-15",
        "priceEur": 242000,
        "typeLocal": "Appartement",
        "surfaceM2": 60,
        "isVefa": false
      },
      {
        "date": "2020-08-26",
        "priceEur": 152000,
        "typeLocal": "Appartement",
        "surfaceM2": 49,
        "isVefa": false
      }
    ]
  },
  "5ad51a680dd4": {
    "id": "5ad51a680dd4",
    "label": "49 PL PIERRE MASSET, Saint-Jean-de-Védas",
    "lat": 43.574767,
    "lng": 3.83347,
    "transactions": [
      {
        "date": "2022-06-20",
        "priceEur": 202500,
        "typeLocal": "Appartement",
        "surfaceM2": 49,
        "isVefa": false
      },
      {
        "date": "2020-09-03",
        "priceEur": 373500,
        "typeLocal": "Appartement",
        "surfaceM2": 109,
        "isVefa": false
      }
    ]
  },
  "495555317982": {
    "id": "495555317982",
    "label": "53 ESP DE L ORTET, Saint-Jean-de-Védas",
    "lat": 43.576431,
    "lng": 3.830296,
    "transactions": [
      {
        "date": "2020-08-27",
        "priceEur": 147000,
        "typeLocal": "Appartement",
        "surfaceM2": 30,
        "isVefa": false
      }
    ]
  },
  "b3473636ddc5": {
    "id": "b3473636ddc5",
    "label": "16 RUE DES CATALPAS, Saint-Jean-de-Védas",
    "lat": 43.574885,
    "lng": 3.824995,
    "transactions": [
      {
        "date": "2020-08-20",
        "priceEur": 258300,
        "typeLocal": "Maison",
        "surfaceM2": 80,
        "isVefa": false
      }
    ]
  },
  "99fc24114634": {
    "id": "99fc24114634",
    "label": "4B RTE DE LATTES, Saint-Jean-de-Védas",
    "lat": 43.576055,
    "lng": 3.833662,
    "transactions": [
      {
        "date": "2025-03-26",
        "priceEur": 488915,
        "typeLocal": "Maison",
        "surfaceM2": 130,
        "isVefa": false
      },
      {
        "date": "2023-01-04",
        "priceEur": 553400,
        "typeLocal": "Maison",
        "surfaceM2": 130,
        "isVefa": false
      },
      {
        "date": "2020-08-31",
        "priceEur": 450000,
        "typeLocal": "Maison",
        "surfaceM2": 100,
        "isVefa": false
      }
    ]
  },
  "21941ae408a2": {
    "id": "21941ae408a2",
    "label": "34 RUE EMMA BLANC, Saint-Jean-de-Védas",
    "lat": 43.574501,
    "lng": 3.832461,
    "transactions": [
      {
        "date": "2021-07-09",
        "priceEur": 199500,
        "typeLocal": "Appartement",
        "surfaceM2": 44,
        "isVefa": false
      },
      {
        "date": "2021-06-25",
        "priceEur": 275100,
        "typeLocal": "Appartement",
        "surfaceM2": 72,
        "isVefa": false
      },
      {
        "date": "2021-02-26",
        "priceEur": 320000,
        "typeLocal": "Appartement",
        "surfaceM2": 72,
        "isVefa": false
      },
      {
        "date": "2020-09-11",
        "priceEur": 320000,
        "typeLocal": "Appartement",
        "surfaceM2": 72,
        "isVefa": true
      }
    ]
  },
  "7e9d3f4340af": {
    "id": "7e9d3f4340af",
    "label": "9 RUE DU PETIT PRADET, Saint-Jean-de-Védas",
    "lat": 43.576132,
    "lng": 3.825459,
    "transactions": [
      {
        "date": "2023-02-20",
        "priceEur": 394870,
        "typeLocal": "Maison",
        "surfaceM2": 85,
        "isVefa": false
      },
      {
        "date": "2021-11-15",
        "priceEur": 204910,
        "typeLocal": "Appartement",
        "surfaceM2": 72,
        "isVefa": false
      },
      {
        "date": "2020-09-11",
        "priceEur": 186800,
        "typeLocal": "Appartement",
        "surfaceM2": 80,
        "isVefa": false
      }
    ]
  },
  "aab1de23cdea": {
    "id": "aab1de23cdea",
    "label": "8 RUE DES JONQUILLES, Saint-Jean-de-Védas",
    "lat": 43.572871,
    "lng": 3.828402,
    "transactions": [
      {
        "date": "2020-09-01",
        "priceEur": 386170,
        "typeLocal": "Maison",
        "surfaceM2": 113,
        "isVefa": false
      }
    ]
  },
  "a92eb443e1e6": {
    "id": "a92eb443e1e6",
    "label": "15 PAS DES ANGROLAS, Saint-Jean-de-Védas",
    "lat": 43.574921,
    "lng": 3.82948,
    "transactions": [
      {
        "date": "2023-06-02",
        "priceEur": 254000,
        "typeLocal": "Appartement",
        "surfaceM2": 66,
        "isVefa": false
      },
      {
        "date": "2022-09-13",
        "priceEur": 202110,
        "typeLocal": "Appartement",
        "surfaceM2": 56,
        "isVefa": false
      },
      {
        "date": "2022-07-22",
        "priceEur": 272000,
        "typeLocal": "Appartement",
        "surfaceM2": 73,
        "isVefa": false
      },
      {
        "date": "2021-07-12",
        "priceEur": 250000,
        "typeLocal": "Appartement",
        "surfaceM2": 64,
        "isVefa": false
      },
      {
        "date": "2021-04-16",
        "priceEur": 248750,
        "typeLocal": "Appartement",
        "surfaceM2": 64,
        "isVefa": false
      },
      {
        "date": "2020-10-16",
        "priceEur": 183000,
        "typeLocal": "Appartement",
        "surfaceM2": 47,
        "isVefa": false
      },
      {
        "date": "2020-09-24",
        "priceEur": 251012,
        "typeLocal": "Maison",
        "surfaceM2": 75,
        "isVefa": false
      }
    ]
  },
  "1f7e9957ec79": {
    "id": "1f7e9957ec79",
    "label": "68 RUE EMMA BLANC, Saint-Jean-de-Védas",
    "lat": 43.574501,
    "lng": 3.832461,
    "transactions": [
      {
        "date": "2023-10-02",
        "priceEur": 243500,
        "typeLocal": "Appartement",
        "surfaceM2": 56,
        "isVefa": false
      },
      {
        "date": "2022-03-28",
        "priceEur": 223800,
        "typeLocal": "Appartement",
        "surfaceM2": 49,
        "isVefa": false
      },
      {
        "date": "2022-03-21",
        "priceEur": 221000,
        "typeLocal": "Appartement",
        "surfaceM2": 61,
        "isVefa": false
      },
      {
        "date": "2022-01-21",
        "priceEur": 247400,
        "typeLocal": "Appartement",
        "surfaceM2": 56,
        "isVefa": false
      },
      {
        "date": "2021-02-02",
        "priceEur": 221480,
        "typeLocal": "Appartement",
        "surfaceM2": 70,
        "isVefa": false
      },
      {
        "date": "2020-10-02",
        "priceEur": 214000,
        "typeLocal": "Appartement",
        "surfaceM2": 60,
        "isVefa": false
      }
    ]
  },
  "0d4b9e85a881": {
    "id": "0d4b9e85a881",
    "label": "152 ESP DE L ORTET, Saint-Jean-de-Védas",
    "lat": 43.577334,
    "lng": 3.830186,
    "transactions": [
      {
        "date": "2024-01-23",
        "priceEur": 210000,
        "typeLocal": "Appartement",
        "surfaceM2": 51,
        "isVefa": false
      },
      {
        "date": "2020-12-10",
        "priceEur": 155750,
        "typeLocal": "Appartement",
        "surfaceM2": 39,
        "isVefa": false
      },
      {
        "date": "2020-10-16",
        "priceEur": 166500,
        "typeLocal": "Appartement",
        "surfaceM2": 50,
        "isVefa": false
      }
    ]
  },
  "e044fd84dce6": {
    "id": "e044fd84dce6",
    "label": "12 RUE YVES MONTAND, Saint-Jean-de-Védas",
    "lat": 43.576937,
    "lng": 3.831533,
    "transactions": [
      {
        "date": "2020-10-30",
        "priceEur": 305000,
        "typeLocal": "Maison",
        "surfaceM2": 96,
        "isVefa": false
      }
    ]
  },
  "a6c7bef05274": {
    "id": "a6c7bef05274",
    "label": "21 GR GRAND RUE, Saint-Jean-de-Védas",
    "lat": 43.577498,
    "lng": 3.825383,
    "transactions": [
      {
        "date": "2022-10-10",
        "priceEur": 147000,
        "typeLocal": "Appartement",
        "surfaceM2": 54,
        "isVefa": false
      },
      {
        "date": "2021-10-15",
        "priceEur": 145500,
        "typeLocal": "Maison",
        "surfaceM2": 60,
        "isVefa": false
      },
      {
        "date": "2020-10-30",
        "priceEur": 118000,
        "typeLocal": "Appartement",
        "surfaceM2": 54,
        "isVefa": false
      }
    ]
  },
  "dbb603cc7027": {
    "id": "dbb603cc7027",
    "label": "4 IMP DES MELIAS, Saint-Jean-de-Védas",
    "lat": 43.574885,
    "lng": 3.824995,
    "transactions": [
      {
        "date": "2020-11-17",
        "priceEur": 280000,
        "typeLocal": "Maison",
        "surfaceM2": 80,
        "isVefa": false
      }
    ]
  },
  "7294da7b20b6": {
    "id": "7294da7b20b6",
    "label": "7 RUE DES CATALPAS, Saint-Jean-de-Védas",
    "lat": 43.574885,
    "lng": 3.824995,
    "transactions": [
      {
        "date": "2020-11-06",
        "priceEur": 320500,
        "typeLocal": "Maison",
        "surfaceM2": 80,
        "isVefa": false
      }
    ]
  },
  "ca0ee6b689ee": {
    "id": "ca0ee6b689ee",
    "label": "22 RUE DES PEUPLIERS, Saint-Jean-de-Védas",
    "lat": 43.574885,
    "lng": 3.824995,
    "transactions": [
      {
        "date": "2020-11-12",
        "priceEur": 327400,
        "typeLocal": "Maison",
        "surfaceM2": 77,
        "isVefa": false
      }
    ]
  },
  "2ec663e5d55d": {
    "id": "2ec663e5d55d",
    "label": "23 RUE LOU PLANAS, Saint-Jean-de-Védas",
    "lat": 43.579103,
    "lng": 3.83091,
    "transactions": [
      {
        "date": "2020-12-01",
        "priceEur": 294850,
        "typeLocal": "Maison",
        "surfaceM2": 94,
        "isVefa": false
      }
    ]
  },
  "b41d3425ef7b": {
    "id": "b41d3425ef7b",
    "label": "75 RUE OMBRAS MARIUS, Saint-Jean-de-Védas",
    "lat": 43.572763,
    "lng": 3.833266,
    "transactions": [
      {
        "date": "2024-12-17",
        "priceEur": 171500,
        "typeLocal": "Appartement",
        "surfaceM2": 43,
        "isVefa": false
      },
      {
        "date": "2024-12-12",
        "priceEur": 158920,
        "typeLocal": "Appartement",
        "surfaceM2": 41,
        "isVefa": false
      },
      {
        "date": "2023-10-20",
        "priceEur": 155000,
        "typeLocal": "Appartement",
        "surfaceM2": 39,
        "isVefa": false
      },
      {
        "date": "2022-12-29",
        "priceEur": 165000,
        "typeLocal": "Appartement",
        "surfaceM2": 42,
        "isVefa": false
      },
      {
        "date": "2022-04-06",
        "priceEur": 135000,
        "typeLocal": "Appartement",
        "surfaceM2": 23,
        "isVefa": false
      },
      {
        "date": "2021-10-15",
        "priceEur": 225400,
        "typeLocal": "Appartement",
        "surfaceM2": 62,
        "isVefa": false
      },
      {
        "date": "2021-07-15",
        "priceEur": 162000,
        "typeLocal": "Appartement",
        "surfaceM2": 41,
        "isVefa": false
      },
      {
        "date": "2020-11-17",
        "priceEur": 198800,
        "typeLocal": "Appartement",
        "surfaceM2": 57,
        "isVefa": false
      }
    ]
  },
  "073475c5d3b2": {
    "id": "073475c5d3b2",
    "label": "56 ESP DE L ORTET, Saint-Jean-de-Védas",
    "lat": 43.57695,
    "lng": 3.831059,
    "transactions": [
      {
        "date": "2024-07-19",
        "priceEur": 245700,
        "typeLocal": "Appartement",
        "surfaceM2": 69,
        "isVefa": false
      },
      {
        "date": "2023-07-17",
        "priceEur": 210100,
        "typeLocal": "Appartement",
        "surfaceM2": 64,
        "isVefa": false
      },
      {
        "date": "2022-04-01",
        "priceEur": 150000,
        "typeLocal": "Appartement",
        "surfaceM2": 49,
        "isVefa": false
      },
      {
        "date": "2021-03-01",
        "priceEur": 143000,
        "typeLocal": "Appartement",
        "surfaceM2": 49,
        "isVefa": false
      },
      {
        "date": "2020-11-23",
        "priceEur": 155000,
        "typeLocal": "Appartement",
        "surfaceM2": 48,
        "isVefa": false
      }
    ]
  },
  "ddf7c8383c4f": {
    "id": "ddf7c8383c4f",
    "label": "80 RUE DU PICPOUL, Saint-Jean-de-Védas",
    "lat": 43.574158,
    "lng": 3.829564,
    "transactions": [
      {
        "date": "2020-11-24",
        "priceEur": 622000,
        "typeLocal": "Maison",
        "surfaceM2": 75,
        "isVefa": false
      }
    ]
  },
  "35d1dd2da021": {
    "id": "35d1dd2da021",
    "label": "32 CHE DE LA ROQUE, Saint-Jean-de-Védas",
    "lat": 43.574104,
    "lng": 3.830885,
    "transactions": [
      {
        "date": "2025-04-07",
        "priceEur": 220000,
        "typeLocal": "Appartement",
        "surfaceM2": 57,
        "isVefa": false
      },
      {
        "date": "2023-10-17",
        "priceEur": 344100,
        "typeLocal": "Appartement",
        "surfaceM2": 85,
        "isVefa": false
      },
      {
        "date": "2022-07-04",
        "priceEur": 258820,
        "typeLocal": "Appartement",
        "surfaceM2": 61,
        "isVefa": false
      },
      {
        "date": "2022-01-04",
        "priceEur": 267000,
        "typeLocal": "Appartement",
        "surfaceM2": 62,
        "isVefa": false
      },
      {
        "date": "2021-08-17",
        "priceEur": 230000,
        "typeLocal": "Appartement",
        "surfaceM2": 57,
        "isVefa": false
      },
      {
        "date": "2020-12-15",
        "priceEur": 242000,
        "typeLocal": "Appartement",
        "surfaceM2": 61,
        "isVefa": false
      },
      {
        "date": "2020-12-14",
        "priceEur": 255000,
        "typeLocal": "Appartement",
        "surfaceM2": 61,
        "isVefa": false
      }
    ]
  },
  "ec1b6060d03f": {
    "id": "ec1b6060d03f",
    "label": "6A AV DE LA LIBERATION, Saint-Jean-de-Védas",
    "lat": 43.577081,
    "lng": 3.826913,
    "transactions": [
      {
        "date": "2023-07-04",
        "priceEur": 282510,
        "typeLocal": "Maison",
        "surfaceM2": 51,
        "isVefa": false
      },
      {
        "date": "2020-12-15",
        "priceEur": 242000,
        "typeLocal": "Maison",
        "surfaceM2": 51,
        "isVefa": false
      }
    ]
  },
  "9d9c6a217b7e": {
    "id": "9d9c6a217b7e",
    "label": "8 RUE DU PETIT PARC, Saint-Jean-de-Védas",
    "lat": 43.575321,
    "lng": 3.82385,
    "transactions": [
      {
        "date": "2021-01-22",
        "priceEur": 180000,
        "typeLocal": "Maison",
        "surfaceM2": 70,
        "isVefa": false
      }
    ]
  },
  "c4fcb491e83a": {
    "id": "c4fcb491e83a",
    "label": "6 IMP DU PEYROU, Saint-Jean-de-Védas",
    "lat": 43.573662,
    "lng": 3.828569,
    "transactions": [
      {
        "date": "2021-01-07",
        "priceEur": 409650,
        "typeLocal": "Maison",
        "surfaceM2": 107,
        "isVefa": false
      }
    ]
  },
  "70f109c7f076": {
    "id": "70f109c7f076",
    "label": "17 RTE DE MONTPELLIER, Saint-Jean-de-Védas",
    "lat": 43.576835,
    "lng": 3.833543,
    "transactions": [
      {
        "date": "2021-01-25",
        "priceEur": 320000,
        "typeLocal": "Maison",
        "surfaceM2": 56,
        "isVefa": false
      }
    ]
  },
  "c466735ba2e8": {
    "id": "c466735ba2e8",
    "label": "8 PLAN DE LA COUPO SANTO, Saint-Jean-de-Védas",
    "lat": 43.573962,
    "lng": 3.832826,
    "transactions": [
      {
        "date": "2024-12-11",
        "priceEur": 87500,
        "typeLocal": "Appartement",
        "surfaceM2": 42,
        "isVefa": false
      },
      {
        "date": "2024-12-10",
        "priceEur": 196000,
        "typeLocal": "Appartement",
        "surfaceM2": 44,
        "isVefa": false
      },
      {
        "date": "2024-11-06",
        "priceEur": 289853,
        "typeLocal": "Appartement",
        "surfaceM2": 81,
        "isVefa": false
      },
      {
        "date": "2024-07-24",
        "priceEur": 350000,
        "typeLocal": "Appartement",
        "surfaceM2": 79,
        "isVefa": false
      },
      {
        "date": "2023-11-13",
        "priceEur": 203000,
        "typeLocal": "Appartement",
        "surfaceM2": 44,
        "isVefa": false
      },
      {
        "date": "2023-09-06",
        "priceEur": 176000,
        "typeLocal": "Appartement",
        "surfaceM2": 42,
        "isVefa": false
      },
      {
        "date": "2022-10-27",
        "priceEur": 353050,
        "typeLocal": "Appartement",
        "surfaceM2": 80,
        "isVefa": false
      },
      {
        "date": "2022-02-14",
        "priceEur": 174000,
        "typeLocal": "Appartement",
        "surfaceM2": 44,
        "isVefa": false
      },
      {
        "date": "2021-08-05",
        "priceEur": 250000,
        "typeLocal": "Appartement",
        "surfaceM2": 81,
        "isVefa": false
      },
      {
        "date": "2021-05-28",
        "priceEur": 473290,
        "typeLocal": "Appartement",
        "surfaceM2": 100,
        "isVefa": false
      },
      {
        "date": "2021-02-12",
        "priceEur": 13500,
        "typeLocal": "Appartement",
        "surfaceM2": 41,
        "isVefa": false
      },
      {
        "date": "2021-02-08",
        "priceEur": 278850,
        "typeLocal": "Appartement",
        "surfaceM2": 57,
        "isVefa": false
      }
    ]
  },
  "32380df7e982": {
    "id": "32380df7e982",
    "label": "3 RUE PAUL CEZANNE, Saint-Jean-de-Védas",
    "lat": 43.575959,
    "lng": 3.824375,
    "transactions": [
      {
        "date": "2021-02-03",
        "priceEur": 87000,
        "typeLocal": "Appartement",
        "surfaceM2": 22,
        "isVefa": false
      }
    ]
  },
  "c0184c240072": {
    "id": "c0184c240072",
    "label": "8B RUE DES IRIS, Saint-Jean-de-Védas",
    "lat": 43.578915,
    "lng": 3.83091,
    "transactions": [
      {
        "date": "2021-02-02",
        "priceEur": 213000,
        "typeLocal": "Appartement",
        "surfaceM2": 72,
        "isVefa": false
      }
    ]
  },
  "e5fc2ef65abe": {
    "id": "e5fc2ef65abe",
    "label": "3 RUE PASTEUR, Saint-Jean-de-Védas",
    "lat": 43.576609,
    "lng": 3.826956,
    "transactions": [
      {
        "date": "2021-02-22",
        "priceEur": 274000,
        "typeLocal": "Appartement",
        "surfaceM2": 99,
        "isVefa": false
      }
    ]
  },
  "d832c180ad28": {
    "id": "d832c180ad28",
    "label": "14 RUE DES ACACIAS, Saint-Jean-de-Védas",
    "lat": 43.574885,
    "lng": 3.824995,
    "transactions": [
      {
        "date": "2021-02-17",
        "priceEur": 325400,
        "typeLocal": "Maison",
        "surfaceM2": 90,
        "isVefa": false
      }
    ]
  },
  "024aed36419e": {
    "id": "024aed36419e",
    "label": "3 RUE DU PRADET, Saint-Jean-de-Védas",
    "lat": 43.577278,
    "lng": 3.825799,
    "transactions": [
      {
        "date": "2021-02-25",
        "priceEur": 189000,
        "typeLocal": "Appartement",
        "surfaceM2": 70,
        "isVefa": false
      }
    ]
  },
  "b4a2851a8e54": {
    "id": "b4a2851a8e54",
    "label": "23 RUE DE LA TREILLE, Saint-Jean-de-Védas",
    "lat": 43.578094,
    "lng": 3.825798,
    "transactions": [
      {
        "date": "2021-03-10",
        "priceEur": 100000,
        "typeLocal": "Appartement",
        "surfaceM2": 33,
        "isVefa": false
      }
    ]
  },
  "27947ec1e922": {
    "id": "27947ec1e922",
    "label": "29 PLAN DU FRAISSE, Saint-Jean-de-Védas",
    "lat": 43.57566,
    "lng": 3.832603,
    "transactions": [
      {
        "date": "2025-01-13",
        "priceEur": 239200,
        "typeLocal": "Appartement",
        "surfaceM2": 76,
        "isVefa": false
      },
      {
        "date": "2022-01-26",
        "priceEur": 271000,
        "typeLocal": "Appartement",
        "surfaceM2": 76,
        "isVefa": false
      },
      {
        "date": "2021-09-27",
        "priceEur": 230000,
        "typeLocal": "Appartement",
        "surfaceM2": 59,
        "isVefa": false
      },
      {
        "date": "2021-04-15",
        "priceEur": 155500,
        "typeLocal": "Appartement",
        "surfaceM2": 36,
        "isVefa": false
      }
    ]
  },
  "64b22783c689": {
    "id": "64b22783c689",
    "label": "12 RUE GUILLAUME D'AUTIGNAC, Saint-Jean-de-Védas",
    "lat": 43.57884,
    "lng": 3.830013,
    "transactions": [
      {
        "date": "2021-04-06",
        "priceEur": 452750,
        "typeLocal": "Maison",
        "surfaceM2": 110,
        "isVefa": false
      }
    ]
  },
  "a62bc08da977": {
    "id": "a62bc08da977",
    "label": "7 RUE DES ALBIZIAS, Saint-Jean-de-Védas",
    "lat": 43.574885,
    "lng": 3.824995,
    "transactions": [
      {
        "date": "2021-04-30",
        "priceEur": 92000,
        "typeLocal": "Maison",
        "surfaceM2": 80,
        "isVefa": false
      }
    ]
  },
  "88c1b1f9909e": {
    "id": "88c1b1f9909e",
    "label": "7 RUE DES GLAIEULS, Saint-Jean-de-Védas",
    "lat": 43.572867,
    "lng": 3.829404,
    "transactions": [
      {
        "date": "2021-04-15",
        "priceEur": 408750,
        "typeLocal": "Maison",
        "surfaceM2": 94,
        "isVefa": false
      }
    ]
  },
  "b400ce9451a7": {
    "id": "b400ce9451a7",
    "label": "19 GR GRAND RUE, Saint-Jean-de-Védas",
    "lat": 43.57754,
    "lng": 3.825451,
    "transactions": [
      {
        "date": "2021-04-22",
        "priceEur": 179500,
        "typeLocal": "Appartement",
        "surfaceM2": 45,
        "isVefa": false
      },
      {
        "date": "2021-04-22",
        "priceEur": 179500,
        "typeLocal": "Appartement",
        "surfaceM2": 80,
        "isVefa": false
      }
    ]
  },
  "067937729e0a": {
    "id": "067937729e0a",
    "label": "12 RUE DE LA TREILLE, Saint-Jean-de-Védas",
    "lat": 43.577865,
    "lng": 3.825818,
    "transactions": [
      {
        "date": "2021-04-28",
        "priceEur": 80000,
        "typeLocal": "Appartement",
        "surfaceM2": 25,
        "isVefa": false
      }
    ]
  },
  "06b97f017757": {
    "id": "06b97f017757",
    "label": "2 RUE DES ORMEAUX, Saint-Jean-de-Védas",
    "lat": 43.574885,
    "lng": 3.824995,
    "transactions": [
      {
        "date": "2021-04-28",
        "priceEur": 235000,
        "typeLocal": "Maison",
        "surfaceM2": 80,
        "isVefa": false
      }
    ]
  },
  "7dfe2c7de940": {
    "id": "7dfe2c7de940",
    "label": "170 AV DE LIBRILLA, Saint-Jean-de-Védas",
    "lat": 43.574104,
    "lng": 3.830885,
    "transactions": [
      {
        "date": "2025-04-14",
        "priceEur": 136000,
        "typeLocal": "Appartement",
        "surfaceM2": 41,
        "isVefa": false
      },
      {
        "date": "2021-05-31",
        "priceEur": 458850,
        "typeLocal": "Appartement",
        "surfaceM2": 112,
        "isVefa": false
      }
    ]
  },
  "1207d103aa64": {
    "id": "1207d103aa64",
    "label": "165 CHE DE LA ROQUE, Saint-Jean-de-Védas",
    "lat": 43.572843,
    "lng": 3.831165,
    "transactions": [
      {
        "date": "2025-02-28",
        "priceEur": 114000,
        "typeLocal": "Appartement",
        "surfaceM2": 28,
        "isVefa": false
      },
      {
        "date": "2025-01-30",
        "priceEur": 166300,
        "typeLocal": "Appartement",
        "surfaceM2": 38,
        "isVefa": false
      },
      {
        "date": "2024-09-26",
        "priceEur": 112000,
        "typeLocal": "Appartement",
        "surfaceM2": 30,
        "isVefa": false
      },
      {
        "date": "2024-06-20",
        "priceEur": 155801,
        "typeLocal": "Appartement",
        "surfaceM2": 39,
        "isVefa": false
      },
      {
        "date": "2024-02-05",
        "priceEur": 275000,
        "typeLocal": "Appartement",
        "surfaceM2": 80,
        "isVefa": false
      },
      {
        "date": "2023-04-27",
        "priceEur": 237920,
        "typeLocal": "Appartement",
        "surfaceM2": 60,
        "isVefa": false
      },
      {
        "date": "2022-10-03",
        "priceEur": 167500,
        "typeLocal": "Appartement",
        "surfaceM2": 38,
        "isVefa": false
      },
      {
        "date": "2021-07-27",
        "priceEur": 159000,
        "typeLocal": "Appartement",
        "surfaceM2": 39,
        "isVefa": false
      },
      {
        "date": "2021-05-27",
        "priceEur": 178000,
        "typeLocal": "Appartement",
        "surfaceM2": 40,
        "isVefa": false
      }
    ]
  },
  "884236d380e8": {
    "id": "884236d380e8",
    "label": "7 RUE DES PEUPLIERS, Saint-Jean-de-Védas",
    "lat": 43.574885,
    "lng": 3.824995,
    "transactions": [
      {
        "date": "2021-05-28",
        "priceEur": 329900,
        "typeLocal": "Maison",
        "surfaceM2": 77,
        "isVefa": false
      }
    ]
  },
  "8ef457420aea": {
    "id": "8ef457420aea",
    "label": "10 AV DE LA LIBERATION, Saint-Jean-de-Védas",
    "lat": 43.576561,
    "lng": 3.827721,
    "transactions": [
      {
        "date": "2021-05-28",
        "priceEur": 340900,
        "typeLocal": "Maison",
        "surfaceM2": 80,
        "isVefa": false
      }
    ]
  },
  "8ab2279e2e28": {
    "id": "8ab2279e2e28",
    "label": "3A RUE DU PETIT PARC, Saint-Jean-de-Védas",
    "lat": 43.57519,
    "lng": 3.823559,
    "transactions": [
      {
        "date": "2021-05-21",
        "priceEur": 476300,
        "typeLocal": "Maison",
        "surfaceM2": 122,
        "isVefa": false
      }
    ]
  },
  "294b474e5b5e": {
    "id": "294b474e5b5e",
    "label": "16B GR GRAND RUE, Saint-Jean-de-Védas",
    "lat": 43.577671,
    "lng": 3.825339,
    "transactions": [
      {
        "date": "2021-09-01",
        "priceEur": 70000,
        "typeLocal": "Appartement",
        "surfaceM2": 60,
        "isVefa": false
      },
      {
        "date": "2021-06-09",
        "priceEur": 121000,
        "typeLocal": "Appartement",
        "surfaceM2": 60,
        "isVefa": false
      }
    ]
  },
  "af86c896d846": {
    "id": "af86c896d846",
    "label": "4 RUE DE ROUDERES, Saint-Jean-de-Védas",
    "lat": 43.574685,
    "lng": 3.828176,
    "transactions": [
      {
        "date": "2021-06-17",
        "priceEur": 400000,
        "typeLocal": "Maison",
        "surfaceM2": 100,
        "isVefa": false
      }
    ]
  },
  "db8e675b1469": {
    "id": "db8e675b1469",
    "label": "15 RUE DU PRADET, Saint-Jean-de-Védas",
    "lat": 43.576635,
    "lng": 3.825349,
    "transactions": [
      {
        "date": "2021-05-19",
        "priceEur": 300000,
        "typeLocal": "Maison",
        "surfaceM2": 111,
        "isVefa": false
      }
    ]
  },
  "3d41456dee9c": {
    "id": "3d41456dee9c",
    "label": "14J RUE FON DE L'HOSPITAL, Saint-Jean-de-Védas",
    "lat": 43.577529,
    "lng": 3.829836,
    "transactions": [
      {
        "date": "2021-06-24",
        "priceEur": 300000,
        "typeLocal": "Maison",
        "surfaceM2": 85,
        "isVefa": false
      }
    ]
  },
  "694cb185457e": {
    "id": "694cb185457e",
    "label": "126 RUE DU PICPOUL, Saint-Jean-de-Védas",
    "lat": 43.573849,
    "lng": 3.82976,
    "transactions": [
      {
        "date": "2021-06-30",
        "priceEur": 311950,
        "typeLocal": "Appartement",
        "surfaceM2": 89,
        "isVefa": false
      }
    ]
  },
  "65730c135a22": {
    "id": "65730c135a22",
    "label": "16A RTE DE MONTPELLIER, Saint-Jean-de-Védas",
    "lat": 43.575718,
    "lng": 3.83306,
    "transactions": [
      {
        "date": "2021-07-16",
        "priceEur": 582700,
        "typeLocal": "Maison",
        "surfaceM2": 95,
        "isVefa": false
      }
    ]
  },
  "f8e688f2c125": {
    "id": "f8e688f2c125",
    "label": "5 IMP PEREZ, Saint-Jean-de-Védas",
    "lat": 43.572923,
    "lng": 3.826293,
    "transactions": [
      {
        "date": "2021-07-16",
        "priceEur": 367420,
        "typeLocal": "Maison",
        "surfaceM2": 69,
        "isVefa": false
      }
    ]
  },
  "901bf2530223": {
    "id": "901bf2530223",
    "label": "14 RUE DU PETIT PARC, Saint-Jean-de-Védas",
    "lat": 43.575618,
    "lng": 3.823655,
    "transactions": [
      {
        "date": "2021-07-12",
        "priceEur": 410000,
        "typeLocal": "Maison",
        "surfaceM2": 92,
        "isVefa": false
      }
    ]
  },
  "94e40c736e6f": {
    "id": "94e40c736e6f",
    "label": "18 GR GRAND RUE, Saint-Jean-de-Védas",
    "lat": 43.577674,
    "lng": 3.825277,
    "transactions": [
      {
        "date": "2021-07-28",
        "priceEur": 96000,
        "typeLocal": "Appartement",
        "surfaceM2": 30,
        "isVefa": false
      }
    ]
  },
  "f7c8cb71c036": {
    "id": "f7c8cb71c036",
    "label": "26 GR GRAND RUE, Saint-Jean-de-Védas",
    "lat": 43.577773,
    "lng": 3.824819,
    "transactions": [
      {
        "date": "2021-08-06",
        "priceEur": 962960,
        "typeLocal": "Appartement",
        "surfaceM2": 50,
        "isVefa": false
      }
    ]
  },
  "3fc064fa029e": {
    "id": "3fc064fa029e",
    "label": "1 RUE DE LA PAIX, Saint-Jean-de-Védas",
    "lat": 43.577773,
    "lng": 3.824819,
    "transactions": [
      {
        "date": "2021-08-06",
        "priceEur": 962960,
        "typeLocal": "Maison",
        "surfaceM2": 290,
        "isVefa": false
      }
    ]
  },
  "d14a4d7eb87a": {
    "id": "d14a4d7eb87a",
    "label": "5 RUE DE L'EGLISE, Saint-Jean-de-Védas",
    "lat": 43.577825,
    "lng": 3.826181,
    "transactions": [
      {
        "date": "2021-08-13",
        "priceEur": 160853,
        "typeLocal": "Maison",
        "surfaceM2": 46,
        "isVefa": false
      }
    ]
  },
  "0dd52b6d5c0c": {
    "id": "0dd52b6d5c0c",
    "label": "6 RUE DES SARRALIERS, Saint-Jean-de-Védas",
    "lat": 43.578867,
    "lng": 3.830672,
    "transactions": [
      {
        "date": "2021-09-01",
        "priceEur": 436901,
        "typeLocal": "Maison",
        "surfaceM2": 140,
        "isVefa": false
      }
    ]
  },
  "aa3e40b2cd0c": {
    "id": "aa3e40b2cd0c",
    "label": "8 RUE DES SAULES, Saint-Jean-de-Védas",
    "lat": 43.574885,
    "lng": 3.824995,
    "transactions": [
      {
        "date": "2021-08-26",
        "priceEur": 364000,
        "typeLocal": "Maison",
        "surfaceM2": 80,
        "isVefa": false
      }
    ]
  },
  "b094b2f73b84": {
    "id": "b094b2f73b84",
    "label": "8 AV DE LA LIBERATION, Saint-Jean-de-Védas",
    "lat": 43.576774,
    "lng": 3.827187,
    "transactions": [
      {
        "date": "2024-02-09",
        "priceEur": 156920,
        "typeLocal": "Appartement",
        "surfaceM2": 60,
        "isVefa": false
      },
      {
        "date": "2021-08-27",
        "priceEur": 147550,
        "typeLocal": "Appartement",
        "surfaceM2": 35,
        "isVefa": false
      }
    ]
  },
  "f60909bd4b49": {
    "id": "f60909bd4b49",
    "label": "26 RUE DU PRADET, Saint-Jean-de-Védas",
    "lat": 43.576684,
    "lng": 3.825056,
    "transactions": [
      {
        "date": "2024-10-15",
        "priceEur": 124000,
        "typeLocal": "Appartement",
        "surfaceM2": 45,
        "isVefa": false
      },
      {
        "date": "2022-01-27",
        "priceEur": 222547,
        "typeLocal": "Appartement",
        "surfaceM2": 84,
        "isVefa": false
      },
      {
        "date": "2021-09-06",
        "priceEur": 110000,
        "typeLocal": "Appartement",
        "surfaceM2": 60,
        "isVefa": false
      }
    ]
  },
  "e4a3e2e96e9c": {
    "id": "e4a3e2e96e9c",
    "label": "8 RUE DES ORMEAUX, Saint-Jean-de-Védas",
    "lat": 43.574885,
    "lng": 3.824995,
    "transactions": [
      {
        "date": "2021-09-02",
        "priceEur": 140000,
        "typeLocal": "Maison",
        "surfaceM2": 80,
        "isVefa": false
      }
    ]
  },
  "3155bdcc6d7c": {
    "id": "3155bdcc6d7c",
    "label": "14 RUE DES ORMEAUX, Saint-Jean-de-Védas",
    "lat": 43.574885,
    "lng": 3.824995,
    "transactions": [
      {
        "date": "2021-09-17",
        "priceEur": 274000,
        "typeLocal": "Maison",
        "surfaceM2": 77,
        "isVefa": false
      }
    ]
  },
  "f86f156edfd9": {
    "id": "f86f156edfd9",
    "label": "15 RUE DE LA MAIRIE, Saint-Jean-de-Védas",
    "lat": 43.57638,
    "lng": 3.826445,
    "transactions": [
      {
        "date": "2021-09-17",
        "priceEur": 300000,
        "typeLocal": "Maison",
        "surfaceM2": 96,
        "isVefa": false
      }
    ]
  },
  "351aa6a5328d": {
    "id": "351aa6a5328d",
    "label": "4 RUE DES SARRALIERS, Saint-Jean-de-Védas",
    "lat": 43.578772,
    "lng": 3.830522,
    "transactions": [
      {
        "date": "2021-09-15",
        "priceEur": 425950,
        "typeLocal": "Maison",
        "surfaceM2": 99,
        "isVefa": false
      }
    ]
  },
  "f082fbefc855": {
    "id": "f082fbefc855",
    "label": "3C RUE DU PETIT PRADET, Saint-Jean-de-Védas",
    "lat": 43.576911,
    "lng": 3.82565,
    "transactions": [
      {
        "date": "2021-10-13",
        "priceEur": 312600,
        "typeLocal": "Appartement",
        "surfaceM2": 69,
        "isVefa": false
      }
    ]
  },
  "9e66f8d3e4bf": {
    "id": "9e66f8d3e4bf",
    "label": "17 RUE ANDRE CHAMSON, Saint-Jean-de-Védas",
    "lat": 43.577002,
    "lng": 3.832554,
    "transactions": [
      {
        "date": "2021-10-13",
        "priceEur": 295000,
        "typeLocal": "Maison",
        "surfaceM2": 74,
        "isVefa": false
      }
    ]
  },
  "351d54d92f0c": {
    "id": "351d54d92f0c",
    "label": "9 RUE DES PEUPLIERS, Saint-Jean-de-Védas",
    "lat": 43.574885,
    "lng": 3.824995,
    "transactions": [
      {
        "date": "2021-10-25",
        "priceEur": 319000,
        "typeLocal": "Maison",
        "surfaceM2": 80,
        "isVefa": false
      }
    ]
  },
  "31042051058d": {
    "id": "31042051058d",
    "label": "4 IMP DES JARDINS DE SAINT JEAN, Saint-Jean-de-Védas",
    "lat": 43.576154,
    "lng": 3.825973,
    "transactions": [
      {
        "date": "2021-10-28",
        "priceEur": 391140,
        "typeLocal": "Maison",
        "surfaceM2": 94,
        "isVefa": false
      }
    ]
  },
  "1ac74d995e59": {
    "id": "1ac74d995e59",
    "label": "3D RUE DU PETIT PARC, Saint-Jean-de-Védas",
    "lat": 43.575244,
    "lng": 3.823432,
    "transactions": [
      {
        "date": "2021-11-02",
        "priceEur": 387050,
        "typeLocal": "Maison",
        "surfaceM2": 103,
        "isVefa": false
      }
    ]
  },
  "85f79a9ea9cc": {
    "id": "85f79a9ea9cc",
    "label": "18 RUE DE LA PAIX, Saint-Jean-de-Védas",
    "lat": 43.578061,
    "lng": 3.825333,
    "transactions": [
      {
        "date": "2021-10-29",
        "priceEur": 172300,
        "typeLocal": "Maison",
        "surfaceM2": 40,
        "isVefa": false
      }
    ]
  },
  "5aec43911fab": {
    "id": "5aec43911fab",
    "label": "3B RUE PASTEUR, Saint-Jean-de-Védas",
    "lat": 43.576619,
    "lng": 3.827105,
    "transactions": [
      {
        "date": "2021-12-22",
        "priceEur": 180000,
        "typeLocal": "Appartement",
        "surfaceM2": 66,
        "isVefa": false
      }
    ]
  },
  "570076742cb8": {
    "id": "570076742cb8",
    "label": "97 ALL JEAN VILAR, Saint-Jean-de-Védas",
    "lat": 43.577334,
    "lng": 3.830186,
    "transactions": [
      {
        "date": "2025-04-03",
        "priceEur": 133000,
        "typeLocal": "Appartement",
        "surfaceM2": 32,
        "isVefa": false
      },
      {
        "date": "2024-10-10",
        "priceEur": 175880,
        "typeLocal": "Appartement",
        "surfaceM2": 49,
        "isVefa": false
      },
      {
        "date": "2022-03-28",
        "priceEur": 117500,
        "typeLocal": "Appartement",
        "surfaceM2": 32,
        "isVefa": false
      },
      {
        "date": "2022-01-25",
        "priceEur": 180000,
        "typeLocal": "Appartement",
        "surfaceM2": 51,
        "isVefa": false
      }
    ]
  },
  "d151a85bad21": {
    "id": "d151a85bad21",
    "label": "5 RUE DES ALBIZIAS, Saint-Jean-de-Védas",
    "lat": 43.574885,
    "lng": 3.824995,
    "transactions": [
      {
        "date": "2022-01-17",
        "priceEur": 390150,
        "typeLocal": "Maison",
        "surfaceM2": 80,
        "isVefa": false
      }
    ]
  },
  "f2642624c85a": {
    "id": "f2642624c85a",
    "label": "1 RUE DES CHARDONNERETS, Saint-Jean-de-Védas",
    "lat": 43.572589,
    "lng": 3.827423,
    "transactions": [
      {
        "date": "2022-01-28",
        "priceEur": 420000,
        "typeLocal": "Maison",
        "surfaceM2": 81,
        "isVefa": false
      }
    ]
  },
  "be6e19b51dd9": {
    "id": "be6e19b51dd9",
    "label": "10 RUE DE L'EGLISE, Saint-Jean-de-Védas",
    "lat": 43.577844,
    "lng": 3.82638,
    "transactions": [
      {
        "date": "2022-02-03",
        "priceEur": 174000,
        "typeLocal": "Appartement",
        "surfaceM2": 65,
        "isVefa": false
      }
    ]
  },
  "b3510ce388a9": {
    "id": "b3510ce388a9",
    "label": "9B AV GEORGES CLEMENCEAU, Saint-Jean-de-Védas",
    "lat": 43.578218,
    "lng": 3.825622,
    "transactions": [
      {
        "date": "2022-01-29",
        "priceEur": 175000,
        "typeLocal": "Appartement",
        "surfaceM2": 96,
        "isVefa": false
      }
    ]
  },
  "b0f01f5e6dda": {
    "id": "b0f01f5e6dda",
    "label": "169 CHE DE LA ROQUE, Saint-Jean-de-Védas",
    "lat": 43.572599,
    "lng": 3.831,
    "transactions": [
      {
        "date": "2024-10-08",
        "priceEur": 289900,
        "typeLocal": "Appartement",
        "surfaceM2": 66,
        "isVefa": false
      },
      {
        "date": "2023-01-30",
        "priceEur": 289000,
        "typeLocal": "Appartement",
        "surfaceM2": 68,
        "isVefa": false
      },
      {
        "date": "2022-03-01",
        "priceEur": 417000,
        "typeLocal": "Appartement",
        "surfaceM2": 84,
        "isVefa": false
      }
    ]
  },
  "fae13a3febcf": {
    "id": "fae13a3febcf",
    "label": "16 PAS DES ANGROLAS, Saint-Jean-de-Védas",
    "lat": 43.574921,
    "lng": 3.82948,
    "transactions": [
      {
        "date": "2024-12-16",
        "priceEur": 256000,
        "typeLocal": "Appartement",
        "surfaceM2": 57,
        "isVefa": false
      },
      {
        "date": "2024-10-04",
        "priceEur": 275180,
        "typeLocal": "Maison",
        "surfaceM2": 75,
        "isVefa": false
      },
      {
        "date": "2023-08-23",
        "priceEur": 201000,
        "typeLocal": "Appartement",
        "surfaceM2": 44,
        "isVefa": false
      },
      {
        "date": "2022-03-15",
        "priceEur": 232000,
        "typeLocal": "Appartement",
        "surfaceM2": 57,
        "isVefa": false
      }
    ]
  },
  "98b8c6424561": {
    "id": "98b8c6424561",
    "label": "2 RUE GUILLAUME D'AUTIGNAC, Saint-Jean-de-Védas",
    "lat": 43.577979,
    "lng": 3.830422,
    "transactions": [
      {
        "date": "2022-03-31",
        "priceEur": 520350,
        "typeLocal": "Maison",
        "surfaceM2": 118,
        "isVefa": false
      }
    ]
  },
  "aa6a82b67e87": {
    "id": "aa6a82b67e87",
    "label": "29 AV GEORGES CLEMENCEAU, Saint-Jean-de-Védas",
    "lat": 43.578589,
    "lng": 3.824124,
    "transactions": [
      {
        "date": "2022-03-23",
        "priceEur": 574760,
        "typeLocal": "Maison",
        "surfaceM2": 110,
        "isVefa": false
      }
    ]
  },
  "22f134823a1e": {
    "id": "22f134823a1e",
    "label": "125 ALL JEAN VILAR, Saint-Jean-de-Védas",
    "lat": 43.577334,
    "lng": 3.830186,
    "transactions": [
      {
        "date": "2022-04-22",
        "priceEur": 225100,
        "typeLocal": "Appartement",
        "surfaceM2": 66,
        "isVefa": false
      }
    ]
  },
  "8bc0941d4562": {
    "id": "8bc0941d4562",
    "label": "12 RUE DE LA PAIX, Saint-Jean-de-Védas",
    "lat": 43.577925,
    "lng": 3.825222,
    "transactions": [
      {
        "date": "2022-04-13",
        "priceEur": 584000,
        "typeLocal": "Maison",
        "surfaceM2": 165,
        "isVefa": false
      }
    ]
  },
  "3e28c0e4b540": {
    "id": "3e28c0e4b540",
    "label": "18 RUE DU PETIT PARC, Saint-Jean-de-Védas",
    "lat": 43.575752,
    "lng": 3.823489,
    "transactions": [
      {
        "date": "2022-04-29",
        "priceEur": 388000,
        "typeLocal": "Maison",
        "surfaceM2": 92,
        "isVefa": false
      }
    ]
  },
  "fb56572211c4": {
    "id": "fb56572211c4",
    "label": "2 RUE BOBBY LAPOINTE, Saint-Jean-de-Védas",
    "lat": 43.577572,
    "lng": 3.831259,
    "transactions": [
      {
        "date": "2022-04-27",
        "priceEur": 453000,
        "typeLocal": "Maison",
        "surfaceM2": 124,
        "isVefa": false
      }
    ]
  },
  "3bbda642a1ce": {
    "id": "3bbda642a1ce",
    "label": "1 RUE DE LA GARE, Saint-Jean-de-Védas",
    "lat": 43.572509,
    "lng": 3.824241,
    "transactions": [
      {
        "date": "2023-11-10",
        "priceEur": 240000,
        "typeLocal": "Maison",
        "surfaceM2": 120,
        "isVefa": false
      },
      {
        "date": "2022-04-29",
        "priceEur": 870000,
        "typeLocal": "Maison",
        "surfaceM2": 120,
        "isVefa": false
      }
    ]
  },
  "f5ed05b2df01": {
    "id": "f5ed05b2df01",
    "label": "151 RUE DU PICPOUL, Saint-Jean-de-Védas",
    "lat": 43.574104,
    "lng": 3.830885,
    "transactions": [
      {
        "date": "2024-11-06",
        "priceEur": 272500,
        "typeLocal": "Appartement",
        "surfaceM2": 64,
        "isVefa": false
      },
      {
        "date": "2024-07-11",
        "priceEur": 230000,
        "typeLocal": "Appartement",
        "surfaceM2": 59,
        "isVefa": false
      },
      {
        "date": "2023-04-19",
        "priceEur": 256500,
        "typeLocal": "Appartement",
        "surfaceM2": 66,
        "isVefa": false
      },
      {
        "date": "2023-03-01",
        "priceEur": 239850,
        "typeLocal": "Appartement",
        "surfaceM2": 63,
        "isVefa": false
      },
      {
        "date": "2022-05-09",
        "priceEur": 254000,
        "typeLocal": "Appartement",
        "surfaceM2": 64,
        "isVefa": false
      }
    ]
  },
  "c97a4dc9afb5": {
    "id": "c97a4dc9afb5",
    "label": "11 RUE DU PUITS DE GAUD, Saint-Jean-de-Védas",
    "lat": 43.575608,
    "lng": 3.824192,
    "transactions": [
      {
        "date": "2022-06-07",
        "priceEur": 358000,
        "typeLocal": "Maison",
        "surfaceM2": 81,
        "isVefa": false
      }
    ]
  },
  "373ad48e1b66": {
    "id": "373ad48e1b66",
    "label": "19 AV GEORGES CLEMENCEAU, Saint-Jean-de-Védas",
    "lat": 43.578399,
    "lng": 3.824585,
    "transactions": [
      {
        "date": "2022-05-18",
        "priceEur": 238000,
        "typeLocal": "Appartement",
        "surfaceM2": 86,
        "isVefa": false
      }
    ]
  },
  "b7ef06013f6f": {
    "id": "b7ef06013f6f",
    "label": "9191 RUE CIMENTEE, Saint-Jean-de-Védas",
    "lat": 43.577455,
    "lng": 3.826325,
    "transactions": [
      {
        "date": "2022-06-01",
        "priceEur": 25000,
        "typeLocal": "Maison",
        "surfaceM2": 39,
        "isVefa": false
      }
    ]
  },
  "cdbc263a5d8e": {
    "id": "cdbc263a5d8e",
    "label": "184 RUE DU PICPOUL, Saint-Jean-de-Védas",
    "lat": 43.573849,
    "lng": 3.82976,
    "transactions": [
      {
        "date": "2022-06-17",
        "priceEur": 235035,
        "typeLocal": "Appartement",
        "surfaceM2": 61,
        "isVefa": false
      }
    ]
  },
  "025ea488076f": {
    "id": "025ea488076f",
    "label": "73 ESP DE L ORTET, Saint-Jean-de-Védas",
    "lat": 43.576431,
    "lng": 3.830296,
    "transactions": [
      {
        "date": "2023-07-04",
        "priceEur": 97450,
        "typeLocal": "Appartement",
        "surfaceM2": 24,
        "isVefa": false
      },
      {
        "date": "2022-07-01",
        "priceEur": 90000,
        "typeLocal": "Appartement",
        "surfaceM2": 24,
        "isVefa": false
      }
    ]
  },
  "f59e11d504bc": {
    "id": "f59e11d504bc",
    "label": "4 RUE DE L'EGLISE, Saint-Jean-de-Védas",
    "lat": 43.577696,
    "lng": 3.826252,
    "transactions": [
      {
        "date": "2022-07-01",
        "priceEur": 120000,
        "typeLocal": "Maison",
        "surfaceM2": 70,
        "isVefa": false
      }
    ]
  },
  "18fa56d94485": {
    "id": "18fa56d94485",
    "label": "16 RN 113, Saint-Jean-de-Védas",
    "lat": 43.576031,
    "lng": 3.833202,
    "transactions": [
      {
        "date": "2022-07-06",
        "priceEur": 828950,
        "typeLocal": "Maison",
        "surfaceM2": 230,
        "isVefa": false
      }
    ]
  },
  "4b90052a3313": {
    "id": "4b90052a3313",
    "label": "129 ESP DE L ORTET, Saint-Jean-de-Védas",
    "lat": 43.576901,
    "lng": 3.82992,
    "transactions": [
      {
        "date": "2022-07-08",
        "priceEur": 307070,
        "typeLocal": "Appartement",
        "surfaceM2": 87,
        "isVefa": false
      }
    ]
  },
  "555063e51967": {
    "id": "555063e51967",
    "label": "14 RUE DE L'EGLISE, Saint-Jean-de-Védas",
    "lat": 43.577942,
    "lng": 3.826339,
    "transactions": [
      {
        "date": "2022-07-08",
        "priceEur": 217834,
        "typeLocal": "Appartement",
        "surfaceM2": 51,
        "isVefa": false
      },
      {
        "date": "2022-07-08",
        "priceEur": 217834,
        "typeLocal": "Appartement",
        "surfaceM2": 25,
        "isVefa": false
      }
    ]
  },
  "1746a6550714": {
    "id": "1746a6550714",
    "label": "9197 GR GRAND RUE, Saint-Jean-de-Védas",
    "lat": 43.577239,
    "lng": 3.825918,
    "transactions": [
      {
        "date": "2022-07-19",
        "priceEur": 311000,
        "typeLocal": "Maison",
        "surfaceM2": 64,
        "isVefa": false
      }
    ]
  },
  "eb6c3637047d": {
    "id": "eb6c3637047d",
    "label": "8 RUE DE LA CALADE, Saint-Jean-de-Védas",
    "lat": 43.577852,
    "lng": 3.826118,
    "transactions": [
      {
        "date": "2022-07-04",
        "priceEur": 231485,
        "typeLocal": "Maison",
        "surfaceM2": 100,
        "isVefa": false
      }
    ]
  },
  "3cd16f2988e5": {
    "id": "3cd16f2988e5",
    "label": "9 RUE DE LA CALADE, Saint-Jean-de-Védas",
    "lat": 43.577723,
    "lng": 3.825767,
    "transactions": [
      {
        "date": "2022-08-16",
        "priceEur": 203000,
        "typeLocal": "Maison",
        "surfaceM2": 65,
        "isVefa": false
      }
    ]
  },
  "145673dfb6b0": {
    "id": "145673dfb6b0",
    "label": "74 ESP DE L ORTET, Saint-Jean-de-Védas",
    "lat": 43.57695,
    "lng": 3.831059,
    "transactions": [
      {
        "date": "2024-09-18",
        "priceEur": 192800,
        "typeLocal": "Appartement",
        "surfaceM2": 49,
        "isVefa": false
      },
      {
        "date": "2024-08-12",
        "priceEur": 177600,
        "typeLocal": "Appartement",
        "surfaceM2": 54,
        "isVefa": false
      },
      {
        "date": "2023-05-05",
        "priceEur": 207600,
        "typeLocal": "Appartement",
        "surfaceM2": 49,
        "isVefa": false
      },
      {
        "date": "2023-04-24",
        "priceEur": 117200,
        "typeLocal": "Appartement",
        "surfaceM2": 29,
        "isVefa": false
      },
      {
        "date": "2022-08-11",
        "priceEur": 214000,
        "typeLocal": "Appartement",
        "surfaceM2": 54,
        "isVefa": false
      }
    ]
  },
  "f25150f45a63": {
    "id": "f25150f45a63",
    "label": "7 IMP DES MELIAS, Saint-Jean-de-Védas",
    "lat": 43.574885,
    "lng": 3.824995,
    "transactions": [
      {
        "date": "2022-08-29",
        "priceEur": 248200,
        "typeLocal": "Maison",
        "surfaceM2": 76,
        "isVefa": false
      }
    ]
  },
  "aa76b88221bc": {
    "id": "aa76b88221bc",
    "label": "3 RUE DES TAMARIS, Saint-Jean-de-Védas",
    "lat": 43.573024,
    "lng": 3.824906,
    "transactions": [
      {
        "date": "2022-08-17",
        "priceEur": 385000,
        "typeLocal": "Maison",
        "surfaceM2": 75,
        "isVefa": false
      }
    ]
  },
  "deff1ec084ae": {
    "id": "deff1ec084ae",
    "label": "33 RUE LOU PLANAS, Saint-Jean-de-Védas",
    "lat": 43.579751,
    "lng": 3.830075,
    "transactions": [
      {
        "date": "2022-08-31",
        "priceEur": 467000,
        "typeLocal": "Maison",
        "surfaceM2": 114,
        "isVefa": false
      }
    ]
  },
  "ee6fb0812acb": {
    "id": "ee6fb0812acb",
    "label": "22 RUE DE LA GARE, Saint-Jean-de-Védas",
    "lat": 43.574885,
    "lng": 3.824995,
    "transactions": [
      {
        "date": "2022-09-30",
        "priceEur": 433781,
        "typeLocal": "Maison",
        "surfaceM2": 77,
        "isVefa": false
      }
    ]
  },
  "8a9e9196fa70": {
    "id": "8a9e9196fa70",
    "label": "5 RUE DONNAT, Saint-Jean-de-Védas",
    "lat": 43.576393,
    "lng": 3.827544,
    "transactions": [
      {
        "date": "2022-09-29",
        "priceEur": 311000,
        "typeLocal": "Maison",
        "surfaceM2": 80,
        "isVefa": false
      }
    ]
  },
  "5af7ae649cad": {
    "id": "5af7ae649cad",
    "label": "9 AV DE LA LIBERATION, Saint-Jean-de-Védas",
    "lat": 43.576177,
    "lng": 3.829054,
    "transactions": [
      {
        "date": "2022-09-30",
        "priceEur": 400000,
        "typeLocal": "Maison",
        "surfaceM2": 80,
        "isVefa": false
      }
    ]
  },
  "1bfa99c4cfa8": {
    "id": "1bfa99c4cfa8",
    "label": "39 AV GEORGES CLEMENCEAU, Saint-Jean-de-Védas",
    "lat": 43.578546,
    "lng": 3.824373,
    "transactions": [
      {
        "date": "2022-10-10",
        "priceEur": 360000,
        "typeLocal": "Maison",
        "surfaceM2": 100,
        "isVefa": false
      }
    ]
  },
  "281248efc2db": {
    "id": "281248efc2db",
    "label": "7B AV GEORGES CLEMENCEAU, Saint-Jean-de-Védas",
    "lat": 43.578093,
    "lng": 3.82595,
    "transactions": [
      {
        "date": "2022-10-07",
        "priceEur": 361200,
        "typeLocal": "Maison",
        "surfaceM2": 110,
        "isVefa": false
      }
    ]
  },
  "bd2b5b312d79": {
    "id": "bd2b5b312d79",
    "label": "22 RUE DU PRADET, Saint-Jean-de-Védas",
    "lat": 43.576894,
    "lng": 3.825123,
    "transactions": [
      {
        "date": "2022-11-02",
        "priceEur": 395000,
        "typeLocal": "Maison",
        "surfaceM2": 110,
        "isVefa": false
      }
    ]
  },
  "3a250affafa4": {
    "id": "3a250affafa4",
    "label": "6 RUE ENGABANAC, Saint-Jean-de-Védas",
    "lat": 43.580135,
    "lng": 3.833995,
    "transactions": [
      {
        "date": "2022-11-23",
        "priceEur": 380880,
        "typeLocal": "Maison",
        "surfaceM2": 77,
        "isVefa": false
      }
    ]
  },
  "85a8e1bcbd76": {
    "id": "85a8e1bcbd76",
    "label": "8 RUE ANDRE CHAMSON, Saint-Jean-de-Védas",
    "lat": 43.577152,
    "lng": 3.831626,
    "transactions": [
      {
        "date": "2022-12-16",
        "priceEur": 322400,
        "typeLocal": "Maison",
        "surfaceM2": 78,
        "isVefa": false
      }
    ]
  },
  "be501ba21fcb": {
    "id": "be501ba21fcb",
    "label": "3 RUE ENGABANAC, Saint-Jean-de-Védas",
    "lat": 43.580367,
    "lng": 3.833679,
    "transactions": [
      {
        "date": "2022-12-22",
        "priceEur": 365000,
        "typeLocal": "Maison",
        "surfaceM2": 96,
        "isVefa": false
      }
    ]
  },
  "3bc6b0d2466b": {
    "id": "3bc6b0d2466b",
    "label": "6 RUE DU PRADET, Saint-Jean-de-Védas",
    "lat": 43.577391,
    "lng": 3.825676,
    "transactions": [
      {
        "date": "2022-12-21",
        "priceEur": 147450,
        "typeLocal": "Maison",
        "surfaceM2": 45,
        "isVefa": false
      }
    ]
  },
  "8ac2ae275e33": {
    "id": "8ac2ae275e33",
    "label": "4 RUE DE LA TREILLE, Saint-Jean-de-Védas",
    "lat": 43.577747,
    "lng": 3.825601,
    "transactions": [
      {
        "date": "2023-01-23",
        "priceEur": 50000,
        "typeLocal": "Appartement",
        "surfaceM2": 15,
        "isVefa": false
      },
      {
        "date": "2023-01-23",
        "priceEur": 50000,
        "typeLocal": "Appartement",
        "surfaceM2": 32,
        "isVefa": false
      }
    ]
  },
  "4fc8870a4d62": {
    "id": "4fc8870a4d62",
    "label": "5 RUE DES CATALPAS, Saint-Jean-de-Védas",
    "lat": 43.574885,
    "lng": 3.824995,
    "transactions": [
      {
        "date": "2023-01-31",
        "priceEur": 385350,
        "typeLocal": "Maison",
        "surfaceM2": 90,
        "isVefa": false
      }
    ]
  },
  "4cb0fddc6115": {
    "id": "4cb0fddc6115",
    "label": "34B RUE DU GRAND PRADET, Saint-Jean-de-Védas",
    "lat": 43.57596,
    "lng": 3.824811,
    "transactions": [
      {
        "date": "2023-03-16",
        "priceEur": 283800,
        "typeLocal": "Appartement",
        "surfaceM2": 67,
        "isVefa": false
      }
    ]
  },
  "e78d3ea4ede4": {
    "id": "e78d3ea4ede4",
    "label": "28 RUE DE LA GARE, Saint-Jean-de-Védas",
    "lat": 43.574885,
    "lng": 3.824995,
    "transactions": [
      {
        "date": "2024-01-31",
        "priceEur": 377000,
        "typeLocal": "Maison",
        "surfaceM2": 77,
        "isVefa": false
      },
      {
        "date": "2023-03-27",
        "priceEur": 313000,
        "typeLocal": "Maison",
        "surfaceM2": 77,
        "isVefa": false
      }
    ]
  },
  "5c6ce6869b30": {
    "id": "5c6ce6869b30",
    "label": "15B AV GEORGES CLEMENCEAU, Saint-Jean-de-Védas",
    "lat": 43.578153,
    "lng": 3.824749,
    "transactions": [
      {
        "date": "2023-03-31",
        "priceEur": 740030,
        "typeLocal": "Maison",
        "surfaceM2": 103,
        "isVefa": false
      }
    ]
  },
  "e34fc8ef2d64": {
    "id": "e34fc8ef2d64",
    "label": "28 RUE YVES MONTAND, Saint-Jean-de-Védas",
    "lat": 43.576842,
    "lng": 3.832257,
    "transactions": [
      {
        "date": "2023-04-07",
        "priceEur": 350980,
        "typeLocal": "Maison",
        "surfaceM2": 96,
        "isVefa": false
      }
    ]
  },
  "93b35f703c56": {
    "id": "93b35f703c56",
    "label": "5 RUE DES NOYERS, Saint-Jean-de-Védas",
    "lat": 43.574885,
    "lng": 3.824995,
    "transactions": [
      {
        "date": "2023-04-13",
        "priceEur": 365000,
        "typeLocal": "Maison",
        "surfaceM2": 76,
        "isVefa": false
      }
    ]
  },
  "72fdffd6ce14": {
    "id": "72fdffd6ce14",
    "label": "8 RTE DE MONTPELLIER, Saint-Jean-de-Védas",
    "lat": 43.57502,
    "lng": 3.828092,
    "transactions": [
      {
        "date": "2023-04-21",
        "priceEur": 520000,
        "typeLocal": "Maison",
        "surfaceM2": 112,
        "isVefa": false
      }
    ]
  },
  "012fcab28fdb": {
    "id": "012fcab28fdb",
    "label": "17 GR GRAND RUE, Saint-Jean-de-Védas",
    "lat": 43.577487,
    "lng": 3.82553,
    "transactions": [
      {
        "date": "2024-09-10",
        "priceEur": 240000,
        "typeLocal": "Appartement",
        "surfaceM2": 75,
        "isVefa": false
      },
      {
        "date": "2023-05-09",
        "priceEur": 290000,
        "typeLocal": "Appartement",
        "surfaceM2": 130,
        "isVefa": false
      }
    ]
  },
  "24e9db70ba54": {
    "id": "24e9db70ba54",
    "label": "101 ESP DE L ORTET, Saint-Jean-de-Védas",
    "lat": 43.576901,
    "lng": 3.82992,
    "transactions": [
      {
        "date": "2023-04-28",
        "priceEur": 182291,
        "typeLocal": "Appartement",
        "surfaceM2": 47,
        "isVefa": false
      }
    ]
  },
  "9267dfcc1181": {
    "id": "9267dfcc1181",
    "label": "16 RUE DES ACACIAS, Saint-Jean-de-Védas",
    "lat": 43.574885,
    "lng": 3.824995,
    "transactions": [
      {
        "date": "2023-04-14",
        "priceEur": 275000,
        "typeLocal": "Maison",
        "surfaceM2": 80,
        "isVefa": false
      }
    ]
  },
  "194091f5d7e7": {
    "id": "194091f5d7e7",
    "label": "7 GR GRAND RUE, Saint-Jean-de-Védas",
    "lat": 43.577306,
    "lng": 3.826098,
    "transactions": [
      {
        "date": "2023-05-17",
        "priceEur": 135000,
        "typeLocal": "Maison",
        "surfaceM2": 190,
        "isVefa": false
      }
    ]
  },
  "710bcba0e821": {
    "id": "710bcba0e821",
    "label": "7 RUE DES JONQUILLES, Saint-Jean-de-Védas",
    "lat": 43.572956,
    "lng": 3.828444,
    "transactions": [
      {
        "date": "2023-05-22",
        "priceEur": 386090,
        "typeLocal": "Maison",
        "surfaceM2": 94,
        "isVefa": false
      }
    ]
  },
  "22fceae8898b": {
    "id": "22fceae8898b",
    "label": "9H RUE DU PETIT PRADET, Saint-Jean-de-Védas",
    "lat": 43.576036,
    "lng": 3.825544,
    "transactions": [
      {
        "date": "2023-06-01",
        "priceEur": 286830,
        "typeLocal": "Maison",
        "surfaceM2": 68,
        "isVefa": false
      }
    ]
  },
  "052723d2baa8": {
    "id": "052723d2baa8",
    "label": "19 RUE DU PUITS DE GAUD, Saint-Jean-de-Védas",
    "lat": 43.575884,
    "lng": 3.823718,
    "transactions": [
      {
        "date": "2023-06-01",
        "priceEur": 214300,
        "typeLocal": "Appartement",
        "surfaceM2": 48,
        "isVefa": false
      }
    ]
  },
  "cc8d1f065245": {
    "id": "cc8d1f065245",
    "label": "6 RUE DES NOYERS, Saint-Jean-de-Védas",
    "lat": 43.574885,
    "lng": 3.824995,
    "transactions": [
      {
        "date": "2023-07-04",
        "priceEur": 361000,
        "typeLocal": "Maison",
        "surfaceM2": 77,
        "isVefa": false
      }
    ]
  },
  "d2136d192889": {
    "id": "d2136d192889",
    "label": "13 RUE LOU PLANAS, Saint-Jean-de-Védas",
    "lat": 43.579238,
    "lng": 3.831867,
    "transactions": [
      {
        "date": "2023-07-06",
        "priceEur": 463000,
        "typeLocal": "Maison",
        "surfaceM2": 96,
        "isVefa": false
      }
    ]
  },
  "d4725e38f614": {
    "id": "d4725e38f614",
    "label": "130 ESP DE L ORTET, Saint-Jean-de-Védas",
    "lat": 43.577334,
    "lng": 3.830186,
    "transactions": [
      {
        "date": "2023-07-28",
        "priceEur": 235000,
        "typeLocal": "Appartement",
        "surfaceM2": 67,
        "isVefa": false
      }
    ]
  },
  "ef5e1b45fb6e": {
    "id": "ef5e1b45fb6e",
    "label": "17 RUE DE LA CADORQUE, Saint-Jean-de-Védas",
    "lat": 43.580337,
    "lng": 3.8299,
    "transactions": [
      {
        "date": "2023-07-31",
        "priceEur": 485000,
        "typeLocal": "Maison",
        "surfaceM2": 89,
        "isVefa": false
      }
    ]
  },
  "38c3bb424fe8": {
    "id": "38c3bb424fe8",
    "label": "6 RUE BOBBY LAPOINTE, Saint-Jean-de-Védas",
    "lat": 43.577835,
    "lng": 3.831048,
    "transactions": [
      {
        "date": "2023-08-07",
        "priceEur": 320000,
        "typeLocal": "Maison",
        "surfaceM2": 78,
        "isVefa": false
      }
    ]
  },
  "02656a6adb70": {
    "id": "02656a6adb70",
    "label": "9 RUE ANDRE CHAMSON, Saint-Jean-de-Védas",
    "lat": 43.577425,
    "lng": 3.831555,
    "transactions": [
      {
        "date": "2023-08-29",
        "priceEur": 405720,
        "typeLocal": "Maison",
        "surfaceM2": 94,
        "isVefa": false
      }
    ]
  },
  "e47872497257": {
    "id": "e47872497257",
    "label": "6 RUE DU PETIT PARC, Saint-Jean-de-Védas",
    "lat": 43.575267,
    "lng": 3.823959,
    "transactions": [
      {
        "date": "2023-11-21",
        "priceEur": 300000,
        "typeLocal": "Maison",
        "surfaceM2": 100,
        "isVefa": false
      }
    ]
  },
  "2516c4007bdd": {
    "id": "2516c4007bdd",
    "label": "2B RTE DE LATTES, Saint-Jean-de-Védas",
    "lat": 43.576169,
    "lng": 3.833535,
    "transactions": [
      {
        "date": "2023-12-14",
        "priceEur": 580700,
        "typeLocal": "Maison",
        "surfaceM2": 165,
        "isVefa": false
      }
    ]
  },
  "11b98398f5c3": {
    "id": "11b98398f5c3",
    "label": "2 RTE DE MONTPELLIER, Saint-Jean-de-Védas",
    "lat": 43.575252,
    "lng": 3.827172,
    "transactions": [
      {
        "date": "2024-01-10",
        "priceEur": 350000,
        "typeLocal": "Appartement",
        "surfaceM2": 40,
        "isVefa": false
      },
      {
        "date": "2024-01-10",
        "priceEur": 350000,
        "typeLocal": "Appartement",
        "surfaceM2": 27,
        "isVefa": false
      },
      {
        "date": "2024-01-10",
        "priceEur": 350000,
        "typeLocal": "Appartement",
        "surfaceM2": 43,
        "isVefa": false
      },
      {
        "date": "2024-01-10",
        "priceEur": 350000,
        "typeLocal": "Appartement",
        "surfaceM2": 41,
        "isVefa": false
      },
      {
        "date": "2024-01-10",
        "priceEur": 350000,
        "typeLocal": "Appartement",
        "surfaceM2": 33,
        "isVefa": false
      },
      {
        "date": "2024-01-10",
        "priceEur": 350000,
        "typeLocal": "Appartement",
        "surfaceM2": 55,
        "isVefa": false
      },
      {
        "date": "2024-01-10",
        "priceEur": 350000,
        "typeLocal": "Appartement",
        "surfaceM2": 23,
        "isVefa": false
      },
      {
        "date": "2023-12-20",
        "priceEur": 350000,
        "typeLocal": "Appartement",
        "surfaceM2": 27,
        "isVefa": false
      },
      {
        "date": "2023-12-20",
        "priceEur": 350000,
        "typeLocal": "Appartement",
        "surfaceM2": 33,
        "isVefa": false
      },
      {
        "date": "2023-12-20",
        "priceEur": 350000,
        "typeLocal": "Appartement",
        "surfaceM2": 41,
        "isVefa": false
      },
      {
        "date": "2023-12-20",
        "priceEur": 350000,
        "typeLocal": "Appartement",
        "surfaceM2": 43,
        "isVefa": false
      },
      {
        "date": "2023-12-20",
        "priceEur": 350000,
        "typeLocal": "Appartement",
        "surfaceM2": 55,
        "isVefa": false
      },
      {
        "date": "2023-12-20",
        "priceEur": 350000,
        "typeLocal": "Appartement",
        "surfaceM2": 23,
        "isVefa": false
      },
      {
        "date": "2023-12-20",
        "priceEur": 350000,
        "typeLocal": "Appartement",
        "surfaceM2": 40,
        "isVefa": false
      }
    ]
  },
  "e8cdb6bcd188": {
    "id": "e8cdb6bcd188",
    "label": "19 RUE LOU PLANAS, Saint-Jean-de-Védas",
    "lat": 43.579115,
    "lng": 3.831429,
    "transactions": [
      {
        "date": "2023-12-12",
        "priceEur": 455000,
        "typeLocal": "Maison",
        "surfaceM2": 88,
        "isVefa": false
      }
    ]
  },
  "fc28abec1cd8": {
    "id": "fc28abec1cd8",
    "label": "4 IMP RECANTOU, Saint-Jean-de-Védas",
    "lat": 43.579415,
    "lng": 3.832704,
    "transactions": [
      {
        "date": "2024-01-23",
        "priceEur": 369650,
        "typeLocal": "Maison",
        "surfaceM2": 135,
        "isVefa": false
      }
    ]
  },
  "758b69ee9b76": {
    "id": "758b69ee9b76",
    "label": "20 RUE ANDRE CHAMSON, Saint-Jean-de-Védas",
    "lat": 43.576718,
    "lng": 3.831873,
    "transactions": [
      {
        "date": "2024-02-12",
        "priceEur": 310000,
        "typeLocal": "Maison",
        "surfaceM2": 72,
        "isVefa": false
      }
    ]
  },
  "db01e9455c96": {
    "id": "db01e9455c96",
    "label": "8 RUE DE ROUDERES, Saint-Jean-de-Védas",
    "lat": 43.574369,
    "lng": 3.827883,
    "transactions": [
      {
        "date": "2024-03-27",
        "priceEur": 320000,
        "typeLocal": "Maison",
        "surfaceM2": 82,
        "isVefa": false
      },
      {
        "date": "2024-03-07",
        "priceEur": 320000,
        "typeLocal": "Maison",
        "surfaceM2": 82,
        "isVefa": false
      }
    ]
  },
  "db460560f84b": {
    "id": "db460560f84b",
    "label": "14A RTE DE MONTPELLIER, Saint-Jean-de-Védas",
    "lat": 43.575127,
    "lng": 3.831188,
    "transactions": [
      {
        "date": "2024-03-28",
        "priceEur": 6044058,
        "typeLocal": "Maison",
        "surfaceM2": 58,
        "isVefa": false
      }
    ]
  },
  "e75687f0b782": {
    "id": "e75687f0b782",
    "label": "20 RUE LOU PLANAS, Saint-Jean-de-Védas",
    "lat": 43.579534,
    "lng": 3.831009,
    "transactions": [
      {
        "date": "2024-04-24",
        "priceEur": 719800,
        "typeLocal": "Maison",
        "surfaceM2": 98,
        "isVefa": false
      }
    ]
  },
  "aa84db6c18b2": {
    "id": "aa84db6c18b2",
    "label": "41B GR GRAND RUE, Saint-Jean-de-Védas",
    "lat": 43.577485,
    "lng": 3.824303,
    "transactions": [
      {
        "date": "2024-05-03",
        "priceEur": 544000,
        "typeLocal": "Appartement",
        "surfaceM2": 74,
        "isVefa": false
      },
      {
        "date": "2024-05-03",
        "priceEur": 544000,
        "typeLocal": "Maison",
        "surfaceM2": 164,
        "isVefa": false
      }
    ]
  },
  "988a54190c4e": {
    "id": "988a54190c4e",
    "label": "2 RUE DES SOPHORAS, Saint-Jean-de-Védas",
    "lat": 43.574885,
    "lng": 3.824995,
    "transactions": [
      {
        "date": "2024-06-17",
        "priceEur": 380000,
        "typeLocal": "Maison",
        "surfaceM2": 77,
        "isVefa": false
      }
    ]
  },
  "9d178f476eef": {
    "id": "9d178f476eef",
    "label": "9 RUE DE LA TREILLE, Saint-Jean-de-Védas",
    "lat": 43.577986,
    "lng": 3.825429,
    "transactions": [
      {
        "date": "2024-06-14",
        "priceEur": 129000,
        "typeLocal": "Maison",
        "surfaceM2": 30,
        "isVefa": false
      }
    ]
  },
  "0b5fb4dc4626": {
    "id": "0b5fb4dc4626",
    "label": "1 RUE DES SOPHORAS, Saint-Jean-de-Védas",
    "lat": 43.574885,
    "lng": 3.824995,
    "transactions": [
      {
        "date": "2024-06-19",
        "priceEur": 378300,
        "typeLocal": "Maison",
        "surfaceM2": 77,
        "isVefa": false
      }
    ]
  },
  "d05826bfdbcc": {
    "id": "d05826bfdbcc",
    "label": "5 IMP DES JARDINS DE SAINT JEAN, Saint-Jean-de-Védas",
    "lat": 43.576255,
    "lng": 3.825915,
    "transactions": [
      {
        "date": "2024-06-26",
        "priceEur": 275000,
        "typeLocal": "Maison",
        "surfaceM2": 80,
        "isVefa": false
      }
    ]
  },
  "084a0c53d36d": {
    "id": "084a0c53d36d",
    "label": "47 RUE GUY PIGOULLIE, Saint-Jean-de-Védas",
    "lat": 43.575882,
    "lng": 3.828125,
    "transactions": [
      {
        "date": "2024-07-22",
        "priceEur": 126550,
        "typeLocal": "Appartement",
        "surfaceM2": 31,
        "isVefa": false
      }
    ]
  },
  "7c3b61cd9eeb": {
    "id": "7c3b61cd9eeb",
    "label": "3 RUE DE LA TREILLE, Saint-Jean-de-Védas",
    "lat": 43.577797,
    "lng": 3.82539,
    "transactions": [
      {
        "date": "2024-07-11",
        "priceEur": 294900,
        "typeLocal": "Maison",
        "surfaceM2": 80,
        "isVefa": false
      }
    ]
  },
  "549db6b831a2": {
    "id": "549db6b831a2",
    "label": "23B RUE DU PIOCH, Saint-Jean-de-Védas",
    "lat": 43.580048,
    "lng": 3.826048,
    "transactions": [
      {
        "date": "2024-07-16",
        "priceEur": 823400,
        "typeLocal": "Maison",
        "surfaceM2": 119,
        "isVefa": false
      }
    ]
  },
  "af6514c9b0fe": {
    "id": "af6514c9b0fe",
    "label": "47 GR GRAND RUE, Saint-Jean-de-Védas",
    "lat": 43.577489,
    "lng": 3.823844,
    "transactions": [
      {
        "date": "2024-08-20",
        "priceEur": 214000,
        "typeLocal": "Maison",
        "surfaceM2": 76,
        "isVefa": false
      }
    ]
  },
  "6f42d2714e4e": {
    "id": "6f42d2714e4e",
    "label": "4B RUE ENGABANAC, Saint-Jean-de-Védas",
    "lat": 43.57993,
    "lng": 3.834091,
    "transactions": [
      {
        "date": "2024-08-22",
        "priceEur": 387165,
        "typeLocal": "Maison",
        "surfaceM2": 85,
        "isVefa": false
      }
    ]
  },
  "0078d25a489e": {
    "id": "0078d25a489e",
    "label": "18 AV DE LA LIBERATION, Saint-Jean-de-Védas",
    "lat": 43.576208,
    "lng": 3.828129,
    "transactions": [
      {
        "date": "2024-08-28",
        "priceEur": 211900,
        "typeLocal": "Appartement",
        "surfaceM2": 71,
        "isVefa": false
      }
    ]
  },
  "f3cbe9f7aaec": {
    "id": "f3cbe9f7aaec",
    "label": "1 RUE DES JONQUILLES, Saint-Jean-de-Védas",
    "lat": 43.573584,
    "lng": 3.828879,
    "transactions": [
      {
        "date": "2024-09-25",
        "priceEur": 386000,
        "typeLocal": "Maison",
        "surfaceM2": 94,
        "isVefa": false
      }
    ]
  },
  "cf55ec14b2f6": {
    "id": "cf55ec14b2f6",
    "label": "15 RUE DES JONQUILLES, Saint-Jean-de-Védas",
    "lat": 43.573378,
    "lng": 3.829243,
    "transactions": [
      {
        "date": "2024-10-17",
        "priceEur": 315000,
        "typeLocal": "Maison",
        "surfaceM2": 94,
        "isVefa": false
      }
    ]
  },
  "c49f57834749": {
    "id": "c49f57834749",
    "label": "19 RUE DE LA CALADE, Saint-Jean-de-Védas",
    "lat": 43.577976,
    "lng": 3.826098,
    "transactions": [
      {
        "date": "2024-10-16",
        "priceEur": 239100,
        "typeLocal": "Appartement",
        "surfaceM2": 65,
        "isVefa": false
      }
    ]
  },
  "5fa6b72f78cd": {
    "id": "5fa6b72f78cd",
    "label": "3 RUE PIERRE JEAN VAILLARD, Saint-Jean-de-Védas",
    "lat": 43.576781,
    "lng": 3.831257,
    "transactions": [
      {
        "date": "2024-12-03",
        "priceEur": 334000,
        "typeLocal": "Maison",
        "surfaceM2": 82,
        "isVefa": false
      }
    ]
  },
  "2dfac71b0cb7": {
    "id": "2dfac71b0cb7",
    "label": "8 RTE DE BEZIERS, Saint-Jean-de-Védas",
    "lat": 43.575395,
    "lng": 3.824181,
    "transactions": [
      {
        "date": "2024-12-26",
        "priceEur": 525000,
        "typeLocal": "Maison",
        "surfaceM2": 88,
        "isVefa": false
      },
      {
        "date": "2024-12-26",
        "priceEur": 525000,
        "typeLocal": "Maison",
        "surfaceM2": 88,
        "isVefa": false
      }
    ]
  },
  "2eea1da7d883": {
    "id": "2eea1da7d883",
    "label": "3E RUE DU PETIT PRADET, Saint-Jean-de-Védas",
    "lat": 43.576712,
    "lng": 3.825607,
    "transactions": [
      {
        "date": "2025-01-22",
        "priceEur": 403200,
        "typeLocal": "Maison",
        "surfaceM2": 85,
        "isVefa": false
      }
    ]
  },
  "15ca818359c0": {
    "id": "15ca818359c0",
    "label": "17 RUE DE LA TREILLE, Saint-Jean-de-Védas",
    "lat": 43.578128,
    "lng": 3.825544,
    "transactions": [
      {
        "date": "2025-03-13",
        "priceEur": 350000,
        "typeLocal": "Maison",
        "surfaceM2": 80,
        "isVefa": false
      }
    ]
  },
  "33218778ba7e": {
    "id": "33218778ba7e",
    "label": "5 RUE DU PETIT PRADET, Saint-Jean-de-Védas",
    "lat": 43.576635,
    "lng": 3.825613,
    "transactions": [
      {
        "date": "2025-03-28",
        "priceEur": 389000,
        "typeLocal": "Maison",
        "surfaceM2": 97,
        "isVefa": false
      }
    ]
  },
  "a62a5f9da7d3": {
    "id": "a62a5f9da7d3",
    "label": "9458 IMP FONTAINE DE L'HOPITAL, Saint-Jean-de-Védas",
    "lat": 43.5793,
    "lng": 3.834016,
    "transactions": [
      {
        "date": "2025-04-17",
        "priceEur": 440000,
        "typeLocal": "Maison",
        "surfaceM2": 104,
        "isVefa": false
      }
    ]
  },
  "6951a034de86": {
    "id": "6951a034de86",
    "label": "17 RUE DES PEUPLIERS, Saint-Jean-de-Védas",
    "lat": 43.574885,
    "lng": 3.824995,
    "transactions": [
      {
        "date": "2025-05-07",
        "priceEur": 311650,
        "typeLocal": "Maison",
        "surfaceM2": 76,
        "isVefa": false
      }
    ]
  },
  "2b7c2a0f0adb": {
    "id": "2b7c2a0f0adb",
    "label": "2 IMP DES PECHEURS, Saint-Jean-de-Védas",
    "lat": 43.5748,
    "lng": 3.823308,
    "transactions": [
      {
        "date": "2025-06-09",
        "priceEur": 140000,
        "typeLocal": "Maison",
        "surfaceM2": 86,
        "isVefa": false
      }
    ]
  }
}