{
  "6748ddb7e902": {
    "id": "6748ddb7e902",
    "label": "11 VIEILLE COTE, Sassetot-le-Mauconduit",
    "lat": 49.812978,
    "lng": 0.515245,
    "transactions": [
      {
        "date": "2020-10-05",
        "priceEur": 95000,
        "typeLocal": "Maison",
        "surfaceM2": 120,
        "isVefa": false
      }
    ]
  },
  "ceba191b7b15": {
    "id": "ceba191b7b15",
    "label": "8 RUE DES PEQUEUX, Saint-Pierre-en-Port",
    "lat": 49.816179,
    "lng": 0.512996,
    "transactions": [
      {
        "date": "2020-11-03",
        "priceEur": 110400,
        "typeLocal": "Maison",
        "surfaceM2": 140,
        "isVefa": false
      }
    ]
  },
  "a0db3703d33b": {
    "id": "a0db3703d33b",
    "label": "9 VIEILLE COTE, Sassetot-le-Mauconduit",
    "lat": 49.813132,
    "lng": 0.515348,
    "transactions": [
      {
        "date": "2020-12-09",
        "priceEur": 290000,
        "typeLocal": "Maison",
        "surfaceM2": 90,
        "isVefa": false
      }
    ]
  },
  "6329715a1d8b": {
    "id": "6329715a1d8b",
    "label": "43C RUE DES PEQUEUX, Sassetot-le-Mauconduit",
    "lat": 49.815922,
    "lng": 0.514253,
    "transactions": [
      {
        "date": "2022-11-07",
        "priceEur": 22000,
        "typeLocal": "Maison",
        "surfaceM2": 53,
        "isVefa": false
      }
    ]
  },
  "e22024bad85f": {
    "id": "e22024bad85f",
    "label": "43B RUE DES PEQUEUX, Sassetot-le-Mauconduit",
    "lat": 49.815865,
    "lng": 0.514112,
    "transactions": [
      {
        "date": "2022-11-07",
        "priceEur": 22000,
        "typeLocal": "Maison",
        "surfaceM2": 50,
        "isVefa": false
      }
    ]
  },
  "40300b091716": {
    "id": "40300b091716",
    "label": "48B RUE DES PEQUEUX, Saint-Pierre-en-Port",
    "lat": 49.812911,
    "lng": 0.513978,
    "transactions": [
      {
        "date": "2022-10-28",
        "priceEur": 425000,
        "typeLocal": "Maison",
        "surfaceM2": 222,
        "isVefa": false
      }
    ]
  },
  "9d94e68754ea": {
    "id": "9d94e68754ea",
    "label": "48 RUE DES PEQUEUX, Saint-Pierre-en-Port",
    "lat": 49.812732,
    "lng": 0.513754,
    "transactions": [
      {
        "date": "2022-10-28",
        "priceEur": 425000,
        "typeLocal": "Maison",
        "surfaceM2": 43,
        "isVefa": false
      }
    ]
  },
  "6f918b38b3c9": {
    "id": "6f918b38b3c9",
    "label": "188 LE VAUCHEL, Saint-Pierre-en-Port",
    "lat": 49.81362,
    "lng": 0.511493,
    "transactions": [
      {
        "date": "2023-04-14",
        "priceEur": 56000,
        "typeLocal": "Maison",
        "surfaceM2": 56,
        "isVefa": false
      }
    ]
  },
  "bf762b1001a0": {
    "id": "bf762b1001a0",
    "label": "28 RUE DES PEQUEUX, Saint-Pierre-en-Port",
    "lat": 49.815912,
    "lng": 0.513251,
    "transactions": [
      {
        "date": "2024-01-12",
        "priceEur": 210000,
        "typeLocal": "Maison",
        "surfaceM2": 72,
        "isVefa": false
      }
    ]
  },
  "9930fff64601": {
    "id": "9930fff64601",
    "label": "36 RUE DES PEQUEUX, Saint-Pierre-en-Port",
    "lat": 49.815613,
    "lng": 0.513601,
    "transactions": [
      {
        "date": "2024-07-03",
        "priceEur": 479460,
        "typeLocal": "Maison",
        "surfaceM2": 125,
        "isVefa": false
      }
    ]
  }
}