{
  "d30f0c917c92": {
    "id": "d30f0c917c92",
    "label": "3 RUE ANDRE GIDE, Zuydcoote",
    "lat": 51.059784,
    "lng": 2.490814,
    "transactions": [
      {
        "date": "2024-12-13",
        "priceEur": 354800,
        "typeLocal": "Maison",
        "surfaceM2": 129,
        "isVefa": false
      },
      {
        "date": "2020-10-29",
        "priceEur": 280000,
        "typeLocal": "Maison",
        "surfaceM2": 129,
        "isVefa": false
      }
    ]
  },
  "19494d577f5b": {
    "id": "19494d577f5b",
    "label": "51 RUE DU GEN DE GAULLE, Zuydcoote",
    "lat": 51.060875,
    "lng": 2.492934,
    "transactions": [
      {
        "date": "2020-10-26",
        "priceEur": 211000,
        "typeLocal": "Maison",
        "surfaceM2": 95,
        "isVefa": false
      }
    ]
  },
  "48367f600fff": {
    "id": "48367f600fff",
    "label": "118 RUE DES CREVETTES, Zuydcoote",
    "lat": 51.061713,
    "lng": 2.483911,
    "transactions": [
      {
        "date": "2021-01-22",
        "priceEur": 150000,
        "typeLocal": "Maison",
        "surfaceM2": 95,
        "isVefa": false
      }
    ]
  },
  "075c300e8808": {
    "id": "075c300e8808",
    "label": "34 RUE ANDRE GIDE, Zuydcoote",
    "lat": 51.06158,
    "lng": 2.489506,
    "transactions": [
      {
        "date": "2021-04-29",
        "priceEur": 263100,
        "typeLocal": "Maison",
        "surfaceM2": 98,
        "isVefa": false
      }
    ]
  },
  "f6bbb35feb8a": {
    "id": "f6bbb35feb8a",
    "label": "53 RUE DU GEN DE GAULLE, Zuydcoote",
    "lat": 51.060962,
    "lng": 2.492858,
    "transactions": [
      {
        "date": "2022-03-22",
        "priceEur": 208100,
        "typeLocal": "Maison",
        "surfaceM2": 100,
        "isVefa": false
      }
    ]
  },
  "91564ddd4f0a": {
    "id": "91564ddd4f0a",
    "label": "3 RUE FRANCOIS MAURIAC, Zuydcoote",
    "lat": 51.060305,
    "lng": 2.491753,
    "transactions": [
      {
        "date": "2023-01-30",
        "priceEur": 260000,
        "typeLocal": "Maison",
        "surfaceM2": 80,
        "isVefa": false
      }
    ]
  },
  "cfc540bab058": {
    "id": "cfc540bab058",
    "label": "12 RUE DES PEUPLIERS, Zuydcoote",
    "lat": 51.06016,
    "lng": 2.493201,
    "transactions": [
      {
        "date": "2023-08-17",
        "priceEur": 250000,
        "typeLocal": "Maison",
        "surfaceM2": 132,
        "isVefa": false
      }
    ]
  },
  "13207725600f": {
    "id": "13207725600f",
    "label": "3 RUE MARTIN LUTHER KING, Zuydcoote",
    "lat": 51.061282,
    "lng": 2.488989,
    "transactions": [
      {
        "date": "2023-12-08",
        "priceEur": 313220,
        "typeLocal": "Maison",
        "surfaceM2": 116,
        "isVefa": false
      }
    ]
  },
  "dcafe075cdd4": {
    "id": "dcafe075cdd4",
    "label": "16 CHE PRIVE, Zuydcoote",
    "lat": 51.061713,
    "lng": 2.483911,
    "transactions": [
      {
        "date": "2023-12-18",
        "priceEur": 140000,
        "typeLocal": "Maison",
        "surfaceM2": 80,
        "isVefa": false
      }
    ]
  },
  "67e6fba67647": {
    "id": "67e6fba67647",
    "label": "16 RUE ANDRE GIDE, Zuydcoote",
    "lat": 51.059552,
    "lng": 2.490447,
    "transactions": [
      {
        "date": "2024-03-07",
        "priceEur": 332500,
        "typeLocal": "Maison",
        "surfaceM2": 110,
        "isVefa": false
      }
    ]
  },
  "6991851d770b": {
    "id": "6991851d770b",
    "label": "35 RUE DU GEN DE GAULLE, Zuydcoote",
    "lat": 51.060406,
    "lng": 2.493396,
    "transactions": [
      {
        "date": "2025-02-11",
        "priceEur": 255000,
        "typeLocal": "Maison",
        "surfaceM2": 153,
        "isVefa": false
      }
    ]
  },
  "a2854da38b34": {
    "id": "a2854da38b34",
    "label": "32 RUE ANDRE GIDE, Zuydcoote",
    "lat": 51.061462,
    "lng": 2.489347,
    "transactions": [
      {
        "date": "2025-04-24",
        "priceEur": 425000,
        "typeLocal": "Maison",
        "surfaceM2": 169,
        "isVefa": false
      }
    ]
  },
  "a27b0b6ef7e1": {
    "id": "a27b0b6ef7e1",
    "label": "55 RUE DU GEN DE GAULLE, Zuydcoote",
    "lat": 51.061023,
    "lng": 2.492794,
    "transactions": [
      {
        "date": "2025-04-28",
        "priceEur": 166000,
        "typeLocal": "Maison",
        "surfaceM2": 130,
        "isVefa": false
      }
    ]
  }
}