{
  "8f94dfd787f6": {
    "id": "8f94dfd787f6",
    "label": "2 RUE DES GENETS, Cers",
    "lat": 43.32662,
    "lng": 3.309553,
    "transactions": [
      {
        "date": "2020-11-20",
        "priceEur": 275000,
        "typeLocal": "Maison",
        "surfaceM2": 79,
        "isVefa": false
      }
    ]
  },
  "71033039d840": {
    "id": "71033039d840",
    "label": "7 IMP DES PALMIERS, Cers",
    "lat": 43.325218,
    "lng": 3.30689,
    "transactions": [
      {
        "date": "2021-02-25",
        "priceEur": 274420,
        "typeLocal": "Maison",
        "surfaceM2": 135,
        "isVefa": false
      }
    ]
  },
  "6fc54bb5fd47": {
    "id": "6fc54bb5fd47",
    "label": "10 IMP DES BLANQUETTES, Cers",
    "lat": 43.326565,
    "lng": 3.308583,
    "transactions": [
      {
        "date": "2021-03-23",
        "priceEur": 165000,
        "typeLocal": "Maison",
        "surfaceM2": 97,
        "isVefa": false
      }
    ]
  },
  "824627e740d1": {
    "id": "824627e740d1",
    "label": "20B RUE DES LILAS, Cers",
    "lat": 43.32678,
    "lng": 3.311626,
    "transactions": [
      {
        "date": "2021-05-29",
        "priceEur": 60250,
        "typeLocal": "Maison",
        "surfaceM2": 86,
        "isVefa": false
      }
    ]
  },
  "a42cb89acd87": {
    "id": "a42cb89acd87",
    "label": "6 IMP DU ROMARIN, Cers",
    "lat": 43.326108,
    "lng": 3.311678,
    "transactions": [
      {
        "date": "2021-06-21",
        "priceEur": 207000,
        "typeLocal": "Maison",
        "surfaceM2": 86,
        "isVefa": false
      }
    ]
  },
  "1fea2a42cdbe": {
    "id": "1fea2a42cdbe",
    "label": "5 IMP DES BLANQUETTES, Cers",
    "lat": 43.326627,
    "lng": 3.30799,
    "transactions": [
      {
        "date": "2021-08-27",
        "priceEur": 284400,
        "typeLocal": "Maison",
        "surfaceM2": 88,
        "isVefa": false
      }
    ]
  },
  "ea79cdf882f8": {
    "id": "ea79cdf882f8",
    "label": "3 RUE DES TAMARIS, Cers",
    "lat": 43.326155,
    "lng": 3.313054,
    "transactions": [
      {
        "date": "2021-10-07",
        "priceEur": 295500,
        "typeLocal": "Maison",
        "surfaceM2": 82,
        "isVefa": false
      }
    ]
  },
  "70c0dfee36ce": {
    "id": "70c0dfee36ce",
    "label": "16 RUE DES ARBOUSIERS, Cers",
    "lat": 43.326055,
    "lng": 3.310521,
    "transactions": [
      {
        "date": "2022-04-28",
        "priceEur": 450000,
        "typeLocal": "Maison",
        "surfaceM2": 121,
        "isVefa": false
      }
    ]
  },
  "7838e390de62": {
    "id": "7838e390de62",
    "label": "1 RUE DES TAMARIS, Cers",
    "lat": 43.326282,
    "lng": 3.313191,
    "transactions": [
      {
        "date": "2022-08-30",
        "priceEur": 342200,
        "typeLocal": "Maison",
        "surfaceM2": 142,
        "isVefa": false
      }
    ]
  },
  "7b3f9679fff0": {
    "id": "7b3f9679fff0",
    "label": "15 RUE DE LA LAVANDE, Cers",
    "lat": 43.325364,
    "lng": 3.310638,
    "transactions": [
      {
        "date": "2022-09-05",
        "priceEur": 313570,
        "typeLocal": "Maison",
        "surfaceM2": 126,
        "isVefa": false
      }
    ]
  },
  "1284dadcab6b": {
    "id": "1284dadcab6b",
    "label": "24 RUE DES LILAS, Cers",
    "lat": 43.326246,
    "lng": 3.312403,
    "transactions": [
      {
        "date": "2022-07-01",
        "priceEur": 413250,
        "typeLocal": "Maison",
        "surfaceM2": 116,
        "isVefa": false
      },
      {
        "date": "2022-07-01",
        "priceEur": 413250,
        "typeLocal": "Maison",
        "surfaceM2": 116,
        "isVefa": false
      }
    ]
  },
  "22b1375bb83a": {
    "id": "22b1375bb83a",
    "label": "18B RUE DE LA LAVANDE, Cers",
    "lat": 43.326379,
    "lng": 3.308676,
    "transactions": [
      {
        "date": "2022-09-20",
        "priceEur": 311250,
        "typeLocal": "Maison",
        "surfaceM2": 90,
        "isVefa": false
      }
    ]
  },
  "99b8874a1a50": {
    "id": "99b8874a1a50",
    "label": "7 RUE DES LILAS, Cers",
    "lat": 43.327608,
    "lng": 3.30965,
    "transactions": [
      {
        "date": "2022-11-15",
        "priceEur": 168000,
        "typeLocal": "Maison",
        "surfaceM2": 72,
        "isVefa": false
      }
    ]
  },
  "4bbbc712b49c": {
    "id": "4bbbc712b49c",
    "label": "10 RUE DE LA LAVANDE, Cers",
    "lat": 43.325935,
    "lng": 3.310199,
    "transactions": [
      {
        "date": "2022-11-28",
        "priceEur": 345950,
        "typeLocal": "Maison",
        "surfaceM2": 95,
        "isVefa": false
      }
    ]
  },
  "0d83dbf92305": {
    "id": "0d83dbf92305",
    "label": "1 IMP DES AMANDIERS, Cers",
    "lat": 43.325583,
    "lng": 3.306957,
    "transactions": [
      {
        "date": "2022-12-07",
        "priceEur": 524000,
        "typeLocal": "Maison",
        "surfaceM2": 143,
        "isVefa": false
      },
      {
        "date": "2022-12-07",
        "priceEur": 524000,
        "typeLocal": "Maison",
        "surfaceM2": 143,
        "isVefa": false
      }
    ]
  },
  "3d7861a8c1a0": {
    "id": "3d7861a8c1a0",
    "label": "1 RUE DES LILAS, Cers",
    "lat": 43.327227,
    "lng": 3.30899,
    "transactions": [
      {
        "date": "2023-03-09",
        "priceEur": 193500,
        "typeLocal": "Maison",
        "surfaceM2": 94,
        "isVefa": false
      }
    ]
  },
  "a2c4cec93247": {
    "id": "a2c4cec93247",
    "label": "8 IMP DU ROMARIN, Cers",
    "lat": 43.326179,
    "lng": 3.311731,
    "transactions": [
      {
        "date": "2023-05-26",
        "priceEur": 170000,
        "typeLocal": "Maison",
        "surfaceM2": 88,
        "isVefa": false
      }
    ]
  },
  "756d3b4a2758": {
    "id": "756d3b4a2758",
    "label": "5 RUE DES EGLANTIERS, Cers",
    "lat": 43.326836,
    "lng": 3.310641,
    "transactions": [
      {
        "date": "2023-06-28",
        "priceEur": 363700,
        "typeLocal": "Maison",
        "surfaceM2": 130,
        "isVefa": false
      }
    ]
  },
  "122489b2ce45": {
    "id": "122489b2ce45",
    "label": "22B RUE DES LILAS, Cers",
    "lat": 43.326671,
    "lng": 3.311777,
    "transactions": [
      {
        "date": "2023-09-08",
        "priceEur": 458000,
        "typeLocal": "Maison",
        "surfaceM2": 156,
        "isVefa": false
      }
    ]
  },
  "e2c4bae52691": {
    "id": "e2c4bae52691",
    "label": "2 RUE DE LA LAVANDE, Cers",
    "lat": 43.325568,
    "lng": 3.311008,
    "transactions": [
      {
        "date": "2024-03-26",
        "priceEur": 274100,
        "typeLocal": "Maison",
        "surfaceM2": 104,
        "isVefa": false
      }
    ]
  },
  "f7e72a50e816": {
    "id": "f7e72a50e816",
    "label": "4 RUE DES TAMARIS, Cers",
    "lat": 43.32612,
    "lng": 3.312018,
    "transactions": [
      {
        "date": "2024-05-02",
        "priceEur": 185000,
        "typeLocal": "Maison",
        "surfaceM2": 70,
        "isVefa": false
      }
    ]
  },
  "2f5ca076a8d9": {
    "id": "2f5ca076a8d9",
    "label": "20 RUE DES LILAS, Cers",
    "lat": 43.32688,
    "lng": 3.311448,
    "transactions": [
      {
        "date": "2024-06-26",
        "priceEur": 333979,
        "typeLocal": "Maison",
        "surfaceM2": 100,
        "isVefa": false
      }
    ]
  }
}