{
  "9b332eb45803": {
    "id": "9b332eb45803",
    "label": "5165 VILLAGE, Cébazan",
    "lat": 43.407861,
    "lng": 2.971926,
    "transactions": [
      {
        "date": "2020-07-15",
        "priceEur": 105800,
        "typeLocal": "Maison",
        "surfaceM2": 110,
        "isVefa": false
      }
    ]
  },
  "cbe816a0e30e": {
    "id": "cbe816a0e30e",
    "label": "5212 RUE DU PARC, Cébazan",
    "lat": 43.40518,
    "lng": 2.970239,
    "transactions": [
      {
        "date": "2020-10-16",
        "priceEur": 145000,
        "typeLocal": "Appartement",
        "surfaceM2": 50,
        "isVefa": false
      },
      {
        "date": "2020-10-16",
        "priceEur": 145000,
        "typeLocal": "Appartement",
        "surfaceM2": 150,
        "isVefa": false
      }
    ]
  },
  "aa40fd28a100": {
    "id": "aa40fd28a100",
    "label": "5020 RUE DE L ACACIA, Cébazan",
    "lat": 43.40716,
    "lng": 2.972624,
    "transactions": [
      {
        "date": "2020-10-23",
        "priceEur": 61000,
        "typeLocal": "Maison",
        "surfaceM2": 81,
        "isVefa": false
      }
    ]
  },
  "0d06d23af48b": {
    "id": "0d06d23af48b",
    "label": "4 LOT LO DARO, Cébazan",
    "lat": 43.406712,
    "lng": 2.976452,
    "transactions": [
      {
        "date": "2021-01-25",
        "priceEur": 245000,
        "typeLocal": "Maison",
        "surfaceM2": 112,
        "isVefa": false
      }
    ]
  },
  "bb6f6f46d667": {
    "id": "bb6f6f46d667",
    "label": "14 RUE DU HAMEAU DE GACHES, Cébazan",
    "lat": 43.4059,
    "lng": 2.972093,
    "transactions": [
      {
        "date": "2021-02-05",
        "priceEur": 262500,
        "typeLocal": "Maison",
        "surfaceM2": 127,
        "isVefa": false
      }
    ]
  },
  "1196fc404e1f": {
    "id": "1196fc404e1f",
    "label": "5199 RUE DU HAMEAU DE GACHES, Cébazan",
    "lat": 43.405488,
    "lng": 2.970588,
    "transactions": [
      {
        "date": "2021-04-26",
        "priceEur": 68300,
        "typeLocal": "Maison",
        "surfaceM2": 49,
        "isVefa": false
      }
    ]
  },
  "17e7c5623b24": {
    "id": "17e7c5623b24",
    "label": "6 PL DU ROSIER, Cébazan",
    "lat": 43.407292,
    "lng": 2.973352,
    "transactions": [
      {
        "date": "2021-05-28",
        "priceEur": 135000,
        "typeLocal": "Maison",
        "surfaceM2": 62,
        "isVefa": false
      }
    ]
  },
  "7294958d6184": {
    "id": "7294958d6184",
    "label": "7 RUE DU QUARTIER NEUF, Cébazan",
    "lat": 43.406511,
    "lng": 2.976858,
    "transactions": [
      {
        "date": "2021-06-28",
        "priceEur": 203940,
        "typeLocal": "Maison",
        "surfaceM2": 94,
        "isVefa": false
      }
    ]
  },
  "bfabcd4e4e51": {
    "id": "bfabcd4e4e51",
    "label": "5205 RUE DU HAMEAU DE GACHES, Cébazan",
    "lat": 43.405694,
    "lng": 2.970669,
    "transactions": [
      {
        "date": "2021-06-25",
        "priceEur": 106000,
        "typeLocal": "Maison",
        "surfaceM2": 86,
        "isVefa": false
      }
    ]
  },
  "71f22859e086": {
    "id": "71f22859e086",
    "label": "19 BD JULES FERRY, Cébazan",
    "lat": 43.405541,
    "lng": 2.97307,
    "transactions": [
      {
        "date": "2021-07-29",
        "priceEur": 280000,
        "typeLocal": "Maison",
        "surfaceM2": 123,
        "isVefa": false
      }
    ]
  },
  "9fe8009f21d8": {
    "id": "9fe8009f21d8",
    "label": "5448F RUE DU HAMEAU DE GACHES, Cébazan",
    "lat": 43.408109,
    "lng": 2.972623,
    "transactions": [
      {
        "date": "2021-09-23",
        "priceEur": 159200,
        "typeLocal": "Maison",
        "surfaceM2": 76,
        "isVefa": false
      }
    ]
  },
  "0f778f1a8289": {
    "id": "0f778f1a8289",
    "label": "5067 RUE DU HAMEAU DE GACHES, Cébazan",
    "lat": 43.407178,
    "lng": 2.972331,
    "transactions": [
      {
        "date": "2021-12-09",
        "priceEur": 221535,
        "typeLocal": "Maison",
        "surfaceM2": 80,
        "isVefa": false
      }
    ]
  },
  "086279cc7e98": {
    "id": "086279cc7e98",
    "label": "5051 RTE DE BEZIERS, Cébazan",
    "lat": 43.406379,
    "lng": 2.968938,
    "transactions": [
      {
        "date": "2021-12-23",
        "priceEur": 160000,
        "typeLocal": "Maison",
        "surfaceM2": 68,
        "isVefa": false
      }
    ]
  },
  "6f0d14847efa": {
    "id": "6f0d14847efa",
    "label": "6288F RUE DU CLAPAS, Cébazan",
    "lat": 43.405159,
    "lng": 2.976153,
    "transactions": [
      {
        "date": "2021-12-15",
        "priceEur": 275000,
        "typeLocal": "Maison",
        "surfaceM2": 120,
        "isVefa": false
      }
    ]
  },
  "3130890dedf6": {
    "id": "3130890dedf6",
    "label": "5140 RUE DROITE, Cébazan",
    "lat": 43.407134,
    "lng": 2.973036,
    "transactions": [
      {
        "date": "2022-04-04",
        "priceEur": 115860,
        "typeLocal": "Maison",
        "surfaceM2": 70,
        "isVefa": false
      }
    ]
  },
  "e908044e6945": {
    "id": "e908044e6945",
    "label": "5185 RUE DU HAMEAU DE GACHES, Cébazan",
    "lat": 43.407969,
    "lng": 2.972475,
    "transactions": [
      {
        "date": "2022-04-13",
        "priceEur": 52250,
        "typeLocal": "Maison",
        "surfaceM2": 80,
        "isVefa": false
      }
    ]
  },
  "8f1b04994130": {
    "id": "8f1b04994130",
    "label": "5100 RUE DROITE, Cébazan",
    "lat": 43.407098,
    "lng": 2.972854,
    "transactions": [
      {
        "date": "2022-04-29",
        "priceEur": 148545,
        "typeLocal": "Maison",
        "surfaceM2": 140,
        "isVefa": false
      }
    ]
  },
  "284cbacd351a": {
    "id": "284cbacd351a",
    "label": "5029 RUE DU HAMEAU DE GACHES, Cébazan",
    "lat": 43.40604,
    "lng": 2.971371,
    "transactions": [
      {
        "date": "2022-06-29",
        "priceEur": 60000,
        "typeLocal": "Maison",
        "surfaceM2": 50,
        "isVefa": false
      }
    ]
  },
  "12aca3a72a1d": {
    "id": "12aca3a72a1d",
    "label": "5193 RUE DU HAMEAU DE GACHES, Cébazan",
    "lat": 43.408002,
    "lng": 2.972442,
    "transactions": [
      {
        "date": "2022-06-30",
        "priceEur": 236160,
        "typeLocal": "Maison",
        "surfaceM2": 120,
        "isVefa": false
      }
    ]
  },
  "88b81898e5c4": {
    "id": "88b81898e5c4",
    "label": "92 AV DE BEZIERS, Cébazan",
    "lat": 43.405836,
    "lng": 2.970224,
    "transactions": [
      {
        "date": "2023-10-25",
        "priceEur": 340000,
        "typeLocal": "Maison",
        "surfaceM2": 220,
        "isVefa": false
      }
    ]
  },
  "c27e85fd575d": {
    "id": "c27e85fd575d",
    "label": "6269 RUE DU CLAPAS, Cébazan",
    "lat": 43.405197,
    "lng": 2.97527,
    "transactions": [
      {
        "date": "2024-02-05",
        "priceEur": 232000,
        "typeLocal": "Maison",
        "surfaceM2": 94,
        "isVefa": false
      }
    ]
  },
  "7ed11d449b8b": {
    "id": "7ed11d449b8b",
    "label": "6 LOT LO DARO, Cébazan",
    "lat": 43.406618,
    "lng": 2.976788,
    "transactions": [
      {
        "date": "2024-04-26",
        "priceEur": 240200,
        "typeLocal": "Maison",
        "surfaceM2": 102,
        "isVefa": false
      }
    ]
  },
  "f0c0cdbffe85": {
    "id": "f0c0cdbffe85",
    "label": "1 RUE DU QUARTIER NEUF, Cébazan",
    "lat": 43.407219,
    "lng": 2.973824,
    "transactions": [
      {
        "date": "2024-04-24",
        "priceEur": 210000,
        "typeLocal": "Maison",
        "surfaceM2": 75,
        "isVefa": false
      }
    ]
  },
  "5a60dd897cc0": {
    "id": "5a60dd897cc0",
    "label": "31 RUE DU HAMEAU DE GACHES, Cébazan",
    "lat": 43.407178,
    "lng": 2.972331,
    "transactions": [
      {
        "date": "2024-06-20",
        "priceEur": 250000,
        "typeLocal": "Maison",
        "surfaceM2": 80,
        "isVefa": false
      }
    ]
  },
  "794b05ad1305": {
    "id": "794b05ad1305",
    "label": "2 RUE IMPERIALE, Cébazan",
    "lat": 43.406379,
    "lng": 2.968938,
    "transactions": [
      {
        "date": "2024-06-18",
        "priceEur": 200100,
        "typeLocal": "Maison",
        "surfaceM2": 68,
        "isVefa": false
      }
    ]
  },
  "b1da081271cc": {
    "id": "b1da081271cc",
    "label": "5034 RTE NATIONALE 112, Cébazan",
    "lat": 43.405426,
    "lng": 2.971115,
    "transactions": [
      {
        "date": "2024-11-07",
        "priceEur": 185000,
        "typeLocal": "Maison",
        "surfaceM2": 96,
        "isVefa": false
      }
    ]
  },
  "d42c602f0e68": {
    "id": "d42c602f0e68",
    "label": "5019 RUE DROITE, Cébazan",
    "lat": 43.407148,
    "lng": 2.97314,
    "transactions": [
      {
        "date": "2025-02-17",
        "priceEur": 65000,
        "typeLocal": "Maison",
        "surfaceM2": 63,
        "isVefa": false
      }
    ]
  }
}