{
  "f41b7c716253": {
    "id": "f41b7c716253",
    "label": "24 RUE DES VIOLETTES, Oissel",
    "lat": 49.360218,
    "lng": 1.096108,
    "transactions": [
      {
        "date": "2020-08-28",
        "priceEur": 86000,
        "typeLocal": "Maison",
        "surfaceM2": 66,
        "isVefa": false
      }
    ]
  },
  "813feda45635": {
    "id": "813feda45635",
    "label": "13 RUE DE SAVOIE, Oissel",
    "lat": 49.355389,
    "lng": 1.097198,
    "transactions": [
      {
        "date": "2020-10-29",
        "priceEur": 145000,
        "typeLocal": "Maison",
        "surfaceM2": 78,
        "isVefa": false
      }
    ]
  },
  "c85cc2050b9e": {
    "id": "c85cc2050b9e",
    "label": "4 HAM DU CHATAIGNIER, Oissel",
    "lat": 49.355389,
    "lng": 1.097198,
    "transactions": [
      {
        "date": "2020-10-20",
        "priceEur": 147942,
        "typeLocal": "Maison",
        "surfaceM2": 91,
        "isVefa": false
      }
    ]
  },
  "36b3ecc755d0": {
    "id": "36b3ecc755d0",
    "label": "25 RUE DES VIOLETTES, Oissel",
    "lat": 49.359275,
    "lng": 1.095484,
    "transactions": [
      {
        "date": "2020-11-17",
        "priceEur": 115000,
        "typeLocal": "Maison",
        "surfaceM2": 66,
        "isVefa": false
      }
    ]
  },
  "a2785f41c1f0": {
    "id": "a2785f41c1f0",
    "label": "19 RUE D ANJOU, Oissel",
    "lat": 49.359039,
    "lng": 1.098384,
    "transactions": [
      {
        "date": "2020-11-23",
        "priceEur": 99000,
        "typeLocal": "Maison",
        "surfaceM2": 84,
        "isVefa": false
      }
    ]
  },
  "bcbe8e762d36": {
    "id": "bcbe8e762d36",
    "label": "9 RUE RENE BEAUCOUSIN, Oissel",
    "lat": 49.353777,
    "lng": 1.092015,
    "transactions": [
      {
        "date": "2020-11-24",
        "priceEur": 240000,
        "typeLocal": "Maison",
        "surfaceM2": 113,
        "isVefa": false
      }
    ]
  },
  "d7bc752b0101": {
    "id": "d7bc752b0101",
    "label": "3 RUE DU MUGUET, Oissel",
    "lat": 49.359718,
    "lng": 1.095917,
    "transactions": [
      {
        "date": "2020-12-30",
        "priceEur": 125000,
        "typeLocal": "Maison",
        "surfaceM2": 71,
        "isVefa": false
      }
    ]
  },
  "67c6aad43350": {
    "id": "67c6aad43350",
    "label": "10 PL DE NORMANDIE, Oissel",
    "lat": 49.35867,
    "lng": 1.09796,
    "transactions": [
      {
        "date": "2021-05-11",
        "priceEur": 191000,
        "typeLocal": "Maison",
        "surfaceM2": 66,
        "isVefa": false
      }
    ]
  },
  "04d4f862aaae": {
    "id": "04d4f862aaae",
    "label": "18 RUE DES VIOLETTES, Oissel",
    "lat": 49.360649,
    "lng": 1.096789,
    "transactions": [
      {
        "date": "2021-04-30",
        "priceEur": 125000,
        "typeLocal": "Maison",
        "surfaceM2": 71,
        "isVefa": false
      }
    ]
  },
  "ff880f535b31": {
    "id": "ff880f535b31",
    "label": "33 RUE DES VIOLETTES, Oissel",
    "lat": 49.358505,
    "lng": 1.095917,
    "transactions": [
      {
        "date": "2021-05-21",
        "priceEur": 179900,
        "typeLocal": "Maison",
        "surfaceM2": 80,
        "isVefa": false
      }
    ]
  },
  "7954440f19c0": {
    "id": "7954440f19c0",
    "label": "26 RUE DES ACACIAS, Oissel",
    "lat": 49.360612,
    "lng": 1.095026,
    "transactions": [
      {
        "date": "2021-06-10",
        "priceEur": 209000,
        "typeLocal": "Maison",
        "surfaceM2": 130,
        "isVefa": false
      }
    ]
  },
  "e035e0e4149e": {
    "id": "e035e0e4149e",
    "label": "9A CLOS DE L'EPINETTE, Oissel",
    "lat": 49.35464,
    "lng": 1.093143,
    "transactions": [
      {
        "date": "2021-07-05",
        "priceEur": 340500,
        "typeLocal": "Maison",
        "surfaceM2": 146,
        "isVefa": false
      }
    ]
  },
  "b07a06318dd6": {
    "id": "b07a06318dd6",
    "label": "4 PL DES BLEUETS, Oissel",
    "lat": 49.360503,
    "lng": 1.097768,
    "transactions": [
      {
        "date": "2021-06-29",
        "priceEur": 133000,
        "typeLocal": "Maison",
        "surfaceM2": 85,
        "isVefa": false
      }
    ]
  },
  "d2e18d43efcd": {
    "id": "d2e18d43efcd",
    "label": "60 AV DE L AMITIE, Oissel",
    "lat": 49.355389,
    "lng": 1.097198,
    "transactions": [
      {
        "date": "2021-09-03",
        "priceEur": 180000,
        "typeLocal": "Maison",
        "surfaceM2": 81,
        "isVefa": false
      }
    ]
  },
  "5152c2dd8479": {
    "id": "5152c2dd8479",
    "label": "44 AV DE L AMITIE, Oissel",
    "lat": 49.355389,
    "lng": 1.097198,
    "transactions": [
      {
        "date": "2021-09-13",
        "priceEur": 181900,
        "typeLocal": "Maison",
        "surfaceM2": 88,
        "isVefa": false
      }
    ]
  },
  "8c7e50a45eb0": {
    "id": "8c7e50a45eb0",
    "label": "11 RUE DES VIOLETTES, Oissel",
    "lat": 49.360594,
    "lng": 1.097287,
    "transactions": [
      {
        "date": "2021-10-28",
        "priceEur": 110000,
        "typeLocal": "Maison",
        "surfaceM2": 66,
        "isVefa": false
      }
    ]
  },
  "6a2cf9f1931e": {
    "id": "6a2cf9f1931e",
    "label": "25 RUE RENE BEAUCOUSIN, Oissel",
    "lat": 49.354891,
    "lng": 1.090363,
    "transactions": [
      {
        "date": "2021-10-28",
        "priceEur": 220000,
        "typeLocal": "Maison",
        "surfaceM2": 111,
        "isVefa": false
      }
    ]
  },
  "ea20458e0272": {
    "id": "ea20458e0272",
    "label": "14 AV DE LA FRATERNITE, Oissel",
    "lat": 49.359226,
    "lng": 1.097964,
    "transactions": [
      {
        "date": "2021-11-08",
        "priceEur": 194100,
        "typeLocal": "Maison",
        "surfaceM2": 67,
        "isVefa": false
      }
    ]
  },
  "39b9ed8ef10e": {
    "id": "39b9ed8ef10e",
    "label": "10 HAM DE LA HETRAIE, Oissel",
    "lat": 49.355389,
    "lng": 1.097198,
    "transactions": [
      {
        "date": "2022-01-25",
        "priceEur": 160250,
        "typeLocal": "Maison",
        "surfaceM2": 78,
        "isVefa": false
      }
    ]
  },
  "8bf0b4f4a25a": {
    "id": "8bf0b4f4a25a",
    "label": "13 RUE DE BOURGOGNE, Oissel",
    "lat": 49.356293,
    "lng": 1.098246,
    "transactions": [
      {
        "date": "2022-04-12",
        "priceEur": 173000,
        "typeLocal": "Maison",
        "surfaceM2": 61,
        "isVefa": false
      }
    ]
  },
  "7162a2f7da75": {
    "id": "7162a2f7da75",
    "label": "5 IMP DES PINS, Oissel",
    "lat": 49.354351,
    "lng": 1.089654,
    "transactions": [
      {
        "date": "2022-05-12",
        "priceEur": 240970,
        "typeLocal": "Maison",
        "surfaceM2": 120,
        "isVefa": false
      }
    ]
  },
  "332712c72ccf": {
    "id": "332712c72ccf",
    "label": "13 RUE DES VIOLETTES, Oissel",
    "lat": 49.36051,
    "lng": 1.097042,
    "transactions": [
      {
        "date": "2022-05-31",
        "priceEur": 219500,
        "typeLocal": "Maison",
        "surfaceM2": 90,
        "isVefa": false
      }
    ]
  },
  "4e827d4f76cc": {
    "id": "4e827d4f76cc",
    "label": "6 RUE DES ROSIERS, Oissel",
    "lat": 49.359969,
    "lng": 1.094517,
    "transactions": [
      {
        "date": "2022-05-31",
        "priceEur": 133000,
        "typeLocal": "Maison",
        "surfaceM2": 71,
        "isVefa": false
      }
    ]
  },
  "dbb582bb733d": {
    "id": "dbb582bb733d",
    "label": "6 AV DE LA FRATERNITE, Oissel",
    "lat": 49.358632,
    "lng": 1.097732,
    "transactions": [
      {
        "date": "2022-05-20",
        "priceEur": 174600,
        "typeLocal": "Maison",
        "surfaceM2": 47,
        "isVefa": false
      }
    ]
  },
  "96b728b1114d": {
    "id": "96b728b1114d",
    "label": "27 RUE DES VIOLETTES, Oissel",
    "lat": 49.359151,
    "lng": 1.095404,
    "transactions": [
      {
        "date": "2022-06-29",
        "priceEur": 135000,
        "typeLocal": "Maison",
        "surfaceM2": 85,
        "isVefa": false
      }
    ]
  },
  "f002135157f7": {
    "id": "f002135157f7",
    "label": "12 CLOS DE L'EPINETTE, Oissel",
    "lat": 49.355181,
    "lng": 1.093242,
    "transactions": [
      {
        "date": "2022-06-28",
        "priceEur": 240000,
        "typeLocal": "Maison",
        "surfaceM2": 114,
        "isVefa": false
      }
    ]
  },
  "3cb7f04b290b": {
    "id": "3cb7f04b290b",
    "label": "9 RUE ADRIEN CORVAISIER, Oissel",
    "lat": 49.354438,
    "lng": 1.091954,
    "transactions": [
      {
        "date": "2022-06-27",
        "priceEur": 289900,
        "typeLocal": "Maison",
        "surfaceM2": 115,
        "isVefa": false
      }
    ]
  },
  "b9770805e528": {
    "id": "b9770805e528",
    "label": "8 RUE RENE BEAUCOUSIN, Oissel",
    "lat": 49.35462,
    "lng": 1.091631,
    "transactions": [
      {
        "date": "2022-11-25",
        "priceEur": 223000,
        "typeLocal": "Maison",
        "surfaceM2": 91,
        "isVefa": false
      }
    ]
  },
  "e4581c89d90c": {
    "id": "e4581c89d90c",
    "label": "54 AV DE L AMITIE, Oissel",
    "lat": 49.355389,
    "lng": 1.097198,
    "transactions": [
      {
        "date": "2023-01-18",
        "priceEur": 150000,
        "typeLocal": "Maison",
        "surfaceM2": 108,
        "isVefa": false
      }
    ]
  },
  "59cc40071a5d": {
    "id": "59cc40071a5d",
    "label": "19 AV DE LA FRATERNITE, Oissel",
    "lat": 49.36052,
    "lng": 1.098244,
    "transactions": [
      {
        "date": "2023-01-31",
        "priceEur": 126000,
        "typeLocal": "Maison",
        "surfaceM2": 77,
        "isVefa": false
      }
    ]
  },
  "1d914a5d3274": {
    "id": "1d914a5d3274",
    "label": "17 RUE DE SAVOIE, Oissel",
    "lat": 49.3565,
    "lng": 1.097461,
    "transactions": [
      {
        "date": "2023-04-03",
        "priceEur": 170000,
        "typeLocal": "Maison",
        "surfaceM2": 69,
        "isVefa": false
      }
    ]
  },
  "22c3539b0748": {
    "id": "22c3539b0748",
    "label": "28 RUE D ANJOU, Oissel",
    "lat": 49.359409,
    "lng": 1.098526,
    "transactions": [
      {
        "date": "2023-04-13",
        "priceEur": 179000,
        "typeLocal": "Maison",
        "surfaceM2": 83,
        "isVefa": false
      }
    ]
  },
  "940deb392bc0": {
    "id": "940deb392bc0",
    "label": "1 RUE DES POMMIERS, Oissel",
    "lat": 49.358921,
    "lng": 1.095335,
    "transactions": [
      {
        "date": "2023-04-28",
        "priceEur": 160000,
        "typeLocal": "Maison",
        "surfaceM2": 73,
        "isVefa": false
      }
    ]
  },
  "d0724b8a90c1": {
    "id": "d0724b8a90c1",
    "label": "21 AV DE L AMITIE, Oissel",
    "lat": 49.354753,
    "lng": 1.094459,
    "transactions": [
      {
        "date": "2023-12-11",
        "priceEur": 218800,
        "typeLocal": "Maison",
        "surfaceM2": 120,
        "isVefa": false
      }
    ]
  },
  "dfd9089d87ac": {
    "id": "dfd9089d87ac",
    "label": "8 HAM DE LA HETRAIE, Oissel",
    "lat": 49.355389,
    "lng": 1.097198,
    "transactions": [
      {
        "date": "2024-01-12",
        "priceEur": 156400,
        "typeLocal": "Maison",
        "surfaceM2": 78,
        "isVefa": false
      }
    ]
  },
  "d30b81a0a9b2": {
    "id": "d30b81a0a9b2",
    "label": "3 IMP DES PINS, Oissel",
    "lat": 49.354667,
    "lng": 1.088936,
    "transactions": [
      {
        "date": "2024-06-25",
        "priceEur": 225000,
        "typeLocal": "Maison",
        "surfaceM2": 110,
        "isVefa": false
      }
    ]
  },
  "8146c4b88fc3": {
    "id": "8146c4b88fc3",
    "label": "21 RUE DES ACACIAS, Oissel",
    "lat": 49.360675,
    "lng": 1.095986,
    "transactions": [
      {
        "date": "2024-06-24",
        "priceEur": 185000,
        "typeLocal": "Maison",
        "surfaceM2": 64,
        "isVefa": false
      }
    ]
  },
  "7af488f6af88": {
    "id": "7af488f6af88",
    "label": "1 RUE DE BRETAGNE, Oissel",
    "lat": 49.358086,
    "lng": 1.098564,
    "transactions": [
      {
        "date": "2024-07-05",
        "priceEur": 128000,
        "typeLocal": "Maison",
        "surfaceM2": 44,
        "isVefa": false
      }
    ]
  },
  "453437eb647e": {
    "id": "453437eb647e",
    "label": "18 HAM DU NEFLIER, Oissel",
    "lat": 49.355389,
    "lng": 1.097198,
    "transactions": [
      {
        "date": "2024-09-30",
        "priceEur": 164000,
        "typeLocal": "Maison",
        "surfaceM2": 72,
        "isVefa": false
      }
    ]
  },
  "63f2a7838488": {
    "id": "63f2a7838488",
    "label": "1 RUE DE SAVOIE, Oissel",
    "lat": 49.355389,
    "lng": 1.097198,
    "transactions": [
      {
        "date": "2025-01-15",
        "priceEur": 225000,
        "typeLocal": "Maison",
        "surfaceM2": 83,
        "isVefa": false
      }
    ]
  },
  "28beafd8bd27": {
    "id": "28beafd8bd27",
    "label": "19 RUE DE SAVOIE, Oissel",
    "lat": 49.356568,
    "lng": 1.097597,
    "transactions": [
      {
        "date": "2025-03-28",
        "priceEur": 98000,
        "typeLocal": "Maison",
        "surfaceM2": 63,
        "isVefa": false
      }
    ]
  },
  "05f502603163": {
    "id": "05f502603163",
    "label": "4B IMP DES PINS, Oissel",
    "lat": 49.35482,
    "lng": 1.089067,
    "transactions": [
      {
        "date": "2025-06-10",
        "priceEur": 373000,
        "typeLocal": "Maison",
        "surfaceM2": 131,
        "isVefa": false
      }
    ]
  }
}