{
  "983c08f74777": {
    "id": "983c08f74777",
    "label": "40 RUE ADOLPHE GALY, Eu",
    "lat": 50.053174,
    "lng": 1.415338,
    "transactions": [
      {
        "date": "2021-02-19",
        "priceEur": 35000,
        "typeLocal": "Maison",
        "surfaceM2": 54,
        "isVefa": false
      }
    ]
  },
  "783a36774f20": {
    "id": "783a36774f20",
    "label": "14 RUE EDMOND LAVERNOT, Eu",
    "lat": 50.053559,
    "lng": 1.41575,
    "transactions": [
      {
        "date": "2021-04-29",
        "priceEur": 88000,
        "typeLocal": "Maison",
        "surfaceM2": 53,
        "isVefa": false
      }
    ]
  },
  "49ea9b892835": {
    "id": "49ea9b892835",
    "label": "29 RUE EDMOND LAVERNOT, Eu",
    "lat": 50.053299,
    "lng": 1.415422,
    "transactions": [
      {
        "date": "2021-08-26",
        "priceEur": 37500,
        "typeLocal": "Maison",
        "surfaceM2": 42,
        "isVefa": false
      }
    ]
  },
  "cce1ec3569e6": {
    "id": "cce1ec3569e6",
    "label": "16 RUE LEO LAGRANGE, Eu",
    "lat": 50.053942,
    "lng": 1.412579,
    "transactions": [
      {
        "date": "2021-09-23",
        "priceEur": 89000,
        "typeLocal": "Maison",
        "surfaceM2": 85,
        "isVefa": false
      }
    ]
  },
  "ba826aace3f1": {
    "id": "ba826aace3f1",
    "label": "2 RUE LEO LAGRANGE, Eu",
    "lat": 50.053357,
    "lng": 1.41426,
    "transactions": [
      {
        "date": "2021-09-29",
        "priceEur": 69000,
        "typeLocal": "Maison",
        "surfaceM2": 76,
        "isVefa": false
      }
    ]
  },
  "aee02293740a": {
    "id": "aee02293740a",
    "label": "33 RUE EDMOND LAVERNOT, Eu",
    "lat": 50.053286,
    "lng": 1.415324,
    "transactions": [
      {
        "date": "2021-10-01",
        "priceEur": 89000,
        "typeLocal": "Maison",
        "surfaceM2": 48,
        "isVefa": false
      }
    ]
  },
  "977e837fdb8d": {
    "id": "977e837fdb8d",
    "label": "10 RUE EDMOND LAVERNOT, Eu",
    "lat": 50.053613,
    "lng": 1.416082,
    "transactions": [
      {
        "date": "2022-03-29",
        "priceEur": 147250,
        "typeLocal": "Appartement",
        "surfaceM2": 108,
        "isVefa": false
      }
    ]
  },
  "6981ddeb5302": {
    "id": "6981ddeb5302",
    "label": "5 IMP MARCEL LOUBENS, Eu",
    "lat": 50.054005,
    "lng": 1.414812,
    "transactions": [
      {
        "date": "2022-06-14",
        "priceEur": 94000,
        "typeLocal": "Maison",
        "surfaceM2": 100,
        "isVefa": false
      }
    ]
  },
  "2096581aa5c5": {
    "id": "2096581aa5c5",
    "label": "21 AV DU STADE, Eu",
    "lat": 50.053929,
    "lng": 1.413167,
    "transactions": [
      {
        "date": "2022-11-16",
        "priceEur": 158000,
        "typeLocal": "Maison",
        "surfaceM2": 60,
        "isVefa": false
      }
    ]
  },
  "a231d065e185": {
    "id": "a231d065e185",
    "label": "49 AV DE LA GARE, Eu",
    "lat": 50.053631,
    "lng": 1.416525,
    "transactions": [
      {
        "date": "2023-05-30",
        "priceEur": 500000,
        "typeLocal": "Maison",
        "surfaceM2": 320,
        "isVefa": false
      }
    ]
  },
  "b113872b534b": {
    "id": "b113872b534b",
    "label": "12 RUE EDMOND LAVERNOT, Eu",
    "lat": 50.053562,
    "lng": 1.415918,
    "transactions": [
      {
        "date": "2024-08-23",
        "priceEur": 126000,
        "typeLocal": "Maison",
        "surfaceM2": 40,
        "isVefa": false
      }
    ]
  },
  "2a5ee8865445": {
    "id": "2a5ee8865445",
    "label": "22 RUE ADOLPHE GALY, Eu",
    "lat": 50.053195,
    "lng": 1.415761,
    "transactions": [
      {
        "date": "2025-03-21",
        "priceEur": 118000,
        "typeLocal": "Maison",
        "surfaceM2": 83,
        "isVefa": false
      }
    ]
  }
}