{
  "e3cf6bbe39cc": {
    "id": "e3cf6bbe39cc",
    "label": "73 RTE DE LA FOSSE A L'EAU, Bosc-Bordel",
    "lat": 49.593099,
    "lng": 1.408675,
    "transactions": [
      {
        "date": "2021-01-26",
        "priceEur": 240310,
        "typeLocal": "Maison",
        "surfaceM2": 151,
        "isVefa": false
      },
      {
        "date": "2020-07-03",
        "priceEur": 209310,
        "typeLocal": "Maison",
        "surfaceM2": 151,
        "isVefa": false
      }
    ]
  },
  "9585e3e1fc08": {
    "id": "9585e3e1fc08",
    "label": "215 RTE DE LA HOUSSAYE, Bosc-Bordel",
    "lat": 49.593876,
    "lng": 1.412134,
    "transactions": [
      {
        "date": "2020-10-23",
        "priceEur": 148875,
        "typeLocal": "Maison",
        "surfaceM2": 70,
        "isVefa": false
      }
    ]
  },
  "793bf8799610": {
    "id": "793bf8799610",
    "label": "316 RTE DE LA HOUSSAYE, Bosc-Bordel",
    "lat": 49.594768,
    "lng": 1.412668,
    "transactions": [
      {
        "date": "2020-12-11",
        "priceEur": 37000,
        "typeLocal": "Maison",
        "surfaceM2": 74,
        "isVefa": false
      }
    ]
  },
  "1b5ee161f072": {
    "id": "1b5ee161f072",
    "label": "325 RTE DE LA HOUSSAYE, Bosc-Bordel",
    "lat": 49.594232,
    "lng": 1.41326,
    "transactions": [
      {
        "date": "2020-12-18",
        "priceEur": 120000,
        "typeLocal": "Maison",
        "surfaceM2": 110,
        "isVefa": false
      }
    ]
  },
  "1135df5e216c": {
    "id": "1135df5e216c",
    "label": "195 RTE DE LA FOSSE A L'EAU, Bosc-Bordel",
    "lat": 49.593595,
    "lng": 1.406344,
    "transactions": [
      {
        "date": "2021-07-08",
        "priceEur": 169050,
        "typeLocal": "Maison",
        "surfaceM2": 98,
        "isVefa": false
      }
    ]
  },
  "3aa447b997cc": {
    "id": "3aa447b997cc",
    "label": "460B RTE DE LA HOUSSAYE, Bosc-Bordel",
    "lat": 49.596135,
    "lng": 1.413996,
    "transactions": [
      {
        "date": "2021-09-10",
        "priceEur": 125400,
        "typeLocal": "Maison",
        "surfaceM2": 170,
        "isVefa": false
      }
    ]
  },
  "deff93129fb9": {
    "id": "deff93129fb9",
    "label": "404 RTE DE LA HOUSSAYE, Bosc-Bordel",
    "lat": 49.595757,
    "lng": 1.413407,
    "transactions": [
      {
        "date": "2023-11-20",
        "priceEur": 266000,
        "typeLocal": "Maison",
        "surfaceM2": 117,
        "isVefa": false
      },
      {
        "date": "2022-06-20",
        "priceEur": 250000,
        "typeLocal": "Maison",
        "surfaceM2": 117,
        "isVefa": false
      }
    ]
  },
  "42c4d9a0ca4f": {
    "id": "42c4d9a0ca4f",
    "label": "275 RTE DE LA HOUSSAYE, Bosc-Bordel",
    "lat": 49.593963,
    "lng": 1.41284,
    "transactions": [
      {
        "date": "2022-07-11",
        "priceEur": 280000,
        "typeLocal": "Maison",
        "surfaceM2": 138,
        "isVefa": false
      }
    ]
  },
  "fcbc3d86065b": {
    "id": "fcbc3d86065b",
    "label": "238 RTE D'HUCLEU, Bosc-Bordel",
    "lat": 49.591044,
    "lng": 1.4126,
    "transactions": [
      {
        "date": "2022-12-02",
        "priceEur": 199000,
        "typeLocal": "Maison",
        "surfaceM2": 70,
        "isVefa": false
      }
    ]
  },
  "2f73b96822a4": {
    "id": "2f73b96822a4",
    "label": "531 RTE DE LA HOUSSAYE, Bosc-Bordel",
    "lat": 49.595647,
    "lng": 1.41544,
    "transactions": [
      {
        "date": "2023-03-06",
        "priceEur": 222000,
        "typeLocal": "Maison",
        "surfaceM2": 73,
        "isVefa": false
      }
    ]
  },
  "7037be827346": {
    "id": "7037be827346",
    "label": "562A RTE DE FORGES LES EAUX, Bosc-Bordel",
    "lat": 49.592712,
    "lng": 1.410945,
    "transactions": [
      {
        "date": "2023-03-30",
        "priceEur": 95000,
        "typeLocal": "Maison",
        "surfaceM2": 58,
        "isVefa": false
      }
    ]
  },
  "3ccab81cbb7c": {
    "id": "3ccab81cbb7c",
    "label": "562B RTE DE FORGES LES EAUX, Bosc-Bordel",
    "lat": 49.592688,
    "lng": 1.410859,
    "transactions": [
      {
        "date": "2023-03-30",
        "priceEur": 95000,
        "typeLocal": "Maison",
        "surfaceM2": 67,
        "isVefa": false
      }
    ]
  },
  "9e1affac95e6": {
    "id": "9e1affac95e6",
    "label": "458 RTE DE LA HOUSSAYE, Bosc-Bordel",
    "lat": 49.595556,
    "lng": 1.414089,
    "transactions": [
      {
        "date": "2023-08-25",
        "priceEur": 266600,
        "typeLocal": "Maison",
        "surfaceM2": 90,
        "isVefa": false
      }
    ]
  },
  "12d7b7e8764a": {
    "id": "12d7b7e8764a",
    "label": "746 RTE DE FORGES LES EAUX, Bosc-Bordel",
    "lat": 49.592865,
    "lng": 1.4122,
    "transactions": [
      {
        "date": "2025-05-02",
        "priceEur": 190000,
        "typeLocal": "Maison",
        "surfaceM2": 135,
        "isVefa": false
      }
    ]
  }
}