{
  "d34b45355128": {
    "id": "d34b45355128",
    "label": "5089 LE BOSC DE SEVIS, Val-de-Scie",
    "lat": 49.714238,
    "lng": 1.172277,
    "transactions": [
      {
        "date": "2022-04-08",
        "priceEur": 205000,
        "typeLocal": "Maison",
        "surfaceM2": 120,
        "isVefa": false
      },
      {
        "date": "2020-12-01",
        "priceEur": 188000,
        "typeLocal": "Maison",
        "surfaceM2": 120,
        "isVefa": false
      }
    ]
  },
  "31a489a5a555": {
    "id": "31a489a5a555",
    "label": "25 RUE DES PELERINS, Val-de-Scie",
    "lat": 49.71485,
    "lng": 1.175019,
    "transactions": [
      {
        "date": "2021-04-23",
        "priceEur": 130000,
        "typeLocal": "Maison",
        "surfaceM2": 75,
        "isVefa": false
      }
    ]
  },
  "c8e73d9c9e22": {
    "id": "c8e73d9c9e22",
    "label": "76 IMP DES PATIS, Val-de-Scie",
    "lat": 49.716028,
    "lng": 1.170125,
    "transactions": [
      {
        "date": "2022-04-14",
        "priceEur": 209000,
        "typeLocal": "Maison",
        "surfaceM2": 100,
        "isVefa": false
      }
    ]
  },
  "6aa2b252e6a0": {
    "id": "6aa2b252e6a0",
    "label": "5049 LE BOSC DE SEVIS, Val-de-Scie",
    "lat": 49.713991,
    "lng": 1.171053,
    "transactions": [
      {
        "date": "2022-05-04",
        "priceEur": 88000,
        "typeLocal": "Maison",
        "surfaceM2": 72,
        "isVefa": false
      }
    ]
  },
  "40df94860b45": {
    "id": "40df94860b45",
    "label": "5063 LE BOSC DE SEVIS, Val-de-Scie",
    "lat": 49.713785,
    "lng": 1.175038,
    "transactions": [
      {
        "date": "2022-09-13",
        "priceEur": 158000,
        "typeLocal": "Maison",
        "surfaceM2": 87,
        "isVefa": false
      }
    ]
  },
  "31ab5061ac1a": {
    "id": "31ab5061ac1a",
    "label": "5085 LE BOSC DE SEVIS, Val-de-Scie",
    "lat": 49.714071,
    "lng": 1.169941,
    "transactions": [
      {
        "date": "2022-10-10",
        "priceEur": 150000,
        "typeLocal": "Maison",
        "surfaceM2": 88,
        "isVefa": false
      }
    ]
  },
  "c8d6e1afee1c": {
    "id": "c8d6e1afee1c",
    "label": "666 RUE DU BOSC, Val-de-Scie",
    "lat": 49.713866,
    "lng": 1.170536,
    "transactions": [
      {
        "date": "2023-08-07",
        "priceEur": 110000,
        "typeLocal": "Maison",
        "surfaceM2": 86,
        "isVefa": false
      }
    ]
  },
  "6d7de107c691": {
    "id": "6d7de107c691",
    "label": "75 RUE DES PATIS, Val-de-Scie",
    "lat": 49.714332,
    "lng": 1.169376,
    "transactions": [
      {
        "date": "2023-09-25",
        "priceEur": 121000,
        "typeLocal": "Maison",
        "surfaceM2": 93,
        "isVefa": false
      }
    ]
  },
  "8cafd741a762": {
    "id": "8cafd741a762",
    "label": "130 RUE DES PELERINS, Val-de-Scie",
    "lat": 49.714116,
    "lng": 1.174389,
    "transactions": [
      {
        "date": "2024-01-12",
        "priceEur": 247000,
        "typeLocal": "Maison",
        "surfaceM2": 173,
        "isVefa": false
      }
    ]
  },
  "c11e60262150": {
    "id": "c11e60262150",
    "label": "799 RUE DU BOSC, Val-de-Scie",
    "lat": 49.714916,
    "lng": 1.17158,
    "transactions": [
      {
        "date": "2025-01-15",
        "priceEur": 275000,
        "typeLocal": "Maison",
        "surfaceM2": 110,
        "isVefa": false
      },
      {
        "date": "2025-01-15",
        "priceEur": 275000,
        "typeLocal": "Maison",
        "surfaceM2": 30,
        "isVefa": false
      }
    ]
  }
}