{
  "d39b67655d7e": {
    "id": "d39b67655d7e",
    "label": "10 RUE LE VAL DES POIRIERS, Quincampoix",
    "lat": 49.51284,
    "lng": 1.170299,
    "transactions": [
      {
        "date": "2020-08-20",
        "priceEur": 386110,
        "typeLocal": "Maison",
        "surfaceM2": 204,
        "isVefa": false
      }
    ]
  },
  "08e8cfa42649": {
    "id": "08e8cfa42649",
    "label": "8 RUE RESIDENCE DE LA HOUSSAYE, Quincampoix",
    "lat": 49.515496,
    "lng": 1.173531,
    "transactions": [
      {
        "date": "2021-12-15",
        "priceEur": 310000,
        "typeLocal": "Maison",
        "surfaceM2": 158,
        "isVefa": false
      }
    ]
  },
  "68867d8f3d8f": {
    "id": "68867d8f3d8f",
    "label": "3 RES LES HAUTS POIRIERS, Quincampoix",
    "lat": 49.514117,
    "lng": 1.168868,
    "transactions": [
      {
        "date": "2021-01-20",
        "priceEur": 322000,
        "typeLocal": "Maison",
        "surfaceM2": 120,
        "isVefa": false
      }
    ]
  },
  "5649b0802b2b": {
    "id": "5649b0802b2b",
    "label": "620 RTE DE NEUFCHATEL, Quincampoix",
    "lat": 49.511823,
    "lng": 1.168247,
    "transactions": [
      {
        "date": "2021-02-19",
        "priceEur": 165000,
        "typeLocal": "Maison",
        "surfaceM2": 78,
        "isVefa": false
      }
    ]
  },
  "67d42b87700a": {
    "id": "67d42b87700a",
    "label": "1 RUE LE VAL DES POIRIERS, Quincampoix",
    "lat": 49.511716,
    "lng": 1.16868,
    "transactions": [
      {
        "date": "2022-05-04",
        "priceEur": 280400,
        "typeLocal": "Maison",
        "surfaceM2": 132,
        "isVefa": false
      }
    ]
  },
  "a68507d51fd0": {
    "id": "a68507d51fd0",
    "label": "5 RES LES HAUTS POIRIERS, Quincampoix",
    "lat": 49.513701,
    "lng": 1.168399,
    "transactions": [
      {
        "date": "2022-09-06",
        "priceEur": 283300,
        "typeLocal": "Maison",
        "surfaceM2": 110,
        "isVefa": false
      }
    ]
  },
  "f22bfbeeba95": {
    "id": "f22bfbeeba95",
    "label": "37 RUE DE CAILLY, Quincampoix",
    "lat": 49.51445,
    "lng": 1.170182,
    "transactions": [
      {
        "date": "2022-08-30",
        "priceEur": 257400,
        "typeLocal": "Maison",
        "surfaceM2": 99,
        "isVefa": false
      }
    ]
  },
  "0b95b29ac00a": {
    "id": "0b95b29ac00a",
    "label": "16 RES LES HAUTS POIRIERS, Quincampoix",
    "lat": 49.512676,
    "lng": 1.168066,
    "transactions": [
      {
        "date": "2022-10-11",
        "priceEur": 337700,
        "typeLocal": "Maison",
        "surfaceM2": 140,
        "isVefa": false
      }
    ]
  },
  "a0f724ba57b3": {
    "id": "a0f724ba57b3",
    "label": "542 RTE DE NEUFCHATEL, Quincampoix",
    "lat": 49.511215,
    "lng": 1.167872,
    "transactions": [
      {
        "date": "2023-03-02",
        "priceEur": 365000,
        "typeLocal": "Maison",
        "surfaceM2": 190,
        "isVefa": false
      }
    ]
  },
  "16d506cbea3d": {
    "id": "16d506cbea3d",
    "label": "2B RUE RESIDENCE DE LA HOUSSAYE, Quincampoix",
    "lat": 49.515387,
    "lng": 1.174582,
    "transactions": [
      {
        "date": "2023-08-31",
        "priceEur": 431520,
        "typeLocal": "Maison",
        "surfaceM2": 143,
        "isVefa": false
      }
    ]
  },
  "ecd8cd491b52": {
    "id": "ecd8cd491b52",
    "label": "120 RUE DES HTS CHAMPS, Quincampoix",
    "lat": 49.511644,
    "lng": 1.165294,
    "transactions": [
      {
        "date": "2023-11-24",
        "priceEur": 314000,
        "typeLocal": "Maison",
        "surfaceM2": 137,
        "isVefa": false
      }
    ]
  },
  "b0a707eb01dc": {
    "id": "b0a707eb01dc",
    "label": "289 RUE DE CAILLY, Quincampoix",
    "lat": 49.517048,
    "lng": 1.171542,
    "transactions": [
      {
        "date": "2024-03-27",
        "priceEur": 790000,
        "typeLocal": "Maison",
        "surfaceM2": 148,
        "isVefa": false
      }
    ]
  },
  "81ad95c534df": {
    "id": "81ad95c534df",
    "label": "1298 RTE DE NEUFCHATEL, Quincampoix",
    "lat": 49.51612,
    "lng": 1.174318,
    "transactions": [
      {
        "date": "2025-01-09",
        "priceEur": 102380,
        "typeLocal": "Maison",
        "surfaceM2": 83,
        "isVefa": false
      }
    ]
  },
  "abac35cb1824": {
    "id": "abac35cb1824",
    "label": "521 RTE DE NEUFCHATEL, Quincampoix",
    "lat": 49.511689,
    "lng": 1.166534,
    "transactions": [
      {
        "date": "2025-03-26",
        "priceEur": 295400,
        "typeLocal": "Maison",
        "surfaceM2": 103,
        "isVefa": false
      }
    ]
  }
}