{
  "bfe27ca3aa87": {
    "id": "bfe27ca3aa87",
    "label": "1222 RTE DE LA SAANE, Saint-Laurent-en-Caux",
    "lat": 49.745464,
    "lng": 0.899428,
    "transactions": [
      {
        "date": "2020-08-21",
        "priceEur": 370000,
        "typeLocal": "Maison",
        "surfaceM2": 216,
        "isVefa": false
      }
    ]
  },
  "6a6629c61ce4": {
    "id": "6a6629c61ce4",
    "label": "1014 RTE DU PETIT PONT, Saint-Laurent-en-Caux",
    "lat": 49.740801,
    "lng": 0.889985,
    "transactions": [
      {
        "date": "2021-06-07",
        "priceEur": 159000,
        "typeLocal": "Maison",
        "surfaceM2": 70,
        "isVefa": false
      }
    ]
  },
  "2a3d61b93d09": {
    "id": "2a3d61b93d09",
    "label": "289 RUE DES RUCHES, Saint-Laurent-en-Caux",
    "lat": 49.745015,
    "lng": 0.900459,
    "transactions": [
      {
        "date": "2022-08-29",
        "priceEur": 219235,
        "typeLocal": "Maison",
        "surfaceM2": 204,
        "isVefa": false
      }
    ]
  },
  "022897fd7394": {
    "id": "022897fd7394",
    "label": "184 RTE DES BOIS, Saint-Laurent-en-Caux",
    "lat": 49.741002,
    "lng": 0.892202,
    "transactions": [
      {
        "date": "2022-06-09",
        "priceEur": 210000,
        "typeLocal": "Maison",
        "surfaceM2": 160,
        "isVefa": false
      }
    ]
  },
  "55579711a050": {
    "id": "55579711a050",
    "label": "100 IMP DES RUCHES, Saint-Laurent-en-Caux",
    "lat": 49.745703,
    "lng": 0.897288,
    "transactions": [
      {
        "date": "2023-12-29",
        "priceEur": 60000,
        "typeLocal": "Maison",
        "surfaceM2": 50,
        "isVefa": false
      }
    ]
  }
}