{
  "e469f68c6eb2": {
    "id": "e469f68c6eb2",
    "label": "4 IMP MARCELIN ALBERT, Castelnau-de-Guers",
    "lat": 43.439932,
    "lng": 3.443067,
    "transactions": [
      {
        "date": "2020-08-11",
        "priceEur": 415010,
        "typeLocal": "Maison",
        "surfaceM2": 155,
        "isVefa": false
      },
      {
        "date": "2020-08-11",
        "priceEur": 415010,
        "typeLocal": "Maison",
        "surfaceM2": 155,
        "isVefa": false
      }
    ]
  },
  "ffe92e99af2d": {
    "id": "ffe92e99af2d",
    "label": "5641F LAUBIERE, Castelnau-de-Guers",
    "lat": 43.441336,
    "lng": 3.443037,
    "transactions": [
      {
        "date": "2022-09-19",
        "priceEur": 137000,
        "typeLocal": "Appartement",
        "surfaceM2": 54,
        "isVefa": false
      },
      {
        "date": "2021-04-07",
        "priceEur": 112000,
        "typeLocal": "Appartement",
        "surfaceM2": 54,
        "isVefa": false
      },
      {
        "date": "2021-02-24",
        "priceEur": 95000,
        "typeLocal": "Appartement",
        "surfaceM2": 54,
        "isVefa": false
      }
    ]
  },
  "e3fb697592a7": {
    "id": "e3fb697592a7",
    "label": "14 LOT LES COUDOUNNIERS, Castelnau-de-Guers",
    "lat": 43.442061,
    "lng": 3.442171,
    "transactions": [
      {
        "date": "2021-08-27",
        "priceEur": 325200,
        "typeLocal": "Maison",
        "surfaceM2": 107,
        "isVefa": false
      }
    ]
  },
  "1bce4055e7d0": {
    "id": "1bce4055e7d0",
    "label": "10 CHEM DE LAUBIERES, Castelnau-de-Guers",
    "lat": 43.441601,
    "lng": 3.442908,
    "transactions": [
      {
        "date": "2021-09-07",
        "priceEur": 310000,
        "typeLocal": "Maison",
        "surfaceM2": 100,
        "isVefa": false
      }
    ]
  },
  "b2eca767cd24": {
    "id": "b2eca767cd24",
    "label": "1 RUE DE L'OLIVERAIE, Castelnau-de-Guers",
    "lat": 43.437141,
    "lng": 3.441132,
    "transactions": [
      {
        "date": "2021-11-03",
        "priceEur": 301550,
        "typeLocal": "Maison",
        "surfaceM2": 220,
        "isVefa": false
      },
      {
        "date": "2021-11-03",
        "priceEur": 301550,
        "typeLocal": "Maison",
        "surfaceM2": 220,
        "isVefa": false
      }
    ]
  },
  "0b7450becd12": {
    "id": "0b7450becd12",
    "label": "4 RUE DE LAVETIN, Castelnau-de-Guers",
    "lat": 43.437406,
    "lng": 3.440403,
    "transactions": [
      {
        "date": "2021-11-19",
        "priceEur": 300800,
        "typeLocal": "Maison",
        "surfaceM2": 85,
        "isVefa": false
      }
    ]
  },
  "d4b8d4a90b3a": {
    "id": "d4b8d4a90b3a",
    "label": "1 CHEM DE LAUBIERES, Castelnau-de-Guers",
    "lat": 43.441958,
    "lng": 3.442452,
    "transactions": [
      {
        "date": "2021-11-10",
        "priceEur": 410550,
        "typeLocal": "Maison",
        "surfaceM2": 167,
        "isVefa": false
      }
    ]
  },
  "fac6969dc7f9": {
    "id": "fac6969dc7f9",
    "label": "10 LOT LES COUDOUNNIERS, Castelnau-de-Guers",
    "lat": 43.441651,
    "lng": 3.442022,
    "transactions": [
      {
        "date": "2021-12-14",
        "priceEur": 187200,
        "typeLocal": "Maison",
        "surfaceM2": 72,
        "isVefa": false
      }
    ]
  },
  "55e5558cc5b6": {
    "id": "55e5558cc5b6",
    "label": "6 LOT LES COUDOUNNIERS, Castelnau-de-Guers",
    "lat": 43.441377,
    "lng": 3.441873,
    "transactions": [
      {
        "date": "2021-12-21",
        "priceEur": 304750,
        "typeLocal": "Maison",
        "surfaceM2": 126,
        "isVefa": false
      }
    ]
  },
  "eab7fd54a9b3": {
    "id": "eab7fd54a9b3",
    "label": "20 RUE DE L'OLIVERAIE, Castelnau-de-Guers",
    "lat": 43.437288,
    "lng": 3.441825,
    "transactions": [
      {
        "date": "2021-12-10",
        "priceEur": 345000,
        "typeLocal": "Maison",
        "surfaceM2": 90,
        "isVefa": false
      }
    ]
  },
  "373ba12def32": {
    "id": "373ba12def32",
    "label": "7 RUE BELLEVUE, Castelnau-de-Guers",
    "lat": 43.440068,
    "lng": 3.442156,
    "transactions": [
      {
        "date": "2022-01-27",
        "priceEur": 283500,
        "typeLocal": "Maison",
        "surfaceM2": 125,
        "isVefa": false
      }
    ]
  },
  "4004f4e971b7": {
    "id": "4004f4e971b7",
    "label": "42 AV DE PEZENAS, Castelnau-de-Guers",
    "lat": 43.441042,
    "lng": 3.440807,
    "transactions": [
      {
        "date": "2022-04-19",
        "priceEur": 119000,
        "typeLocal": "Maison",
        "surfaceM2": 102,
        "isVefa": false
      }
    ]
  },
  "cdec7a93c588": {
    "id": "cdec7a93c588",
    "label": "2B CHEM DE LAUBIERES, Castelnau-de-Guers",
    "lat": 43.440789,
    "lng": 3.442297,
    "transactions": [
      {
        "date": "2022-09-21",
        "priceEur": 380000,
        "typeLocal": "Maison",
        "surfaceM2": 122,
        "isVefa": false
      },
      {
        "date": "2022-09-21",
        "priceEur": 380000,
        "typeLocal": "Maison",
        "surfaceM2": 122,
        "isVefa": false
      }
    ]
  },
  "9dee05e8c4d8": {
    "id": "9dee05e8c4d8",
    "label": "5 LOT BEAUREGARD, Castelnau-de-Guers",
    "lat": 43.443063,
    "lng": 3.442715,
    "transactions": [
      {
        "date": "2022-12-06",
        "priceEur": 464900,
        "typeLocal": "Maison",
        "surfaceM2": 110,
        "isVefa": false
      }
    ]
  },
  "609064518f7c": {
    "id": "609064518f7c",
    "label": "22B RUE ARTEMIS, Castelnau-de-Guers",
    "lat": 43.438944,
    "lng": 3.443644,
    "transactions": [
      {
        "date": "2023-06-19",
        "priceEur": 115000,
        "typeLocal": "Maison",
        "surfaceM2": 93,
        "isVefa": false
      }
    ]
  },
  "1e7b86317eac": {
    "id": "1e7b86317eac",
    "label": "8 RUE DE LAVETIN, Castelnau-de-Guers",
    "lat": 43.437786,
    "lng": 3.440701,
    "transactions": [
      {
        "date": "2023-09-21",
        "priceEur": 311500,
        "typeLocal": "Maison",
        "surfaceM2": 80,
        "isVefa": false
      }
    ]
  },
  "6e472426b93f": {
    "id": "6e472426b93f",
    "label": "16 RTE D'AUMES, Castelnau-de-Guers",
    "lat": 43.437878,
    "lng": 3.444203,
    "transactions": [
      {
        "date": "2023-12-13",
        "priceEur": 325000,
        "typeLocal": "Maison",
        "surfaceM2": 100,
        "isVefa": false
      }
    ]
  },
  "ed26431809c8": {
    "id": "ed26431809c8",
    "label": "17 RTE D'AUMES, Castelnau-de-Guers",
    "lat": 43.438574,
    "lng": 3.444171,
    "transactions": [
      {
        "date": "2024-01-18",
        "priceEur": 340000,
        "typeLocal": "Maison",
        "surfaceM2": 180,
        "isVefa": false
      },
      {
        "date": "2024-01-18",
        "priceEur": 340000,
        "typeLocal": "Maison",
        "surfaceM2": 180,
        "isVefa": false
      }
    ]
  },
  "b242667fc39d": {
    "id": "b242667fc39d",
    "label": "15 RTE D'AUMES, Castelnau-de-Guers",
    "lat": 43.438404,
    "lng": 3.443982,
    "transactions": [
      {
        "date": "2024-05-06",
        "priceEur": 270000,
        "typeLocal": "Maison",
        "surfaceM2": 82,
        "isVefa": false
      }
    ]
  },
  "ad581a3a5ab2": {
    "id": "ad581a3a5ab2",
    "label": "18 RTE D'AUMES, Castelnau-de-Guers",
    "lat": 43.43804,
    "lng": 3.444212,
    "transactions": [
      {
        "date": "2024-10-04",
        "priceEur": 200000,
        "typeLocal": "Maison",
        "surfaceM2": 88,
        "isVefa": false
      },
      {
        "date": "2024-10-04",
        "priceEur": 206000,
        "typeLocal": "Maison",
        "surfaceM2": 88,
        "isVefa": false
      }
    ]
  },
  "bd64e2394e9e": {
    "id": "bd64e2394e9e",
    "label": "3 AV DE LA FABRIQUE, Castelnau-de-Guers",
    "lat": 43.438529,
    "lng": 3.438851,
    "transactions": [
      {
        "date": "2025-03-21",
        "priceEur": 415000,
        "typeLocal": "Maison",
        "surfaceM2": 170,
        "isVefa": false
      }
    ]
  }
}