{
  "65cf8eb82c7d": {
    "id": "65cf8eb82c7d",
    "label": "1 PL DU TILLEUL, Saint-Jean-de-la-Blaquière",
    "lat": 43.714818,
    "lng": 3.423977,
    "transactions": [
      {
        "date": "2022-06-17",
        "priceEur": 160000,
        "typeLocal": "Appartement",
        "surfaceM2": 120,
        "isVefa": false
      },
      {
        "date": "2020-07-22",
        "priceEur": 105000,
        "typeLocal": "Appartement",
        "surfaceM2": 47,
        "isVefa": false
      }
    ]
  },
  "b60828abec3d": {
    "id": "b60828abec3d",
    "label": "99 QUARTIER DU FONZAL, Saint-Jean-de-la-Blaquière",
    "lat": 43.712879,
    "lng": 3.42468,
    "transactions": [
      {
        "date": "2020-09-10",
        "priceEur": 235000,
        "typeLocal": "Maison",
        "surfaceM2": 120,
        "isVefa": false
      },
      {
        "date": "2020-09-10",
        "priceEur": 235000,
        "typeLocal": "Maison",
        "surfaceM2": 120,
        "isVefa": false
      }
    ]
  },
  "9053f4f714e8": {
    "id": "9053f4f714e8",
    "label": "12 RUE DE LA FONTAINE, Saint-Jean-de-la-Blaquière",
    "lat": 43.71489,
    "lng": 3.422392,
    "transactions": [
      {
        "date": "2020-09-07",
        "priceEur": 121500,
        "typeLocal": "Maison",
        "surfaceM2": 90,
        "isVefa": false
      }
    ]
  },
  "fefeedc5a7e8": {
    "id": "fefeedc5a7e8",
    "label": "6 RUE DU PORTALET, Saint-Jean-de-la-Blaquière",
    "lat": 43.715437,
    "lng": 3.423699,
    "transactions": [
      {
        "date": "2020-10-29",
        "priceEur": 93500,
        "typeLocal": "Maison",
        "surfaceM2": 61,
        "isVefa": false
      }
    ]
  },
  "b1ae14344278": {
    "id": "b1ae14344278",
    "label": "5 RTE DE LODEVE, Saint-Jean-de-la-Blaquière",
    "lat": 43.713642,
    "lng": 3.420432,
    "transactions": [
      {
        "date": "2020-11-02",
        "priceEur": 293000,
        "typeLocal": "Maison",
        "surfaceM2": 120,
        "isVefa": false
      },
      {
        "date": "2020-11-02",
        "priceEur": 293000,
        "typeLocal": "Maison",
        "surfaceM2": 120,
        "isVefa": false
      }
    ]
  },
  "d75c18bb4655": {
    "id": "d75c18bb4655",
    "label": "260 CHE DU PUECH LAZERT, Saint-Jean-de-la-Blaquière",
    "lat": 43.714393,
    "lng": 3.417432,
    "transactions": [
      {
        "date": "2020-10-27",
        "priceEur": 159060,
        "typeLocal": "Maison",
        "surfaceM2": 65,
        "isVefa": false
      }
    ]
  },
  "f6b658e6b51d": {
    "id": "f6b658e6b51d",
    "label": "367 RTE DE LODEVE, Saint-Jean-de-la-Blaquière",
    "lat": 43.712308,
    "lng": 3.417923,
    "transactions": [
      {
        "date": "2020-12-23",
        "priceEur": 314500,
        "typeLocal": "Maison",
        "surfaceM2": 143,
        "isVefa": false
      }
    ]
  },
  "abf1c5bc1deb": {
    "id": "abf1c5bc1deb",
    "label": "4B GRAND RUE, Saint-Jean-de-la-Blaquière",
    "lat": 43.714652,
    "lng": 3.423818,
    "transactions": [
      {
        "date": "2021-05-18",
        "priceEur": 106000,
        "typeLocal": "Maison",
        "surfaceM2": 90,
        "isVefa": false
      }
    ]
  },
  "169ee712689a": {
    "id": "169ee712689a",
    "label": "9 PL DE L EGLISE, Saint-Jean-de-la-Blaquière",
    "lat": 43.715389,
    "lng": 3.423303,
    "transactions": [
      {
        "date": "2021-06-11",
        "priceEur": 70825,
        "typeLocal": "Appartement",
        "surfaceM2": 61,
        "isVefa": false
      }
    ]
  },
  "7beea8ec304c": {
    "id": "7beea8ec304c",
    "label": "369 RTE DE LODEVE, Saint-Jean-de-la-Blaquière",
    "lat": 43.712408,
    "lng": 3.417841,
    "transactions": [
      {
        "date": "2021-07-12",
        "priceEur": 325000,
        "typeLocal": "Maison",
        "surfaceM2": 139,
        "isVefa": false
      }
    ]
  },
  "4a4784652ce4": {
    "id": "4a4784652ce4",
    "label": "60 CHE DES CONDAMINES, Saint-Jean-de-la-Blaquière",
    "lat": 43.712607,
    "lng": 3.424058,
    "transactions": [
      {
        "date": "2021-08-13",
        "priceEur": 250000,
        "typeLocal": "Maison",
        "surfaceM2": 88,
        "isVefa": false
      },
      {
        "date": "2021-08-13",
        "priceEur": 250000,
        "typeLocal": "Maison",
        "surfaceM2": 36,
        "isVefa": false
      }
    ]
  },
  "5fe5e8a7610e": {
    "id": "5fe5e8a7610e",
    "label": "1 LOT OLIVET, Saint-Jean-de-la-Blaquière",
    "lat": 43.714381,
    "lng": 3.420619,
    "transactions": [
      {
        "date": "2021-08-06",
        "priceEur": 303000,
        "typeLocal": "Maison",
        "surfaceM2": 125,
        "isVefa": false
      }
    ]
  },
  "2eaa19843387": {
    "id": "2eaa19843387",
    "label": "4 AV DU GRAND CHEMIN, Saint-Jean-de-la-Blaquière",
    "lat": 43.714759,
    "lng": 3.422725,
    "transactions": [
      {
        "date": "2021-09-14",
        "priceEur": 165500,
        "typeLocal": "Appartement",
        "surfaceM2": 83,
        "isVefa": false
      },
      {
        "date": "2021-09-14",
        "priceEur": 165500,
        "typeLocal": "Appartement",
        "surfaceM2": 32,
        "isVefa": false
      }
    ]
  },
  "61f7abef4109": {
    "id": "61f7abef4109",
    "label": "1 RTE DE LODEVE, Saint-Jean-de-la-Blaquière",
    "lat": 43.714139,
    "lng": 3.421183,
    "transactions": [
      {
        "date": "2021-12-01",
        "priceEur": 315000,
        "typeLocal": "Maison",
        "surfaceM2": 101,
        "isVefa": false
      }
    ]
  },
  "266c4e57345f": {
    "id": "266c4e57345f",
    "label": "8 PL DE L EGLISE, Saint-Jean-de-la-Blaquière",
    "lat": 43.715048,
    "lng": 3.423633,
    "transactions": [
      {
        "date": "2021-12-23",
        "priceEur": 157920,
        "typeLocal": "Appartement",
        "surfaceM2": 59,
        "isVefa": false
      },
      {
        "date": "2021-12-23",
        "priceEur": 157920,
        "typeLocal": "Appartement",
        "surfaceM2": 60,
        "isVefa": false
      }
    ]
  },
  "eab2de6ad2be": {
    "id": "eab2de6ad2be",
    "label": "5 GRAND RUE, Saint-Jean-de-la-Blaquière",
    "lat": 43.714815,
    "lng": 3.423897,
    "transactions": [
      {
        "date": "2022-02-01",
        "priceEur": 55000,
        "typeLocal": "Maison",
        "surfaceM2": 40,
        "isVefa": false
      }
    ]
  },
  "5eaca0676ced": {
    "id": "5eaca0676ced",
    "label": "1 RUE DE LA FONTAINE, Saint-Jean-de-la-Blaquière",
    "lat": 43.714781,
    "lng": 3.421765,
    "transactions": [
      {
        "date": "2022-03-28",
        "priceEur": 71460,
        "typeLocal": "Maison",
        "surfaceM2": 60,
        "isVefa": false
      }
    ]
  },
  "0cb6df17d99a": {
    "id": "0cb6df17d99a",
    "label": "1 RUE DROITE, Saint-Jean-de-la-Blaquière",
    "lat": 43.715149,
    "lng": 3.423737,
    "transactions": [
      {
        "date": "2022-06-29",
        "priceEur": 138800,
        "typeLocal": "Maison",
        "surfaceM2": 41,
        "isVefa": false
      }
    ]
  },
  "22789a0a4cfb": {
    "id": "22789a0a4cfb",
    "label": "5B GRAND RUE, Saint-Jean-de-la-Blaquière",
    "lat": 43.714853,
    "lng": 3.423822,
    "transactions": [
      {
        "date": "2022-07-28",
        "priceEur": 152550,
        "typeLocal": "Maison",
        "surfaceM2": 150,
        "isVefa": false
      }
    ]
  },
  "ee2ee883c19d": {
    "id": "ee2ee883c19d",
    "label": "10B PL DE L EGLISE, Saint-Jean-de-la-Blaquière",
    "lat": 43.715169,
    "lng": 3.423607,
    "transactions": [
      {
        "date": "2022-08-01",
        "priceEur": 157900,
        "typeLocal": "Maison",
        "surfaceM2": 88,
        "isVefa": false
      }
    ]
  },
  "6a387690ce9a": {
    "id": "6a387690ce9a",
    "label": "6 PL DE L EGLISE, Saint-Jean-de-la-Blaquière",
    "lat": 43.715066,
    "lng": 3.423521,
    "transactions": [
      {
        "date": "2022-12-12",
        "priceEur": 190000,
        "typeLocal": "Maison",
        "surfaceM2": 160,
        "isVefa": false
      }
    ]
  },
  "1340178c1f01": {
    "id": "1340178c1f01",
    "label": "10 RUE DES QUATRE COINS, Saint-Jean-de-la-Blaquière",
    "lat": 43.715278,
    "lng": 3.424276,
    "transactions": [
      {
        "date": "2025-03-31",
        "priceEur": 157000,
        "typeLocal": "Maison",
        "surfaceM2": 91,
        "isVefa": false
      },
      {
        "date": "2022-12-19",
        "priceEur": 155000,
        "typeLocal": "Maison",
        "surfaceM2": 91,
        "isVefa": false
      }
    ]
  },
  "b50498780878": {
    "id": "b50498780878",
    "label": "5 RUE DU BARRY, Saint-Jean-de-la-Blaquière",
    "lat": 43.714587,
    "lng": 3.423882,
    "transactions": [
      {
        "date": "2023-02-01",
        "priceEur": 162000,
        "typeLocal": "Maison",
        "surfaceM2": 71,
        "isVefa": false
      }
    ]
  },
  "0879bad16332": {
    "id": "0879bad16332",
    "label": "2 AV DU GRAND CHEMIN, Saint-Jean-de-la-Blaquière",
    "lat": 43.71476,
    "lng": 3.422869,
    "transactions": [
      {
        "date": "2023-02-16",
        "priceEur": 209000,
        "typeLocal": "Maison",
        "surfaceM2": 124,
        "isVefa": false
      }
    ]
  },
  "3552fd69c910": {
    "id": "3552fd69c910",
    "label": "7 RUE DE L ANCIEN COUVENT, Saint-Jean-de-la-Blaquière",
    "lat": 43.714383,
    "lng": 3.423938,
    "transactions": [
      {
        "date": "2023-02-13",
        "priceEur": 64750,
        "typeLocal": "Appartement",
        "surfaceM2": 75,
        "isVefa": false
      },
      {
        "date": "2023-02-13",
        "priceEur": 64750,
        "typeLocal": "Appartement",
        "surfaceM2": 66,
        "isVefa": false
      }
    ]
  },
  "b7cbc36b0e52": {
    "id": "b7cbc36b0e52",
    "label": "7 RUE DROITE, Saint-Jean-de-la-Blaquière",
    "lat": 43.715232,
    "lng": 3.424025,
    "transactions": [
      {
        "date": "2023-05-03",
        "priceEur": 87400,
        "typeLocal": "Maison",
        "surfaceM2": 93,
        "isVefa": false
      }
    ]
  },
  "2ec97036351d": {
    "id": "2ec97036351d",
    "label": "51 QUARTIER DU FONZAL, Saint-Jean-de-la-Blaquière",
    "lat": 43.713385,
    "lng": 3.424409,
    "transactions": [
      {
        "date": "2023-06-01",
        "priceEur": 379600,
        "typeLocal": "Maison",
        "surfaceM2": 133,
        "isVefa": false
      },
      {
        "date": "2023-06-01",
        "priceEur": 379600,
        "typeLocal": "Maison",
        "surfaceM2": 133,
        "isVefa": false
      }
    ]
  },
  "972fffc68a9e": {
    "id": "972fffc68a9e",
    "label": "14 RUE DE LA FONTAINE, Saint-Jean-de-la-Blaquière",
    "lat": 43.714893,
    "lng": 3.42233,
    "transactions": [
      {
        "date": "2023-09-22",
        "priceEur": 121500,
        "typeLocal": "Maison",
        "surfaceM2": 88,
        "isVefa": false
      }
    ]
  },
  "1cc3731e475e": {
    "id": "1cc3731e475e",
    "label": "6 GRAND RUE, Saint-Jean-de-la-Blaquière",
    "lat": 43.714594,
    "lng": 3.423962,
    "transactions": [
      {
        "date": "2024-04-25",
        "priceEur": 132200,
        "typeLocal": "Maison",
        "surfaceM2": 62,
        "isVefa": false
      }
    ]
  },
  "2acada9f883f": {
    "id": "2acada9f883f",
    "label": "16 RUE DE LA FONTAINE, Saint-Jean-de-la-Blaquière",
    "lat": 43.714904,
    "lng": 3.422267,
    "transactions": [
      {
        "date": "2024-05-17",
        "priceEur": 160000,
        "typeLocal": "Maison",
        "surfaceM2": 78,
        "isVefa": false
      }
    ]
  },
  "1e8ed38a8c7a": {
    "id": "1e8ed38a8c7a",
    "label": "8B PL DE L EGLISE, Saint-Jean-de-la-Blaquière",
    "lat": 43.715114,
    "lng": 3.423648,
    "transactions": [
      {
        "date": "2024-09-17",
        "priceEur": 110000,
        "typeLocal": "Maison",
        "surfaceM2": 65,
        "isVefa": false
      }
    ]
  }
}