{
  "102b60d595e2": {
    "id": "102b60d595e2",
    "label": "1 RUE KLEBER, Pézenas",
    "lat": 43.459996,
    "lng": 3.423426,
    "transactions": [
      {
        "date": "2023-02-24",
        "priceEur": 154535,
        "typeLocal": "Appartement",
        "surfaceM2": 65,
        "isVefa": false
      },
      {
        "date": "2022-06-01",
        "priceEur": 40000,
        "typeLocal": "Appartement",
        "surfaceM2": 33,
        "isVefa": false
      },
      {
        "date": "2020-07-02",
        "priceEur": 24000,
        "typeLocal": "Appartement",
        "surfaceM2": 34,
        "isVefa": false
      }
    ]
  },
  "c1a4aba77b65": {
    "id": "c1a4aba77b65",
    "label": "9 RUE DU VIEUX SALIN, Pézenas",
    "lat": 43.459046,
    "lng": 3.424214,
    "transactions": [
      {
        "date": "2020-07-22",
        "priceEur": 332000,
        "typeLocal": "Appartement",
        "surfaceM2": 40,
        "isVefa": false
      },
      {
        "date": "2020-07-22",
        "priceEur": 332000,
        "typeLocal": "Appartement",
        "surfaceM2": 45,
        "isVefa": false
      },
      {
        "date": "2020-07-22",
        "priceEur": 332000,
        "typeLocal": "Appartement",
        "surfaceM2": 20,
        "isVefa": false
      },
      {
        "date": "2020-07-22",
        "priceEur": 332000,
        "typeLocal": "Appartement",
        "surfaceM2": 20,
        "isVefa": false
      },
      {
        "date": "2020-07-22",
        "priceEur": 332000,
        "typeLocal": "Appartement",
        "surfaceM2": 40,
        "isVefa": false
      },
      {
        "date": "2020-07-22",
        "priceEur": 332000,
        "typeLocal": "Appartement",
        "surfaceM2": 45,
        "isVefa": false
      },
      {
        "date": "2020-07-22",
        "priceEur": 332000,
        "typeLocal": "Appartement",
        "surfaceM2": 20,
        "isVefa": false
      },
      {
        "date": "2020-07-22",
        "priceEur": 332000,
        "typeLocal": "Appartement",
        "surfaceM2": 25,
        "isVefa": false
      }
    ]
  },
  "b314ff3b7005": {
    "id": "b314ff3b7005",
    "label": "8 RUE JEAN JACQUES ROUSSEAU, Pézenas",
    "lat": 43.459764,
    "lng": 3.424781,
    "transactions": [
      {
        "date": "2024-02-09",
        "priceEur": 120000,
        "typeLocal": "Appartement",
        "surfaceM2": 69,
        "isVefa": false
      },
      {
        "date": "2020-07-02",
        "priceEur": 31000,
        "typeLocal": "Appartement",
        "surfaceM2": 30,
        "isVefa": false
      }
    ]
  },
  "5c8b030a9ccc": {
    "id": "5c8b030a9ccc",
    "label": "5 RUE ANATOLE FRANCE, Pézenas",
    "lat": 43.459492,
    "lng": 3.422829,
    "transactions": [
      {
        "date": "2020-07-30",
        "priceEur": 197140,
        "typeLocal": "Appartement",
        "surfaceM2": 56,
        "isVefa": false
      }
    ]
  },
  "1785843b9b36": {
    "id": "1785843b9b36",
    "label": "10 RUE ANATOLE FRANCE, Pézenas",
    "lat": 43.459428,
    "lng": 3.422442,
    "transactions": [
      {
        "date": "2024-08-14",
        "priceEur": 56000,
        "typeLocal": "Appartement",
        "surfaceM2": 27,
        "isVefa": false
      },
      {
        "date": "2023-06-15",
        "priceEur": 244000,
        "typeLocal": "Appartement",
        "surfaceM2": 90,
        "isVefa": false
      },
      {
        "date": "2023-05-13",
        "priceEur": 114000,
        "typeLocal": "Appartement",
        "surfaceM2": 100,
        "isVefa": false
      },
      {
        "date": "2022-12-14",
        "priceEur": 217140,
        "typeLocal": "Appartement",
        "surfaceM2": 105,
        "isVefa": false
      },
      {
        "date": "2020-08-13",
        "priceEur": 58000,
        "typeLocal": "Appartement",
        "surfaceM2": 34,
        "isVefa": false
      },
      {
        "date": "2020-07-23",
        "priceEur": 90000,
        "typeLocal": "Appartement",
        "surfaceM2": 56,
        "isVefa": false
      }
    ]
  },
  "fefeca6971ec": {
    "id": "fefeca6971ec",
    "label": "16 RUE CONTI, Pézenas",
    "lat": 43.459409,
    "lng": 3.42431,
    "transactions": [
      {
        "date": "2020-07-08",
        "priceEur": 38000,
        "typeLocal": "Maison",
        "surfaceM2": 90,
        "isVefa": false
      }
    ]
  },
  "60eed9de083f": {
    "id": "60eed9de083f",
    "label": "23 RUE JEAN JACQUES ROUSSEAU, Pézenas",
    "lat": 43.460201,
    "lng": 3.42488,
    "transactions": [
      {
        "date": "2020-07-24",
        "priceEur": 75000,
        "typeLocal": "Maison",
        "surfaceM2": 46,
        "isVefa": false
      }
    ]
  },
  "ff1d7474e94d": {
    "id": "ff1d7474e94d",
    "label": "1 RUE PLAUCHE, Pézenas",
    "lat": 43.460218,
    "lng": 3.425172,
    "transactions": [
      {
        "date": "2023-09-28",
        "priceEur": 67000,
        "typeLocal": "Appartement",
        "surfaceM2": 51,
        "isVefa": false
      },
      {
        "date": "2021-08-20",
        "priceEur": 107000,
        "typeLocal": "Appartement",
        "surfaceM2": 78,
        "isVefa": false
      },
      {
        "date": "2020-12-23",
        "priceEur": 130000,
        "typeLocal": "Appartement",
        "surfaceM2": 76,
        "isVefa": false
      },
      {
        "date": "2020-07-10",
        "priceEur": 67300,
        "typeLocal": "Appartement",
        "surfaceM2": 36,
        "isVefa": false
      }
    ]
  },
  "34a1eac3aed9": {
    "id": "34a1eac3aed9",
    "label": "1 RUE DU VIEUX SALIN, Pézenas",
    "lat": 43.459303,
    "lng": 3.424485,
    "transactions": [
      {
        "date": "2020-07-31",
        "priceEur": 129000,
        "typeLocal": "Appartement",
        "surfaceM2": 75,
        "isVefa": false
      }
    ]
  },
  "db07681843c9": {
    "id": "db07681843c9",
    "label": "4 RUE LIEUTENANT PAULINIER, Pézenas",
    "lat": 43.45995,
    "lng": 3.424622,
    "transactions": [
      {
        "date": "2020-07-20",
        "priceEur": 210180,
        "typeLocal": "Appartement",
        "surfaceM2": 18,
        "isVefa": false
      },
      {
        "date": "2020-07-20",
        "priceEur": 210180,
        "typeLocal": "Appartement",
        "surfaceM2": 22,
        "isVefa": false
      },
      {
        "date": "2020-07-20",
        "priceEur": 210180,
        "typeLocal": "Appartement",
        "surfaceM2": 18,
        "isVefa": false
      },
      {
        "date": "2020-07-20",
        "priceEur": 210180,
        "typeLocal": "Appartement",
        "surfaceM2": 18,
        "isVefa": false
      }
    ]
  },
  "8e159b43590d": {
    "id": "8e159b43590d",
    "label": "10 PL PAUL GAUGUIN, Pézenas",
    "lat": 43.455814,
    "lng": 3.417505,
    "transactions": [
      {
        "date": "2020-08-26",
        "priceEur": 229500,
        "typeLocal": "Maison",
        "surfaceM2": 106,
        "isVefa": false
      }
    ]
  },
  "8b39a72b4b78": {
    "id": "8b39a72b4b78",
    "label": "1 RUE BARRATERIE, Pézenas",
    "lat": 43.459486,
    "lng": 3.423326,
    "transactions": [
      {
        "date": "2020-09-11",
        "priceEur": 330000,
        "typeLocal": "Appartement",
        "surfaceM2": 29,
        "isVefa": false
      },
      {
        "date": "2020-09-11",
        "priceEur": 330000,
        "typeLocal": "Appartement",
        "surfaceM2": 32,
        "isVefa": false
      },
      {
        "date": "2020-09-11",
        "priceEur": 330000,
        "typeLocal": "Appartement",
        "surfaceM2": 24,
        "isVefa": false
      },
      {
        "date": "2020-09-11",
        "priceEur": 330000,
        "typeLocal": "Appartement",
        "surfaceM2": 30,
        "isVefa": false
      },
      {
        "date": "2020-09-11",
        "priceEur": 330000,
        "typeLocal": "Appartement",
        "surfaceM2": 24,
        "isVefa": false
      },
      {
        "date": "2020-09-11",
        "priceEur": 330000,
        "typeLocal": "Appartement",
        "surfaceM2": 29,
        "isVefa": false
      },
      {
        "date": "2020-09-11",
        "priceEur": 330000,
        "typeLocal": "Appartement",
        "surfaceM2": 24,
        "isVefa": false
      },
      {
        "date": "2020-09-11",
        "priceEur": 330000,
        "typeLocal": "Appartement",
        "surfaceM2": 30,
        "isVefa": false
      }
    ]
  },
  "526092f2f9dc": {
    "id": "526092f2f9dc",
    "label": "38 RUE JOSEPH CAMBON, Pézenas",
    "lat": 43.458951,
    "lng": 3.421486,
    "transactions": [
      {
        "date": "2020-09-14",
        "priceEur": 195000,
        "typeLocal": "Maison",
        "surfaceM2": 69,
        "isVefa": false
      }
    ]
  },
  "c8958b7e29b4": {
    "id": "c8958b7e29b4",
    "label": "6 RUE MARCEAU, Pézenas",
    "lat": 43.460345,
    "lng": 3.421365,
    "transactions": [
      {
        "date": "2020-08-27",
        "priceEur": 117500,
        "typeLocal": "Maison",
        "surfaceM2": 50,
        "isVefa": false
      }
    ]
  },
  "773e2437a088": {
    "id": "773e2437a088",
    "label": "9003 PL PIERRE PONCET, Pézenas",
    "lat": 43.458062,
    "lng": 3.422681,
    "transactions": [
      {
        "date": "2022-04-28",
        "priceEur": 148750,
        "typeLocal": "Appartement",
        "surfaceM2": 97,
        "isVefa": false
      },
      {
        "date": "2020-09-04",
        "priceEur": 68000,
        "typeLocal": "Appartement",
        "surfaceM2": 69,
        "isVefa": false
      }
    ]
  },
  "6787d25130af": {
    "id": "6787d25130af",
    "label": "2 PL JUSTIN PAULINIER, Pézenas",
    "lat": 43.460552,
    "lng": 3.420096,
    "transactions": [
      {
        "date": "2024-04-05",
        "priceEur": 234000,
        "typeLocal": "Appartement",
        "surfaceM2": 121,
        "isVefa": false
      },
      {
        "date": "2020-09-04",
        "priceEur": 49000,
        "typeLocal": "Appartement",
        "surfaceM2": 30,
        "isVefa": false
      }
    ]
  },
  "4d974a56fda7": {
    "id": "4d974a56fda7",
    "label": "22B AV CAMILLE GUERIN, Pézenas",
    "lat": 43.453169,
    "lng": 3.425304,
    "transactions": [
      {
        "date": "2020-09-28",
        "priceEur": 317000,
        "typeLocal": "Maison",
        "surfaceM2": 206,
        "isVefa": false
      }
    ]
  },
  "18170f1687e0": {
    "id": "18170f1687e0",
    "label": "1B RUE RENE LAENNEC, Pézenas",
    "lat": 43.456664,
    "lng": 3.421944,
    "transactions": [
      {
        "date": "2020-09-30",
        "priceEur": 269500,
        "typeLocal": "Maison",
        "surfaceM2": 136,
        "isVefa": false
      }
    ]
  },
  "b6fa4c97f3a0": {
    "id": "b6fa4c97f3a0",
    "label": "23 RUE HENRI REBOUL, Pézenas",
    "lat": 43.459829,
    "lng": 3.419419,
    "transactions": [
      {
        "date": "2024-03-15",
        "priceEur": 340000,
        "typeLocal": "Appartement",
        "surfaceM2": 144,
        "isVefa": false
      },
      {
        "date": "2020-10-13",
        "priceEur": 300000,
        "typeLocal": "Appartement",
        "surfaceM2": 144,
        "isVefa": false
      }
    ]
  },
  "c96122d82c04": {
    "id": "c96122d82c04",
    "label": "10 RUE DES ORFEVRES, Pézenas",
    "lat": 43.46051,
    "lng": 3.423559,
    "transactions": [
      {
        "date": "2024-07-01",
        "priceEur": 155350,
        "typeLocal": "Appartement",
        "surfaceM2": 49,
        "isVefa": false
      },
      {
        "date": "2021-07-23",
        "priceEur": 130000,
        "typeLocal": "Appartement",
        "surfaceM2": 71,
        "isVefa": false
      },
      {
        "date": "2020-10-16",
        "priceEur": 45600,
        "typeLocal": "Appartement",
        "surfaceM2": 32,
        "isVefa": false
      }
    ]
  },
  "ec37b6f6523a": {
    "id": "ec37b6f6523a",
    "label": "5 AV DE LA GARE DU MIDI, Pézenas",
    "lat": 43.456033,
    "lng": 3.425013,
    "transactions": [
      {
        "date": "2022-12-09",
        "priceEur": 427500,
        "typeLocal": "Maison",
        "surfaceM2": 130,
        "isVefa": false
      },
      {
        "date": "2020-10-15",
        "priceEur": 350000,
        "typeLocal": "Maison",
        "surfaceM2": 130,
        "isVefa": false
      }
    ]
  },
  "6f9990c9fb1c": {
    "id": "6f9990c9fb1c",
    "label": "1 RUE CORDILLE, Pézenas",
    "lat": 43.459052,
    "lng": 3.423004,
    "transactions": [
      {
        "date": "2020-09-29",
        "priceEur": 175900,
        "typeLocal": "Appartement",
        "surfaceM2": 81,
        "isVefa": false
      },
      {
        "date": "2020-09-29",
        "priceEur": 175900,
        "typeLocal": "Appartement",
        "surfaceM2": 32,
        "isVefa": false
      }
    ]
  },
  "e426b01e41e1": {
    "id": "e426b01e41e1",
    "label": "3 IMP DE L'ORATOIRE, Pézenas",
    "lat": 43.459889,
    "lng": 3.421109,
    "transactions": [
      {
        "date": "2022-04-13",
        "priceEur": 122650,
        "typeLocal": "Maison",
        "surfaceM2": 60,
        "isVefa": false
      },
      {
        "date": "2020-10-27",
        "priceEur": 73000,
        "typeLocal": "Maison",
        "surfaceM2": 40,
        "isVefa": false
      }
    ]
  },
  "1e875dd6c23c": {
    "id": "1e875dd6c23c",
    "label": "18 AV MARECHAL LECLERC, Pézenas",
    "lat": 43.459757,
    "lng": 3.426304,
    "transactions": [
      {
        "date": "2025-01-08",
        "priceEur": 43000,
        "typeLocal": "Appartement",
        "surfaceM2": 57,
        "isVefa": false
      },
      {
        "date": "2020-10-06",
        "priceEur": 172000,
        "typeLocal": "Appartement",
        "surfaceM2": 130,
        "isVefa": false
      }
    ]
  },
  "16e20cf985c4": {
    "id": "16e20cf985c4",
    "label": "3 RUE VICTOR HUGO, Pézenas",
    "lat": 43.458892,
    "lng": 3.42431,
    "transactions": [
      {
        "date": "2023-12-08",
        "priceEur": 177240,
        "typeLocal": "Appartement",
        "surfaceM2": 81,
        "isVefa": false
      },
      {
        "date": "2022-12-16",
        "priceEur": 70800,
        "typeLocal": "Appartement",
        "surfaceM2": 29,
        "isVefa": false
      },
      {
        "date": "2022-11-24",
        "priceEur": 159500,
        "typeLocal": "Appartement",
        "surfaceM2": 68,
        "isVefa": false
      },
      {
        "date": "2020-12-02",
        "priceEur": 122400,
        "typeLocal": "Appartement",
        "surfaceM2": 81,
        "isVefa": false
      },
      {
        "date": "2020-10-08",
        "priceEur": 56551,
        "typeLocal": "Appartement",
        "surfaceM2": 29,
        "isVefa": false
      }
    ]
  },
  "09c2e3dec0b1": {
    "id": "09c2e3dec0b1",
    "label": "4 IMP DU CORDEAU, Pézenas",
    "lat": 43.459472,
    "lng": 3.424761,
    "transactions": [
      {
        "date": "2020-10-09",
        "priceEur": 156510,
        "typeLocal": "Appartement",
        "surfaceM2": 71,
        "isVefa": false
      }
    ]
  },
  "f28ad2db6d12": {
    "id": "f28ad2db6d12",
    "label": "38 RUE CONTI, Pézenas",
    "lat": 43.458877,
    "lng": 3.425029,
    "transactions": [
      {
        "date": "2020-11-06",
        "priceEur": 66000,
        "typeLocal": "Appartement",
        "surfaceM2": 43,
        "isVefa": false
      }
    ]
  },
  "e9ad2e8d85c5": {
    "id": "e9ad2e8d85c5",
    "label": "3 RUE FRANCOIS OUSTRIN, Pézenas",
    "lat": 43.460893,
    "lng": 3.423687,
    "transactions": [
      {
        "date": "2022-03-26",
        "priceEur": 152000,
        "typeLocal": "Appartement",
        "surfaceM2": 89,
        "isVefa": false
      },
      {
        "date": "2021-02-03",
        "priceEur": 181000,
        "typeLocal": "Appartement",
        "surfaceM2": 95,
        "isVefa": false
      },
      {
        "date": "2020-10-16",
        "priceEur": 39000,
        "typeLocal": "Appartement",
        "surfaceM2": 89,
        "isVefa": false
      }
    ]
  },
  "94b8f6130395": {
    "id": "94b8f6130395",
    "label": "4 AV FRANCOIS CUREE, Pézenas",
    "lat": 43.45787,
    "lng": 3.421934,
    "transactions": [
      {
        "date": "2021-12-01",
        "priceEur": 60000,
        "typeLocal": "Appartement",
        "surfaceM2": 76,
        "isVefa": false
      },
      {
        "date": "2021-04-29",
        "priceEur": 227000,
        "typeLocal": "Appartement",
        "surfaceM2": 60,
        "isVefa": false
      },
      {
        "date": "2021-04-29",
        "priceEur": 227000,
        "typeLocal": "Appartement",
        "surfaceM2": 72,
        "isVefa": false
      },
      {
        "date": "2021-04-29",
        "priceEur": 227000,
        "typeLocal": "Appartement",
        "surfaceM2": 68,
        "isVefa": false
      },
      {
        "date": "2020-11-04",
        "priceEur": 136960,
        "typeLocal": "Appartement",
        "surfaceM2": 80,
        "isVefa": false
      }
    ]
  },
  "13c9067c4edf": {
    "id": "13c9067c4edf",
    "label": "22 RUE ALCIDE TRINQUAT, Pézenas",
    "lat": 43.457594,
    "lng": 3.424461,
    "transactions": [
      {
        "date": "2020-10-23",
        "priceEur": 380000,
        "typeLocal": "Appartement",
        "surfaceM2": 89,
        "isVefa": false
      },
      {
        "date": "2020-10-23",
        "priceEur": 380000,
        "typeLocal": "Appartement",
        "surfaceM2": 40,
        "isVefa": false
      },
      {
        "date": "2020-10-23",
        "priceEur": 380000,
        "typeLocal": "Appartement",
        "surfaceM2": 61,
        "isVefa": false
      },
      {
        "date": "2020-10-23",
        "priceEur": 380000,
        "typeLocal": "Appartement",
        "surfaceM2": 35,
        "isVefa": false
      },
      {
        "date": "2020-10-23",
        "priceEur": 380000,
        "typeLocal": "Appartement",
        "surfaceM2": 61,
        "isVefa": false
      }
    ]
  },
  "14aebf4ddd38": {
    "id": "14aebf4ddd38",
    "label": "12 PL PAUL GAUGUIN, Pézenas",
    "lat": 43.455519,
    "lng": 3.417143,
    "transactions": [
      {
        "date": "2020-10-23",
        "priceEur": 276000,
        "typeLocal": "Maison",
        "surfaceM2": 120,
        "isVefa": false
      }
    ]
  },
  "04f48f60ad09": {
    "id": "04f48f60ad09",
    "label": "3 RUE DE LA FOIRE, Pézenas",
    "lat": 43.460015,
    "lng": 3.423312,
    "transactions": [
      {
        "date": "2024-03-29",
        "priceEur": 47650,
        "typeLocal": "Appartement",
        "surfaceM2": 23,
        "isVefa": false
      },
      {
        "date": "2020-11-20",
        "priceEur": 76171,
        "typeLocal": "Appartement",
        "surfaceM2": 60,
        "isVefa": false
      }
    ]
  },
  "bedac1a86bc5": {
    "id": "bedac1a86bc5",
    "label": "16 RUE JOSEPH CAMBON, Pézenas",
    "lat": 43.459372,
    "lng": 3.421815,
    "transactions": [
      {
        "date": "2020-11-24",
        "priceEur": 114000,
        "typeLocal": "Maison",
        "surfaceM2": 91,
        "isVefa": false
      }
    ]
  },
  "f36c9e5e8320": {
    "id": "f36c9e5e8320",
    "label": "8 RUE TRIPERIE VIEILLE, Pézenas",
    "lat": 43.460492,
    "lng": 3.423119,
    "transactions": [
      {
        "date": "2024-09-25",
        "priceEur": 93600,
        "typeLocal": "Appartement",
        "surfaceM2": 30,
        "isVefa": false
      },
      {
        "date": "2023-09-22",
        "priceEur": 74500,
        "typeLocal": "Appartement",
        "surfaceM2": 30,
        "isVefa": false
      },
      {
        "date": "2020-11-16",
        "priceEur": 74000,
        "typeLocal": "Appartement",
        "surfaceM2": 60,
        "isVefa": false
      }
    ]
  },
  "90c761c2b92d": {
    "id": "90c761c2b92d",
    "label": "4 PL DE LA REPUBLIQUE, Pézenas",
    "lat": 43.459564,
    "lng": 3.422999,
    "transactions": [
      {
        "date": "2020-11-04",
        "priceEur": 62000,
        "typeLocal": "Appartement",
        "surfaceM2": 31,
        "isVefa": false
      }
    ]
  },
  "e766781b612f": {
    "id": "e766781b612f",
    "label": "15 RUE MONTESQUIEU, Pézenas",
    "lat": 43.459467,
    "lng": 3.42539,
    "transactions": [
      {
        "date": "2022-11-23",
        "priceEur": 96000,
        "typeLocal": "Maison",
        "surfaceM2": 55,
        "isVefa": false
      },
      {
        "date": "2020-11-13",
        "priceEur": 73000,
        "typeLocal": "Maison",
        "surfaceM2": 55,
        "isVefa": false
      }
    ]
  },
  "a168ab6bc017": {
    "id": "a168ab6bc017",
    "label": "28 AV MARECHAL LECLERC, Pézenas",
    "lat": 43.459321,
    "lng": 3.426859,
    "transactions": [
      {
        "date": "2020-12-03",
        "priceEur": 150000,
        "typeLocal": "Appartement",
        "surfaceM2": 193,
        "isVefa": false
      }
    ]
  },
  "4e55880da202": {
    "id": "4e55880da202",
    "label": "7 RUE CONTI, Pézenas",
    "lat": 43.459651,
    "lng": 3.424266,
    "transactions": [
      {
        "date": "2023-11-09",
        "priceEur": 75000,
        "typeLocal": "Appartement",
        "surfaceM2": 72,
        "isVefa": false
      },
      {
        "date": "2020-11-17",
        "priceEur": 60000,
        "typeLocal": "Appartement",
        "surfaceM2": 72,
        "isVefa": false
      }
    ]
  },
  "d1da4fa5291a": {
    "id": "d1da4fa5291a",
    "label": "5 RUE VENEL, Pézenas",
    "lat": 43.460406,
    "lng": 3.421245,
    "transactions": [
      {
        "date": "2022-11-24",
        "priceEur": 104000,
        "typeLocal": "Maison",
        "surfaceM2": 47,
        "isVefa": false
      },
      {
        "date": "2020-12-03",
        "priceEur": 65000,
        "typeLocal": "Maison",
        "surfaceM2": 47,
        "isVefa": false
      }
    ]
  },
  "cb54d2ce31ea": {
    "id": "cb54d2ce31ea",
    "label": "14 AV DE CASTELNAU, Pézenas",
    "lat": 43.457905,
    "lng": 3.426939,
    "transactions": [
      {
        "date": "2020-11-21",
        "priceEur": 153500,
        "typeLocal": "Maison",
        "surfaceM2": 150,
        "isVefa": false
      }
    ]
  },
  "ab0c866de11b": {
    "id": "ab0c866de11b",
    "label": "14 RUE ALCIDE TRINQUAT, Pézenas",
    "lat": 43.457861,
    "lng": 3.423496,
    "transactions": [
      {
        "date": "2020-11-23",
        "priceEur": 247000,
        "typeLocal": "Appartement",
        "surfaceM2": 104,
        "isVefa": false
      }
    ]
  },
  "1853025f9557": {
    "id": "1853025f9557",
    "label": "3 RUE DU VIEUX SALIN, Pézenas",
    "lat": 43.459233,
    "lng": 3.424406,
    "transactions": [
      {
        "date": "2023-04-20",
        "priceEur": 46500,
        "typeLocal": "Appartement",
        "surfaceM2": 26,
        "isVefa": false
      },
      {
        "date": "2021-09-23",
        "priceEur": 94600,
        "typeLocal": "Appartement",
        "surfaceM2": 55,
        "isVefa": false
      },
      {
        "date": "2020-12-15",
        "priceEur": 93100,
        "typeLocal": "Appartement",
        "surfaceM2": 55,
        "isVefa": false
      }
    ]
  },
  "63b4c13334a7": {
    "id": "63b4c13334a7",
    "label": "8 RUE JOSEPH RELIN, Pézenas",
    "lat": 43.457102,
    "lng": 3.423756,
    "transactions": [
      {
        "date": "2022-12-20",
        "priceEur": 344500,
        "typeLocal": "Maison",
        "surfaceM2": 81,
        "isVefa": false
      },
      {
        "date": "2020-12-08",
        "priceEur": 200000,
        "typeLocal": "Maison",
        "surfaceM2": 81,
        "isVefa": false
      }
    ]
  },
  "5ca9b67a9414": {
    "id": "5ca9b67a9414",
    "label": "12 AV DE CASTELNAU, Pézenas",
    "lat": 43.457977,
    "lng": 3.426879,
    "transactions": [
      {
        "date": "2022-07-08",
        "priceEur": 265470,
        "typeLocal": "Maison",
        "surfaceM2": 120,
        "isVefa": false
      },
      {
        "date": "2020-12-14",
        "priceEur": 235000,
        "typeLocal": "Maison",
        "surfaceM2": 120,
        "isVefa": false
      }
    ]
  },
  "e0fc2e65c871": {
    "id": "e0fc2e65c871",
    "label": "14 RUE DE LA FOIRE, Pézenas",
    "lat": 43.460518,
    "lng": 3.42282,
    "transactions": [
      {
        "date": "2020-12-10",
        "priceEur": 72000,
        "typeLocal": "Appartement",
        "surfaceM2": 50,
        "isVefa": false
      }
    ]
  },
  "c831eab342e8": {
    "id": "c831eab342e8",
    "label": "1 IMP D'ARCOLE, Pézenas",
    "lat": 43.459274,
    "lng": 3.422077,
    "transactions": [
      {
        "date": "2020-12-16",
        "priceEur": 165500,
        "typeLocal": "Appartement",
        "surfaceM2": 21,
        "isVefa": false
      },
      {
        "date": "2020-12-16",
        "priceEur": 165500,
        "typeLocal": "Appartement",
        "surfaceM2": 38,
        "isVefa": false
      },
      {
        "date": "2020-12-16",
        "priceEur": 165500,
        "typeLocal": "Appartement",
        "surfaceM2": 38,
        "isVefa": false
      }
    ]
  },
  "7cd9a2fbc6f6": {
    "id": "7cd9a2fbc6f6",
    "label": "14 RUE JOSEPH RELIN, Pézenas",
    "lat": 43.457232,
    "lng": 3.42325,
    "transactions": [
      {
        "date": "2020-12-24",
        "priceEur": 230000,
        "typeLocal": "Maison",
        "surfaceM2": 108,
        "isVefa": false
      }
    ]
  },
  "fb0b07ae9393": {
    "id": "fb0b07ae9393",
    "label": "14 ALL DU VERGER, Pézenas",
    "lat": 43.457105,
    "lng": 3.426588,
    "transactions": [
      {
        "date": "2020-12-29",
        "priceEur": 88750,
        "typeLocal": "Appartement",
        "surfaceM2": 67,
        "isVefa": false
      }
    ]
  },
  "7260c2a7df1a": {
    "id": "7260c2a7df1a",
    "label": "5 AV CAMILLE GUERIN, Pézenas",
    "lat": 43.456416,
    "lng": 3.425712,
    "transactions": [
      {
        "date": "2020-12-23",
        "priceEur": 406000,
        "typeLocal": "Maison",
        "surfaceM2": 98,
        "isVefa": false
      }
    ]
  },
  "bf9adbec0249": {
    "id": "bf9adbec0249",
    "label": "35 RUE ANATOLE FRANCE, Pézenas",
    "lat": 43.458494,
    "lng": 3.422593,
    "transactions": [
      {
        "date": "2025-05-24",
        "priceEur": 243000,
        "typeLocal": "Appartement",
        "surfaceM2": 90,
        "isVefa": false
      },
      {
        "date": "2020-12-30",
        "priceEur": 283000,
        "typeLocal": "Appartement",
        "surfaceM2": 90,
        "isVefa": false
      }
    ]
  },
  "53f996fdab64": {
    "id": "53f996fdab64",
    "label": "10 RUE DES FABRE, Pézenas",
    "lat": 43.459825,
    "lng": 3.424441,
    "transactions": [
      {
        "date": "2020-11-06",
        "priceEur": 192000,
        "typeLocal": "Appartement",
        "surfaceM2": 46,
        "isVefa": false
      },
      {
        "date": "2020-11-06",
        "priceEur": 192000,
        "typeLocal": "Appartement",
        "surfaceM2": 46,
        "isVefa": false
      }
    ]
  },
  "a807ae18aa2d": {
    "id": "a807ae18aa2d",
    "label": "7 RUE JEAN JACQUES ROUSSEAU, Pézenas",
    "lat": 43.45976,
    "lng": 3.424535,
    "transactions": [
      {
        "date": "2020-11-06",
        "priceEur": 192000,
        "typeLocal": "Maison",
        "surfaceM2": 180,
        "isVefa": false
      }
    ]
  },
  "4b6351d43692": {
    "id": "4b6351d43692",
    "label": "14 RUE DU DOCTEUR MARTIN, Pézenas",
    "lat": 43.459798,
    "lng": 3.421872,
    "transactions": [
      {
        "date": "2021-11-30",
        "priceEur": 230500,
        "typeLocal": "Maison",
        "surfaceM2": 90,
        "isVefa": false
      },
      {
        "date": "2021-01-12",
        "priceEur": 100000,
        "typeLocal": "Maison",
        "surfaceM2": 90,
        "isVefa": false
      }
    ]
  },
  "c8d64e44ecaa": {
    "id": "c8d64e44ecaa",
    "label": "9 RUE MARCEAU, Pézenas",
    "lat": 43.460258,
    "lng": 3.421426,
    "transactions": [
      {
        "date": "2025-01-31",
        "priceEur": 87655,
        "typeLocal": "Appartement",
        "surfaceM2": 23,
        "isVefa": false
      },
      {
        "date": "2021-12-14",
        "priceEur": 44000,
        "typeLocal": "Appartement",
        "surfaceM2": 16,
        "isVefa": false
      },
      {
        "date": "2021-07-02",
        "priceEur": 153000,
        "typeLocal": "Appartement",
        "surfaceM2": 16,
        "isVefa": false
      },
      {
        "date": "2021-01-11",
        "priceEur": 38000,
        "typeLocal": "Appartement",
        "surfaceM2": 23,
        "isVefa": false
      }
    ]
  },
  "0c5affc7984a": {
    "id": "0c5affc7984a",
    "label": "3 IMP DE L'ANCIEN HOPITAL, Pézenas",
    "lat": 43.458482,
    "lng": 3.422742,
    "transactions": [
      {
        "date": "2021-01-07",
        "priceEur": 41000,
        "typeLocal": "Maison",
        "surfaceM2": 40,
        "isVefa": false
      }
    ]
  },
  "e3d7e8f08899": {
    "id": "e3d7e8f08899",
    "label": "6 RUE MERCIERE, Pézenas",
    "lat": 43.460672,
    "lng": 3.423695,
    "transactions": [
      {
        "date": "2021-01-15",
        "priceEur": 5000,
        "typeLocal": "Appartement",
        "surfaceM2": 30,
        "isVefa": false
      }
    ]
  },
  "399e580fe39a": {
    "id": "399e580fe39a",
    "label": "12 RUE CALQUIERES HAUTES, Pézenas",
    "lat": 43.460708,
    "lng": 3.427511,
    "transactions": [
      {
        "date": "2021-01-15",
        "priceEur": 450000,
        "typeLocal": "Appartement",
        "surfaceM2": 52,
        "isVefa": false
      },
      {
        "date": "2021-01-15",
        "priceEur": 450000,
        "typeLocal": "Appartement",
        "surfaceM2": 80,
        "isVefa": false
      }
    ]
  },
  "2dd8eb9030cc": {
    "id": "2dd8eb9030cc",
    "label": "13 RUE MICHELET, Pézenas",
    "lat": 43.458953,
    "lng": 3.424368,
    "transactions": [
      {
        "date": "2021-01-22",
        "priceEur": 123900,
        "typeLocal": "Maison",
        "surfaceM2": 53,
        "isVefa": false
      }
    ]
  },
  "16e7902340ca": {
    "id": "16e7902340ca",
    "label": "25 AV DE VERDUN, Pézenas",
    "lat": 43.455358,
    "lng": 3.423377,
    "transactions": [
      {
        "date": "2021-01-25",
        "priceEur": 255150,
        "typeLocal": "Maison",
        "surfaceM2": 85,
        "isVefa": false
      }
    ]
  },
  "93f55ce227e4": {
    "id": "93f55ce227e4",
    "label": "12 AV LOUIS MONTAGNE, Pézenas",
    "lat": 43.458966,
    "lng": 3.426491,
    "transactions": [
      {
        "date": "2021-02-12",
        "priceEur": 77000,
        "typeLocal": "Appartement",
        "surfaceM2": 51,
        "isVefa": false
      }
    ]
  },
  "2b77e9f21971": {
    "id": "2b77e9f21971",
    "label": "30 RUE DES GLACIERES, Pézenas",
    "lat": 43.457886,
    "lng": 3.424934,
    "transactions": [
      {
        "date": "2022-06-24",
        "priceEur": 254000,
        "typeLocal": "Appartement",
        "surfaceM2": 121,
        "isVefa": false
      },
      {
        "date": "2021-02-26",
        "priceEur": 30500,
        "typeLocal": "Appartement",
        "surfaceM2": 20,
        "isVefa": false
      }
    ]
  },
  "63e2e7756bda": {
    "id": "63e2e7756bda",
    "label": "4 IMP D'ARCOLE, Pézenas",
    "lat": 43.459172,
    "lng": 3.422087,
    "transactions": [
      {
        "date": "2021-02-13",
        "priceEur": 63000,
        "typeLocal": "Maison",
        "surfaceM2": 62,
        "isVefa": false
      }
    ]
  },
  "fd336cdf3ff3": {
    "id": "fd336cdf3ff3",
    "label": "7 RUE RASPAIL, Pézenas",
    "lat": 43.45932,
    "lng": 3.422976,
    "transactions": [
      {
        "date": "2024-06-18",
        "priceEur": 91500,
        "typeLocal": "Appartement",
        "surfaceM2": 61,
        "isVefa": false
      },
      {
        "date": "2024-01-29",
        "priceEur": 77600,
        "typeLocal": "Appartement",
        "surfaceM2": 46,
        "isVefa": false
      },
      {
        "date": "2021-02-18",
        "priceEur": 52100,
        "typeLocal": "Appartement",
        "surfaceM2": 46,
        "isVefa": false
      }
    ]
  },
  "ece59a8a3a60": {
    "id": "ece59a8a3a60",
    "label": "32 RUE VICTOR HUGO, Pézenas",
    "lat": 43.457542,
    "lng": 3.42464,
    "transactions": [
      {
        "date": "2021-02-06",
        "priceEur": 671000,
        "typeLocal": "Maison",
        "surfaceM2": 130,
        "isVefa": false
      }
    ]
  },
  "5c70b6249213": {
    "id": "5c70b6249213",
    "label": "8 LOT RESIDENCES DU FRONTON, Pézenas",
    "lat": 43.45726,
    "lng": 3.42693,
    "transactions": [
      {
        "date": "2022-12-09",
        "priceEur": 209000,
        "typeLocal": "Maison",
        "surfaceM2": 92,
        "isVefa": false
      },
      {
        "date": "2021-03-02",
        "priceEur": 143000,
        "typeLocal": "Maison",
        "surfaceM2": 92,
        "isVefa": false
      }
    ]
  },
  "a811f5e40be9": {
    "id": "a811f5e40be9",
    "label": "13 RUE DE LA FOIRE, Pézenas",
    "lat": 43.46025,
    "lng": 3.422823,
    "transactions": [
      {
        "date": "2022-02-18",
        "priceEur": 49600,
        "typeLocal": "Appartement",
        "surfaceM2": 33,
        "isVefa": false
      },
      {
        "date": "2021-03-02",
        "priceEur": 80800,
        "typeLocal": "Appartement",
        "surfaceM2": 67,
        "isVefa": false
      },
      {
        "date": "2021-02-23",
        "priceEur": 45000,
        "typeLocal": "Appartement",
        "surfaceM2": 52,
        "isVefa": false
      }
    ]
  },
  "ca8e0885686d": {
    "id": "ca8e0885686d",
    "label": "37B AV DE VERDUN, Pézenas",
    "lat": 43.454299,
    "lng": 3.421849,
    "transactions": [
      {
        "date": "2022-12-09",
        "priceEur": 364600,
        "typeLocal": "Appartement",
        "surfaceM2": 43,
        "isVefa": false
      },
      {
        "date": "2022-12-09",
        "priceEur": 364600,
        "typeLocal": "Appartement",
        "surfaceM2": 96,
        "isVefa": false
      },
      {
        "date": "2021-03-16",
        "priceEur": 274881,
        "typeLocal": "Appartement",
        "surfaceM2": 43,
        "isVefa": false
      },
      {
        "date": "2021-03-16",
        "priceEur": 274881,
        "typeLocal": "Appartement",
        "surfaceM2": 96,
        "isVefa": false
      }
    ]
  },
  "6fe616712739": {
    "id": "6fe616712739",
    "label": "26 RUE ANATOLE FRANCE, Pézenas",
    "lat": 43.458932,
    "lng": 3.42239,
    "transactions": [
      {
        "date": "2022-04-15",
        "priceEur": 189020,
        "typeLocal": "Maison",
        "surfaceM2": 100,
        "isVefa": false
      },
      {
        "date": "2021-03-17",
        "priceEur": 159000,
        "typeLocal": "Maison",
        "surfaceM2": 100,
        "isVefa": false
      }
    ]
  },
  "885af4664348": {
    "id": "885af4664348",
    "label": "5 RUE BARBES, Pézenas",
    "lat": 43.459496,
    "lng": 3.424002,
    "transactions": [
      {
        "date": "2021-03-22",
        "priceEur": 120000,
        "typeLocal": "Maison",
        "surfaceM2": 72,
        "isVefa": false
      }
    ]
  },
  "aa52c64c5732": {
    "id": "aa52c64c5732",
    "label": "5 RUE CAPITAINE DAVID, Pézenas",
    "lat": 43.459699,
    "lng": 3.425125,
    "transactions": [
      {
        "date": "2021-03-16",
        "priceEur": 145000,
        "typeLocal": "Appartement",
        "surfaceM2": 30,
        "isVefa": false
      }
    ]
  },
  "8ba5f503c1c0": {
    "id": "8ba5f503c1c0",
    "label": "3 RUE CAPITAINE DAVID, Pézenas",
    "lat": 43.459721,
    "lng": 3.425089,
    "transactions": [
      {
        "date": "2021-03-16",
        "priceEur": 145000,
        "typeLocal": "Maison",
        "surfaceM2": 57,
        "isVefa": false
      }
    ]
  },
  "f0d76922afc2": {
    "id": "f0d76922afc2",
    "label": "13 RUE MERCIERE, Pézenas",
    "lat": 43.460695,
    "lng": 3.42323,
    "transactions": [
      {
        "date": "2021-03-30",
        "priceEur": 165000,
        "typeLocal": "Appartement",
        "surfaceM2": 77,
        "isVefa": false
      }
    ]
  },
  "61f1eba9007a": {
    "id": "61f1eba9007a",
    "label": "5 RUE CHEVALIERS ST JEAN, Pézenas",
    "lat": 43.460418,
    "lng": 3.423691,
    "transactions": [
      {
        "date": "2025-01-28",
        "priceEur": 95000,
        "typeLocal": "Appartement",
        "surfaceM2": 42,
        "isVefa": false
      },
      {
        "date": "2021-04-09",
        "priceEur": 180000,
        "typeLocal": "Appartement",
        "surfaceM2": 86,
        "isVefa": false
      }
    ]
  },
  "c6676463cddb": {
    "id": "c6676463cddb",
    "label": "6 RUE ANATOLE FRANCE, Pézenas",
    "lat": 43.45951,
    "lng": 3.422394,
    "transactions": [
      {
        "date": "2025-04-04",
        "priceEur": 173700,
        "typeLocal": "Appartement",
        "surfaceM2": 83,
        "isVefa": false
      },
      {
        "date": "2024-10-14",
        "priceEur": 172786,
        "typeLocal": "Appartement",
        "surfaceM2": 83,
        "isVefa": false
      },
      {
        "date": "2024-01-17",
        "priceEur": 110000,
        "typeLocal": "Appartement",
        "surfaceM2": 65,
        "isVefa": false
      },
      {
        "date": "2023-06-30",
        "priceEur": 106730,
        "typeLocal": "Appartement",
        "surfaceM2": 54,
        "isVefa": false
      },
      {
        "date": "2021-06-23",
        "priceEur": 133067,
        "typeLocal": "Appartement",
        "surfaceM2": 83,
        "isVefa": false
      },
      {
        "date": "2021-04-29",
        "priceEur": 81000,
        "typeLocal": "Appartement",
        "surfaceM2": 54,
        "isVefa": false
      }
    ]
  },
  "0145402162fa": {
    "id": "0145402162fa",
    "label": "19 RUE CAPITAINE DAVID, Pézenas",
    "lat": 43.459397,
    "lng": 3.425753,
    "transactions": [
      {
        "date": "2021-04-17",
        "priceEur": 200450,
        "typeLocal": "Maison",
        "surfaceM2": 60,
        "isVefa": false
      }
    ]
  },
  "e2fe7c6760bb": {
    "id": "e2fe7c6760bb",
    "label": "3 AV CAMILLE GUERIN, Pézenas",
    "lat": 43.456672,
    "lng": 3.425529,
    "transactions": [
      {
        "date": "2025-03-28",
        "priceEur": 225000,
        "typeLocal": "Appartement",
        "surfaceM2": 75,
        "isVefa": false
      },
      {
        "date": "2023-04-05",
        "priceEur": 205000,
        "typeLocal": "Appartement",
        "surfaceM2": 61,
        "isVefa": false
      },
      {
        "date": "2022-12-29",
        "priceEur": 225200,
        "typeLocal": "Appartement",
        "surfaceM2": 88,
        "isVefa": false
      },
      {
        "date": "2021-04-23",
        "priceEur": 160000,
        "typeLocal": "Appartement",
        "surfaceM2": 75,
        "isVefa": false
      }
    ]
  },
  "e5078f5f3be0": {
    "id": "e5078f5f3be0",
    "label": "4 RUE PASTEUR, Pézenas",
    "lat": 43.456439,
    "lng": 3.423779,
    "transactions": [
      {
        "date": "2021-04-15",
        "priceEur": 85000,
        "typeLocal": "Appartement",
        "surfaceM2": 67,
        "isVefa": false
      }
    ]
  },
  "eeb16558de65": {
    "id": "eeb16558de65",
    "label": "1 RUE HENRI REBOUL, Pézenas",
    "lat": 43.460748,
    "lng": 3.420962,
    "transactions": [
      {
        "date": "2021-04-22",
        "priceEur": 117000,
        "typeLocal": "Appartement",
        "surfaceM2": 100,
        "isVefa": false
      }
    ]
  },
  "8af54d75e4da": {
    "id": "8af54d75e4da",
    "label": "57 CRS JEAN JAURES, Pézenas",
    "lat": 43.460748,
    "lng": 3.420962,
    "transactions": [
      {
        "date": "2021-04-22",
        "priceEur": 117000,
        "typeLocal": "Appartement",
        "surfaceM2": 3,
        "isVefa": false
      }
    ]
  },
  "0a067ddd165f": {
    "id": "0a067ddd165f",
    "label": "10 CRS JEAN JAURES, Pézenas",
    "lat": 43.460213,
    "lng": 3.422731,
    "transactions": [
      {
        "date": "2025-04-18",
        "priceEur": 565000,
        "typeLocal": "Appartement",
        "surfaceM2": 140,
        "isVefa": false
      },
      {
        "date": "2023-10-25",
        "priceEur": 420000,
        "typeLocal": "Appartement",
        "surfaceM2": 303,
        "isVefa": false
      },
      {
        "date": "2021-04-27",
        "priceEur": 8000,
        "typeLocal": "Appartement",
        "surfaceM2": 303,
        "isVefa": false
      }
    ]
  },
  "ece67a8fed61": {
    "id": "ece67a8fed61",
    "label": "2 RUE AUGUSTE MEL, Pézenas",
    "lat": 43.460085,
    "lng": 3.425968,
    "transactions": [
      {
        "date": "2021-04-30",
        "priceEur": 82000,
        "typeLocal": "Appartement",
        "surfaceM2": 52,
        "isVefa": false
      }
    ]
  },
  "268180123f76": {
    "id": "268180123f76",
    "label": "9 RUE JEAN JACQUES ROUSSEAU, Pézenas",
    "lat": 43.459884,
    "lng": 3.424562,
    "transactions": [
      {
        "date": "2023-03-31",
        "priceEur": 50000,
        "typeLocal": "Appartement",
        "surfaceM2": 79,
        "isVefa": false
      },
      {
        "date": "2022-07-11",
        "priceEur": 59400,
        "typeLocal": "Appartement",
        "surfaceM2": 76,
        "isVefa": false
      },
      {
        "date": "2021-04-30",
        "priceEur": 74500,
        "typeLocal": "Appartement",
        "surfaceM2": 76,
        "isVefa": false
      }
    ]
  },
  "9aed81e109dc": {
    "id": "9aed81e109dc",
    "label": "9 RUE CHEVALIERS ST JEAN, Pézenas",
    "lat": 43.460501,
    "lng": 3.423765,
    "transactions": [
      {
        "date": "2024-04-25",
        "priceEur": 56000,
        "typeLocal": "Appartement",
        "surfaceM2": 50,
        "isVefa": false
      },
      {
        "date": "2023-04-14",
        "priceEur": 68000,
        "typeLocal": "Appartement",
        "surfaceM2": 52,
        "isVefa": false
      },
      {
        "date": "2021-05-21",
        "priceEur": 69000,
        "typeLocal": "Appartement",
        "surfaceM2": 47,
        "isVefa": false
      }
    ]
  },
  "89274ab5bd8d": {
    "id": "89274ab5bd8d",
    "label": "11 RUE HENRI REBOUL, Pézenas",
    "lat": 43.46024,
    "lng": 3.420363,
    "transactions": [
      {
        "date": "2023-08-18",
        "priceEur": 85000,
        "typeLocal": "Appartement",
        "surfaceM2": 45,
        "isVefa": false
      },
      {
        "date": "2021-05-11",
        "priceEur": 165000,
        "typeLocal": "Appartement",
        "surfaceM2": 94,
        "isVefa": false
      }
    ]
  },
  "0163eac228f7": {
    "id": "0163eac228f7",
    "label": "8 RUE CORDILLE, Pézenas",
    "lat": 43.458901,
    "lng": 3.42314,
    "transactions": [
      {
        "date": "2021-05-11",
        "priceEur": 49500,
        "typeLocal": "Maison",
        "surfaceM2": 60,
        "isVefa": false
      }
    ]
  },
  "1d437815b883": {
    "id": "1d437815b883",
    "label": "10 RUE DENFERT ROCHEREAU, Pézenas",
    "lat": 43.45843,
    "lng": 3.423101,
    "transactions": [
      {
        "date": "2024-04-03",
        "priceEur": 145000,
        "typeLocal": "Maison",
        "surfaceM2": 50,
        "isVefa": false
      },
      {
        "date": "2021-06-08",
        "priceEur": 113000,
        "typeLocal": "Maison",
        "surfaceM2": 50,
        "isVefa": false
      }
    ]
  },
  "5bffb6f5ddef": {
    "id": "5bffb6f5ddef",
    "label": "1 RUE VICTOR HUGO, Pézenas",
    "lat": 43.458914,
    "lng": 3.42419,
    "transactions": [
      {
        "date": "2021-05-26",
        "priceEur": 105970,
        "typeLocal": "Appartement",
        "surfaceM2": 60,
        "isVefa": false
      },
      {
        "date": "2021-05-26",
        "priceEur": 105970,
        "typeLocal": "Appartement",
        "surfaceM2": 30,
        "isVefa": false
      }
    ]
  },
  "39747133d610": {
    "id": "39747133d610",
    "label": "9B AV CAMILLE GUERIN, Pézenas",
    "lat": 43.45551,
    "lng": 3.426365,
    "transactions": [
      {
        "date": "2024-09-11",
        "priceEur": 109000,
        "typeLocal": "Appartement",
        "surfaceM2": 48,
        "isVefa": false
      },
      {
        "date": "2024-05-23",
        "priceEur": 130000,
        "typeLocal": "Appartement",
        "surfaceM2": 46,
        "isVefa": false
      },
      {
        "date": "2023-03-24",
        "priceEur": 111000,
        "typeLocal": "Appartement",
        "surfaceM2": 39,
        "isVefa": false
      },
      {
        "date": "2021-12-21",
        "priceEur": 119150,
        "typeLocal": "Appartement",
        "surfaceM2": 48,
        "isVefa": false
      },
      {
        "date": "2021-09-23",
        "priceEur": 100000,
        "typeLocal": "Appartement",
        "surfaceM2": 52,
        "isVefa": false
      },
      {
        "date": "2021-05-12",
        "priceEur": 100000,
        "typeLocal": "Appartement",
        "surfaceM2": 69,
        "isVefa": false
      }
    ]
  },
  "eff3656bea7a": {
    "id": "eff3656bea7a",
    "label": "1 RUE LIEUTENANT PAULINIER, Pézenas",
    "lat": 43.46003,
    "lng": 3.424644,
    "transactions": [
      {
        "date": "2021-05-19",
        "priceEur": 455000,
        "typeLocal": "Appartement",
        "surfaceM2": 57,
        "isVefa": false
      },
      {
        "date": "2021-05-19",
        "priceEur": 455000,
        "typeLocal": "Appartement",
        "surfaceM2": 30,
        "isVefa": false
      },
      {
        "date": "2021-05-19",
        "priceEur": 455000,
        "typeLocal": "Appartement",
        "surfaceM2": 30,
        "isVefa": false
      },
      {
        "date": "2021-05-19",
        "priceEur": 455000,
        "typeLocal": "Appartement",
        "surfaceM2": 30,
        "isVefa": false
      }
    ]
  },
  "585a3da07809": {
    "id": "585a3da07809",
    "label": "20 BD F ET I JOLIOT CURIE, Pézenas",
    "lat": 43.455971,
    "lng": 3.418433,
    "transactions": [
      {
        "date": "2024-06-17",
        "priceEur": 243000,
        "typeLocal": "Maison",
        "surfaceM2": 102,
        "isVefa": false
      },
      {
        "date": "2021-05-25",
        "priceEur": 225000,
        "typeLocal": "Maison",
        "surfaceM2": 102,
        "isVefa": false
      }
    ]
  },
  "c756c1ddc635": {
    "id": "c756c1ddc635",
    "label": "7 RUE CHEVALIERS ST JEAN, Pézenas",
    "lat": 43.460421,
    "lng": 3.423766,
    "transactions": [
      {
        "date": "2022-12-14",
        "priceEur": 104000,
        "typeLocal": "Appartement",
        "surfaceM2": 79,
        "isVefa": false
      },
      {
        "date": "2021-06-04",
        "priceEur": 70000,
        "typeLocal": "Appartement",
        "surfaceM2": 41,
        "isVefa": false
      },
      {
        "date": "2021-06-04",
        "priceEur": 70000,
        "typeLocal": "Appartement",
        "surfaceM2": 41,
        "isVefa": false
      }
    ]
  },
  "503d85420f51": {
    "id": "503d85420f51",
    "label": "11 IMP DE L'HIRONDELLE, Pézenas",
    "lat": 43.459665,
    "lng": 3.424998,
    "transactions": [
      {
        "date": "2021-06-10",
        "priceEur": 62000,
        "typeLocal": "Maison",
        "surfaceM2": 56,
        "isVefa": false
      }
    ]
  },
  "e2e1b7a93ffa": {
    "id": "e2e1b7a93ffa",
    "label": "27 RUE HENRI REBOUL, Pézenas",
    "lat": 43.459907,
    "lng": 3.419197,
    "transactions": [
      {
        "date": "2025-05-06",
        "priceEur": 56000,
        "typeLocal": "Appartement",
        "surfaceM2": 29,
        "isVefa": false
      },
      {
        "date": "2021-05-21",
        "priceEur": 50000,
        "typeLocal": "Appartement",
        "surfaceM2": 29,
        "isVefa": false
      }
    ]
  },
  "21e2a3f97f25": {
    "id": "21e2a3f97f25",
    "label": "9 RUE ALCIDE TRINQUAT, Pézenas",
    "lat": 43.4581,
    "lng": 3.423229,
    "transactions": [
      {
        "date": "2021-05-21",
        "priceEur": 275000,
        "typeLocal": "Maison",
        "surfaceM2": 149,
        "isVefa": false
      }
    ]
  },
  "1db24e143b4e": {
    "id": "1db24e143b4e",
    "label": "6 RUE JOSEPH CAMBON, Pézenas",
    "lat": 43.459762,
    "lng": 3.422217,
    "transactions": [
      {
        "date": "2023-01-27",
        "priceEur": 75000,
        "typeLocal": "Appartement",
        "surfaceM2": 52,
        "isVefa": false
      },
      {
        "date": "2023-01-27",
        "priceEur": 70000,
        "typeLocal": "Appartement",
        "surfaceM2": 53,
        "isVefa": false
      },
      {
        "date": "2021-06-17",
        "priceEur": 115000,
        "typeLocal": "Appartement",
        "surfaceM2": 70,
        "isVefa": false
      }
    ]
  },
  "db115e107388": {
    "id": "db115e107388",
    "label": "5 RUE JEAN JACQUES ROUSSEAU, Pézenas",
    "lat": 43.459702,
    "lng": 3.424467,
    "transactions": [
      {
        "date": "2021-06-25",
        "priceEur": 950000,
        "typeLocal": "Appartement",
        "surfaceM2": 38,
        "isVefa": false
      },
      {
        "date": "2021-06-25",
        "priceEur": 950000,
        "typeLocal": "Appartement",
        "surfaceM2": 32,
        "isVefa": false
      },
      {
        "date": "2021-06-25",
        "priceEur": 950000,
        "typeLocal": "Appartement",
        "surfaceM2": 38,
        "isVefa": false
      },
      {
        "date": "2021-06-25",
        "priceEur": 950000,
        "typeLocal": "Appartement",
        "surfaceM2": 41,
        "isVefa": false
      }
    ]
  },
  "dc818d5eb746": {
    "id": "dc818d5eb746",
    "label": "3 RUE JEAN JACQUES ROUSSEAU, Pézenas",
    "lat": 43.459691,
    "lng": 3.424364,
    "transactions": [
      {
        "date": "2021-06-25",
        "priceEur": 950000,
        "typeLocal": "Appartement",
        "surfaceM2": 36,
        "isVefa": false
      },
      {
        "date": "2021-06-25",
        "priceEur": 950000,
        "typeLocal": "Appartement",
        "surfaceM2": 24,
        "isVefa": false
      },
      {
        "date": "2021-06-25",
        "priceEur": 950000,
        "typeLocal": "Appartement",
        "surfaceM2": 40,
        "isVefa": false
      },
      {
        "date": "2021-06-25",
        "priceEur": 950000,
        "typeLocal": "Appartement",
        "surfaceM2": 49,
        "isVefa": false
      },
      {
        "date": "2021-06-25",
        "priceEur": 950000,
        "typeLocal": "Appartement",
        "surfaceM2": 44,
        "isVefa": false
      },
      {
        "date": "2021-06-25",
        "priceEur": 950000,
        "typeLocal": "Appartement",
        "surfaceM2": 40,
        "isVefa": false
      },
      {
        "date": "2021-06-25",
        "priceEur": 950000,
        "typeLocal": "Appartement",
        "surfaceM2": 43,
        "isVefa": false
      },
      {
        "date": "2021-06-25",
        "priceEur": 950000,
        "typeLocal": "Appartement",
        "surfaceM2": 40,
        "isVefa": false
      },
      {
        "date": "2021-06-25",
        "priceEur": 950000,
        "typeLocal": "Appartement",
        "surfaceM2": 23,
        "isVefa": false
      },
      {
        "date": "2021-06-25",
        "priceEur": 950000,
        "typeLocal": "Appartement",
        "surfaceM2": 20,
        "isVefa": false
      },
      {
        "date": "2021-06-25",
        "priceEur": 950000,
        "typeLocal": "Appartement",
        "surfaceM2": 38,
        "isVefa": false
      },
      {
        "date": "2021-06-25",
        "priceEur": 950000,
        "typeLocal": "Appartement",
        "surfaceM2": 38,
        "isVefa": false
      }
    ]
  },
  "b3edea7101a6": {
    "id": "b3edea7101a6",
    "label": "33 RUE DENFERT ROCHEREAU, Pézenas",
    "lat": 43.4586,
    "lng": 3.423318,
    "transactions": [
      {
        "date": "2021-06-10",
        "priceEur": 489500,
        "typeLocal": "Maison",
        "surfaceM2": 137,
        "isVefa": false
      }
    ]
  },
  "6f8951000593": {
    "id": "6f8951000593",
    "label": "1 IMP DE L'ORATOIRE, Pézenas",
    "lat": 43.459987,
    "lng": 3.421136,
    "transactions": [
      {
        "date": "2021-06-15",
        "priceEur": 198000,
        "typeLocal": "Maison",
        "surfaceM2": 75,
        "isVefa": false
      }
    ]
  },
  "72cea2502b30": {
    "id": "72cea2502b30",
    "label": "16 RUE DU DOCTEUR MARTIN, Pézenas",
    "lat": 43.459732,
    "lng": 3.421847,
    "transactions": [
      {
        "date": "2021-06-24",
        "priceEur": 50000,
        "typeLocal": "Appartement",
        "surfaceM2": 25,
        "isVefa": false
      },
      {
        "date": "2021-06-24",
        "priceEur": 50000,
        "typeLocal": "Appartement",
        "surfaceM2": 22,
        "isVefa": false
      },
      {
        "date": "2021-06-24",
        "priceEur": 50000,
        "typeLocal": "Appartement",
        "surfaceM2": 22,
        "isVefa": false
      }
    ]
  },
  "fb577e11862c": {
    "id": "fb577e11862c",
    "label": "22 RUE DENFERT ROCHEREAU, Pézenas",
    "lat": 43.458314,
    "lng": 3.423328,
    "transactions": [
      {
        "date": "2021-06-25",
        "priceEur": 42000,
        "typeLocal": "Maison",
        "surfaceM2": 18,
        "isVefa": false
      }
    ]
  },
  "65718641c499": {
    "id": "65718641c499",
    "label": "16 RUE DENFERT ROCHEREAU, Pézenas",
    "lat": 43.45835,
    "lng": 3.423133,
    "transactions": [
      {
        "date": "2021-06-28",
        "priceEur": 315000,
        "typeLocal": "Maison",
        "surfaceM2": 80,
        "isVefa": false
      }
    ]
  },
  "8fd33fa64b43": {
    "id": "8fd33fa64b43",
    "label": "21 RUE ANATOLE FRANCE, Pézenas",
    "lat": 43.459054,
    "lng": 3.422702,
    "transactions": [
      {
        "date": "2021-06-25",
        "priceEur": 199000,
        "typeLocal": "Appartement",
        "surfaceM2": 30,
        "isVefa": false
      },
      {
        "date": "2021-06-25",
        "priceEur": 199000,
        "typeLocal": "Appartement",
        "surfaceM2": 45,
        "isVefa": false
      },
      {
        "date": "2021-06-25",
        "priceEur": 199000,
        "typeLocal": "Appartement",
        "surfaceM2": 30,
        "isVefa": false
      }
    ]
  },
  "ae68795ae8fa": {
    "id": "ae68795ae8fa",
    "label": "9 RUE EMILE ZOLA, Pézenas",
    "lat": 43.460846,
    "lng": 3.421452,
    "transactions": [
      {
        "date": "2021-06-23",
        "priceEur": 150000,
        "typeLocal": "Appartement",
        "surfaceM2": 75,
        "isVefa": false
      }
    ]
  },
  "186c9cbfecf4": {
    "id": "186c9cbfecf4",
    "label": "22 RUE CAPITAINE DAVID, Pézenas",
    "lat": 43.458976,
    "lng": 3.42601,
    "transactions": [
      {
        "date": "2023-06-09",
        "priceEur": 173850,
        "typeLocal": "Appartement",
        "surfaceM2": 74,
        "isVefa": false
      },
      {
        "date": "2022-09-01",
        "priceEur": 122000,
        "typeLocal": "Appartement",
        "surfaceM2": 46,
        "isVefa": false
      },
      {
        "date": "2021-12-15",
        "priceEur": 71000,
        "typeLocal": "Appartement",
        "surfaceM2": 86,
        "isVefa": false
      },
      {
        "date": "2021-06-30",
        "priceEur": 92000,
        "typeLocal": "Appartement",
        "surfaceM2": 30,
        "isVefa": false
      }
    ]
  },
  "02af2406ff1d": {
    "id": "02af2406ff1d",
    "label": "28 RUE DES GLACIERES, Pézenas",
    "lat": 43.45783,
    "lng": 3.424992,
    "transactions": [
      {
        "date": "2022-02-16",
        "priceEur": 135000,
        "typeLocal": "Appartement",
        "surfaceM2": 71,
        "isVefa": false
      },
      {
        "date": "2021-07-02",
        "priceEur": 75000,
        "typeLocal": "Appartement",
        "surfaceM2": 66,
        "isVefa": false
      }
    ]
  },
  "608fac37a930": {
    "id": "608fac37a930",
    "label": "11 RUE MARCEAU, Pézenas",
    "lat": 43.460224,
    "lng": 3.421401,
    "transactions": [
      {
        "date": "2021-07-02",
        "priceEur": 153000,
        "typeLocal": "Appartement",
        "surfaceM2": 50,
        "isVefa": false
      }
    ]
  },
  "a011933117a8": {
    "id": "a011933117a8",
    "label": "2B RUE DU VIEUX SALIN, Pézenas",
    "lat": 43.459377,
    "lng": 3.424416,
    "transactions": [
      {
        "date": "2024-03-02",
        "priceEur": 84320,
        "typeLocal": "Appartement",
        "surfaceM2": 46,
        "isVefa": false
      },
      {
        "date": "2021-07-09",
        "priceEur": 70000,
        "typeLocal": "Appartement",
        "surfaceM2": 52,
        "isVefa": false
      }
    ]
  },
  "2d43fd084851": {
    "id": "2d43fd084851",
    "label": "23 RUE DENFERT ROCHEREAU, Pézenas",
    "lat": 43.458598,
    "lng": 3.423179,
    "transactions": [
      {
        "date": "2021-07-23",
        "priceEur": 75000,
        "typeLocal": "Maison",
        "surfaceM2": 48,
        "isVefa": false
      }
    ]
  },
  "2145028d9782": {
    "id": "2145028d9782",
    "label": "2 AV ARISTIDE BRIAND, Pézenas",
    "lat": 43.458369,
    "lng": 3.42589,
    "transactions": [
      {
        "date": "2021-07-22",
        "priceEur": 133500,
        "typeLocal": "Appartement",
        "surfaceM2": 79,
        "isVefa": false
      }
    ]
  },
  "ea34128488e9": {
    "id": "ea34128488e9",
    "label": "11 PL BONNET, Pézenas",
    "lat": 43.457029,
    "lng": 3.424895,
    "transactions": [
      {
        "date": "2022-02-23",
        "priceEur": 175750,
        "typeLocal": "Appartement",
        "surfaceM2": 139,
        "isVefa": false
      },
      {
        "date": "2021-07-27",
        "priceEur": 200000,
        "typeLocal": "Appartement",
        "surfaceM2": 101,
        "isVefa": false
      }
    ]
  },
  "b5f552c3f734": {
    "id": "b5f552c3f734",
    "label": "1 RUE TRIPERIE VIEILLE, Pézenas",
    "lat": 43.460503,
    "lng": 3.422913,
    "transactions": [
      {
        "date": "2022-07-01",
        "priceEur": 84600,
        "typeLocal": "Appartement",
        "surfaceM2": 48,
        "isVefa": false
      },
      {
        "date": "2022-04-26",
        "priceEur": 62000,
        "typeLocal": "Appartement",
        "surfaceM2": 47,
        "isVefa": false
      },
      {
        "date": "2021-07-27",
        "priceEur": 82400,
        "typeLocal": "Appartement",
        "surfaceM2": 70,
        "isVefa": false
      }
    ]
  },
  "0a5ab08784b4": {
    "id": "0a5ab08784b4",
    "label": "4 RUE CAMBEFORT, Pézenas",
    "lat": 43.458359,
    "lng": 3.423633,
    "transactions": [
      {
        "date": "2021-08-04",
        "priceEur": 75000,
        "typeLocal": "Maison",
        "surfaceM2": 36,
        "isVefa": false
      }
    ]
  },
  "1d57688ca359": {
    "id": "1d57688ca359",
    "label": "3 RUE COMMANDANT BASSAS, Pézenas",
    "lat": 43.45885,
    "lng": 3.42382,
    "transactions": [
      {
        "date": "2023-12-15",
        "priceEur": 140000,
        "typeLocal": "Appartement",
        "surfaceM2": 62,
        "isVefa": false
      },
      {
        "date": "2021-08-13",
        "priceEur": 93000,
        "typeLocal": "Appartement",
        "surfaceM2": 52,
        "isVefa": false
      }
    ]
  },
  "1149e47df9e9": {
    "id": "1149e47df9e9",
    "label": "3 RUE MICHELET, Pézenas",
    "lat": 43.459219,
    "lng": 3.424585,
    "transactions": [
      {
        "date": "2021-08-13",
        "priceEur": 157300,
        "typeLocal": "Maison",
        "surfaceM2": 82,
        "isVefa": false
      }
    ]
  },
  "737f453bb634": {
    "id": "737f453bb634",
    "label": "17 ALL DU FRONTON, Pézenas",
    "lat": 43.45698,
    "lng": 3.426668,
    "transactions": [
      {
        "date": "2022-11-08",
        "priceEur": 221000,
        "typeLocal": "Appartement",
        "surfaceM2": 87,
        "isVefa": false
      },
      {
        "date": "2021-09-07",
        "priceEur": 185000,
        "typeLocal": "Appartement",
        "surfaceM2": 87,
        "isVefa": false
      }
    ]
  },
  "48024cefbe72": {
    "id": "48024cefbe72",
    "label": "5 RUE VICTOR HUGO, Pézenas",
    "lat": 43.458831,
    "lng": 3.424287,
    "transactions": [
      {
        "date": "2024-09-13",
        "priceEur": 50000,
        "typeLocal": "Appartement",
        "surfaceM2": 26,
        "isVefa": false
      },
      {
        "date": "2021-08-20",
        "priceEur": 33000,
        "typeLocal": "Appartement",
        "surfaceM2": 26,
        "isVefa": false
      }
    ]
  },
  "fa35a17a810d": {
    "id": "fa35a17a810d",
    "label": "6 AV LOUIS MONTAGNE, Pézenas",
    "lat": 43.459175,
    "lng": 3.426664,
    "transactions": [
      {
        "date": "2023-10-25",
        "priceEur": 108900,
        "typeLocal": "Appartement",
        "surfaceM2": 52,
        "isVefa": false
      },
      {
        "date": "2023-01-09",
        "priceEur": 314290,
        "typeLocal": "Appartement",
        "surfaceM2": 125,
        "isVefa": false
      },
      {
        "date": "2021-09-01",
        "priceEur": 219000,
        "typeLocal": "Appartement",
        "surfaceM2": 125,
        "isVefa": false
      }
    ]
  },
  "18999a43fcab": {
    "id": "18999a43fcab",
    "label": "8 IMP DE L'HIRONDELLE, Pézenas",
    "lat": 43.459478,
    "lng": 3.425029,
    "transactions": [
      {
        "date": "2021-08-20",
        "priceEur": 91200,
        "typeLocal": "Maison",
        "surfaceM2": 76,
        "isVefa": false
      }
    ]
  },
  "86712791ccbb": {
    "id": "86712791ccbb",
    "label": "9 RUE DU DOCTEUR MARTIN, Pézenas",
    "lat": 43.459707,
    "lng": 3.421948,
    "transactions": [
      {
        "date": "2021-08-21",
        "priceEur": 98000,
        "typeLocal": "Maison",
        "surfaceM2": 71,
        "isVefa": false
      }
    ]
  },
  "eb2970c34057": {
    "id": "eb2970c34057",
    "label": "1 RUE EMILE MAZUC, Pézenas",
    "lat": 43.460651,
    "lng": 3.420963,
    "transactions": [
      {
        "date": "2021-08-18",
        "priceEur": 89000,
        "typeLocal": "Maison",
        "surfaceM2": 60,
        "isVefa": false
      }
    ]
  },
  "14d731d8eb9d": {
    "id": "14d731d8eb9d",
    "label": "5 RUE DES GLACIERES, Pézenas",
    "lat": 43.458079,
    "lng": 3.425528,
    "transactions": [
      {
        "date": "2024-06-11",
        "priceEur": 157000,
        "typeLocal": "Appartement",
        "surfaceM2": 66,
        "isVefa": false
      },
      {
        "date": "2021-09-09",
        "priceEur": 100000,
        "typeLocal": "Appartement",
        "surfaceM2": 66,
        "isVefa": false
      }
    ]
  },
  "427bb5b0c857": {
    "id": "427bb5b0c857",
    "label": "9 RUE CAPITAINE DAVID, Pézenas",
    "lat": 43.459634,
    "lng": 3.425243,
    "transactions": [
      {
        "date": "2021-09-07",
        "priceEur": 199000,
        "typeLocal": "Maison",
        "surfaceM2": 50,
        "isVefa": false
      }
    ]
  },
  "7c977a5f9411": {
    "id": "7c977a5f9411",
    "label": "46 RUE JOSEPH CAMBON, Pézenas",
    "lat": 43.458784,
    "lng": 3.421385,
    "transactions": [
      {
        "date": "2021-09-03",
        "priceEur": 117140,
        "typeLocal": "Maison",
        "surfaceM2": 50,
        "isVefa": false
      }
    ]
  },
  "edbb4e9d8ba4": {
    "id": "edbb4e9d8ba4",
    "label": "6 RUE COLONEL TARNIQUET, Pézenas",
    "lat": 43.458996,
    "lng": 3.425641,
    "transactions": [
      {
        "date": "2021-10-01",
        "priceEur": 107650,
        "typeLocal": "Maison",
        "surfaceM2": 80,
        "isVefa": false
      }
    ]
  },
  "7959e7b10265": {
    "id": "7959e7b10265",
    "label": "12 RUE CONTI, Pézenas",
    "lat": 43.459471,
    "lng": 3.424245,
    "transactions": [
      {
        "date": "2021-09-28",
        "priceEur": 34000,
        "typeLocal": "Appartement",
        "surfaceM2": 42,
        "isVefa": false
      }
    ]
  },
  "cd7fc00dbb79": {
    "id": "cd7fc00dbb79",
    "label": "2 RUE ARISTIDE ROUZIERE, Pézenas",
    "lat": 43.460705,
    "lng": 3.424089,
    "transactions": [
      {
        "date": "2021-10-27",
        "priceEur": 245000,
        "typeLocal": "Appartement",
        "surfaceM2": 167,
        "isVefa": false
      }
    ]
  },
  "3060b1e5349c": {
    "id": "3060b1e5349c",
    "label": "18 RUE TRIPERIE VIEILLE, Pézenas",
    "lat": 43.460744,
    "lng": 3.423048,
    "transactions": [
      {
        "date": "2025-03-17",
        "priceEur": 102500,
        "typeLocal": "Appartement",
        "surfaceM2": 37,
        "isVefa": false
      },
      {
        "date": "2021-10-22",
        "priceEur": 77120,
        "typeLocal": "Appartement",
        "surfaceM2": 37,
        "isVefa": false
      }
    ]
  },
  "6168a7e2af76": {
    "id": "6168a7e2af76",
    "label": "2 RUE DE LA FOIRE, Pézenas",
    "lat": 43.460202,
    "lng": 3.42332,
    "transactions": [
      {
        "date": "2023-02-24",
        "priceEur": 145000,
        "typeLocal": "Appartement",
        "surfaceM2": 61,
        "isVefa": false
      },
      {
        "date": "2021-10-21",
        "priceEur": 56000,
        "typeLocal": "Appartement",
        "surfaceM2": 61,
        "isVefa": false
      }
    ]
  },
  "5b5b0bd702c9": {
    "id": "5b5b0bd702c9",
    "label": "10 RUE DES DE JUVENEL, Pézenas",
    "lat": 43.459314,
    "lng": 3.423708,
    "transactions": [
      {
        "date": "2021-10-22",
        "priceEur": 141000,
        "typeLocal": "Maison",
        "surfaceM2": 92,
        "isVefa": false
      }
    ]
  },
  "66fde61beab9": {
    "id": "66fde61beab9",
    "label": "9 RUE PLAUCHE, Pézenas",
    "lat": 43.460015,
    "lng": 3.425617,
    "transactions": [
      {
        "date": "2023-06-07",
        "priceEur": 215000,
        "typeLocal": "Maison",
        "surfaceM2": 65,
        "isVefa": false
      },
      {
        "date": "2021-10-22",
        "priceEur": 190000,
        "typeLocal": "Maison",
        "surfaceM2": 65,
        "isVefa": false
      }
    ]
  },
  "f67921428f47": {
    "id": "f67921428f47",
    "label": "1 RUE RENE CASSIN, Pézenas",
    "lat": 43.460476,
    "lng": 3.417111,
    "transactions": [
      {
        "date": "2021-11-04",
        "priceEur": 245200,
        "typeLocal": "Maison",
        "surfaceM2": 86,
        "isVefa": false
      }
    ]
  },
  "15065fbfa353": {
    "id": "15065fbfa353",
    "label": "12 RUE MERCIERE, Pézenas",
    "lat": 43.460829,
    "lng": 3.423419,
    "transactions": [
      {
        "date": "2021-11-15",
        "priceEur": 95000,
        "typeLocal": "Maison",
        "surfaceM2": 144,
        "isVefa": false
      }
    ]
  },
  "08bf600a3e8e": {
    "id": "08bf600a3e8e",
    "label": "5 RUE HENRI REBOUL, Pézenas",
    "lat": 43.460577,
    "lng": 3.42077,
    "transactions": [
      {
        "date": "2025-03-05",
        "priceEur": 275500,
        "typeLocal": "Appartement",
        "surfaceM2": 109,
        "isVefa": false
      },
      {
        "date": "2022-09-09",
        "priceEur": 62000,
        "typeLocal": "Appartement",
        "surfaceM2": 31,
        "isVefa": false
      },
      {
        "date": "2021-12-14",
        "priceEur": 153000,
        "typeLocal": "Appartement",
        "surfaceM2": 75,
        "isVefa": false
      }
    ]
  },
  "0d9f9dbd0214": {
    "id": "0d9f9dbd0214",
    "label": "2 RUE VENEL, Pézenas",
    "lat": 43.460543,
    "lng": 3.421254,
    "transactions": [
      {
        "date": "2021-12-15",
        "priceEur": 81000,
        "typeLocal": "Appartement",
        "surfaceM2": 88,
        "isVefa": false
      }
    ]
  },
  "45ef8796f5cd": {
    "id": "45ef8796f5cd",
    "label": "31 RUE CAPITAINE DAVID, Pézenas",
    "lat": 43.459167,
    "lng": 3.426221,
    "transactions": [
      {
        "date": "2022-05-11",
        "priceEur": 125400,
        "typeLocal": "Appartement",
        "surfaceM2": 120,
        "isVefa": false
      },
      {
        "date": "2021-11-26",
        "priceEur": 85000,
        "typeLocal": "Appartement",
        "surfaceM2": 36,
        "isVefa": false
      }
    ]
  },
  "d2c78484a4d5": {
    "id": "d2c78484a4d5",
    "label": "28 RUE DENFERT ROCHEREAU, Pézenas",
    "lat": 43.458233,
    "lng": 3.423457,
    "transactions": [
      {
        "date": "2021-12-16",
        "priceEur": 134000,
        "typeLocal": "Maison",
        "surfaceM2": 40,
        "isVefa": false
      }
    ]
  },
  "a97f94b4225d": {
    "id": "a97f94b4225d",
    "label": "8 RUE MARCEAU, Pézenas",
    "lat": 43.460323,
    "lng": 3.421305,
    "transactions": [
      {
        "date": "2021-12-21",
        "priceEur": 130000,
        "typeLocal": "Appartement",
        "surfaceM2": 32,
        "isVefa": false
      },
      {
        "date": "2021-12-21",
        "priceEur": 130000,
        "typeLocal": "Appartement",
        "surfaceM2": 39,
        "isVefa": false
      }
    ]
  },
  "1f6bb64476c4": {
    "id": "1f6bb64476c4",
    "label": "22T AV DE VERDUN, Pézenas",
    "lat": 43.454889,
    "lng": 3.421779,
    "transactions": [
      {
        "date": "2021-12-07",
        "priceEur": 232000,
        "typeLocal": "Appartement",
        "surfaceM2": 120,
        "isVefa": false
      }
    ]
  },
  "201b2c023390": {
    "id": "201b2c023390",
    "label": "7 RUE BARBES, Pézenas",
    "lat": 43.459462,
    "lng": 3.424067,
    "transactions": [
      {
        "date": "2021-12-20",
        "priceEur": 360000,
        "typeLocal": "Appartement",
        "surfaceM2": 76,
        "isVefa": false
      },
      {
        "date": "2021-12-20",
        "priceEur": 360000,
        "typeLocal": "Appartement",
        "surfaceM2": 84,
        "isVefa": false
      },
      {
        "date": "2021-12-20",
        "priceEur": 360000,
        "typeLocal": "Appartement",
        "surfaceM2": 79,
        "isVefa": false
      }
    ]
  },
  "cb0530032780": {
    "id": "cb0530032780",
    "label": "24 RUE RASPAIL, Pézenas",
    "lat": 43.459039,
    "lng": 3.422798,
    "transactions": [
      {
        "date": "2021-12-30",
        "priceEur": 190000,
        "typeLocal": "Appartement",
        "surfaceM2": 35,
        "isVefa": false
      },
      {
        "date": "2021-12-30",
        "priceEur": 190000,
        "typeLocal": "Appartement",
        "surfaceM2": 35,
        "isVefa": false
      },
      {
        "date": "2021-12-30",
        "priceEur": 190000,
        "typeLocal": "Appartement",
        "surfaceM2": 36,
        "isVefa": false
      },
      {
        "date": "2021-12-30",
        "priceEur": 190000,
        "typeLocal": "Appartement",
        "surfaceM2": 36,
        "isVefa": false
      }
    ]
  },
  "c744737c10d6": {
    "id": "c744737c10d6",
    "label": "10 RUE PASCAL ROUYER, Pézenas",
    "lat": 43.459426,
    "lng": 3.42524,
    "transactions": [
      {
        "date": "2021-12-29",
        "priceEur": 130000,
        "typeLocal": "Maison",
        "surfaceM2": 60,
        "isVefa": false
      }
    ]
  },
  "ae8015634187": {
    "id": "ae8015634187",
    "label": "8 AV DE LA GARE DU MIDI, Pézenas",
    "lat": 43.456029,
    "lng": 3.42459,
    "transactions": [
      {
        "date": "2022-01-12",
        "priceEur": 414000,
        "typeLocal": "Appartement",
        "surfaceM2": 146,
        "isVefa": false
      }
    ]
  },
  "064ae8bc6b76": {
    "id": "064ae8bc6b76",
    "label": "29 CRS JEAN JAURES, Pézenas",
    "lat": 43.46015,
    "lng": 3.421732,
    "transactions": [
      {
        "date": "2025-02-28",
        "priceEur": 52500,
        "typeLocal": "Appartement",
        "surfaceM2": 42,
        "isVefa": false
      },
      {
        "date": "2022-04-30",
        "priceEur": 145000,
        "typeLocal": "Appartement",
        "surfaceM2": 120,
        "isVefa": false
      },
      {
        "date": "2022-01-18",
        "priceEur": 104500,
        "typeLocal": "Appartement",
        "surfaceM2": 40,
        "isVefa": false
      }
    ]
  },
  "658125a8f5c9": {
    "id": "658125a8f5c9",
    "label": "11 RUE MASSILLON, Pézenas",
    "lat": 43.459641,
    "lng": 3.421926,
    "transactions": [
      {
        "date": "2022-01-26",
        "priceEur": 190000,
        "typeLocal": "Appartement",
        "surfaceM2": 69,
        "isVefa": false
      },
      {
        "date": "2022-01-26",
        "priceEur": 190000,
        "typeLocal": "Appartement",
        "surfaceM2": 69,
        "isVefa": false
      }
    ]
  },
  "f413f4289e14": {
    "id": "f413f4289e14",
    "label": "21 RUE JOSEPH CAMBON, Pézenas",
    "lat": 43.459305,
    "lng": 3.421973,
    "transactions": [
      {
        "date": "2022-01-28",
        "priceEur": 68700,
        "typeLocal": "Maison",
        "surfaceM2": 40,
        "isVefa": false
      }
    ]
  },
  "53eedd2a41f4": {
    "id": "53eedd2a41f4",
    "label": "17 RUE RASPAIL, Pézenas",
    "lat": 43.459044,
    "lng": 3.42293,
    "transactions": [
      {
        "date": "2023-02-08",
        "priceEur": 306500,
        "typeLocal": "Maison",
        "surfaceM2": 92,
        "isVefa": false
      },
      {
        "date": "2022-02-18",
        "priceEur": 223110,
        "typeLocal": "Maison",
        "surfaceM2": 92,
        "isVefa": false
      }
    ]
  },
  "66e4babab00a": {
    "id": "66e4babab00a",
    "label": "1 PL RESSEGUIER, Pézenas",
    "lat": 43.46003,
    "lng": 3.421471,
    "transactions": [
      {
        "date": "2022-02-08",
        "priceEur": 140000,
        "typeLocal": "Maison",
        "surfaceM2": 60,
        "isVefa": false
      }
    ]
  },
  "7a3857e8e60e": {
    "id": "7a3857e8e60e",
    "label": "7 RUE DES ORFEVRES, Pézenas",
    "lat": 43.460424,
    "lng": 3.42325,
    "transactions": [
      {
        "date": "2023-11-20",
        "priceEur": 121150,
        "typeLocal": "Appartement",
        "surfaceM2": 66,
        "isVefa": false
      },
      {
        "date": "2022-02-16",
        "priceEur": 139720,
        "typeLocal": "Appartement",
        "surfaceM2": 85,
        "isVefa": false
      }
    ]
  },
  "dbcadf5729d4": {
    "id": "dbcadf5729d4",
    "label": "9 RUE BARREME, Pézenas",
    "lat": 43.460281,
    "lng": 3.421073,
    "transactions": [
      {
        "date": "2022-02-23",
        "priceEur": 85000,
        "typeLocal": "Maison",
        "surfaceM2": 25,
        "isVefa": false
      }
    ]
  },
  "4236c71f7f1e": {
    "id": "4236c71f7f1e",
    "label": "19 RUE CHEVALIERS ST JEAN, Pézenas",
    "lat": 43.460823,
    "lng": 3.423924,
    "transactions": [
      {
        "date": "2022-02-25",
        "priceEur": 55500,
        "typeLocal": "Appartement",
        "surfaceM2": 35,
        "isVefa": false
      }
    ]
  },
  "b1d2e731a702": {
    "id": "b1d2e731a702",
    "label": "6 AV DE VERDUN, Pézenas",
    "lat": 43.456599,
    "lng": 3.424142,
    "transactions": [
      {
        "date": "2022-03-16",
        "priceEur": 580000,
        "typeLocal": "Appartement",
        "surfaceM2": 83,
        "isVefa": false
      },
      {
        "date": "2022-03-16",
        "priceEur": 580000,
        "typeLocal": "Appartement",
        "surfaceM2": 38,
        "isVefa": false
      },
      {
        "date": "2022-03-16",
        "priceEur": 580000,
        "typeLocal": "Appartement",
        "surfaceM2": 45,
        "isVefa": false
      },
      {
        "date": "2022-03-16",
        "priceEur": 580000,
        "typeLocal": "Appartement",
        "surfaceM2": 72,
        "isVefa": false
      }
    ]
  },
  "9d64c92f9d61": {
    "id": "9d64c92f9d61",
    "label": "3 IMP BERTRAND DE PEZARDS, Pézenas",
    "lat": 43.458934,
    "lng": 3.421148,
    "transactions": [
      {
        "date": "2022-03-24",
        "priceEur": 197183,
        "typeLocal": "Maison",
        "surfaceM2": 60,
        "isVefa": false
      }
    ]
  },
  "c08834be7e6b": {
    "id": "c08834be7e6b",
    "label": "5 IMP BERTRAND DE PEZARDS, Pézenas",
    "lat": 43.458967,
    "lng": 3.421179,
    "transactions": [
      {
        "date": "2022-03-24",
        "priceEur": 197183,
        "typeLocal": "Maison",
        "surfaceM2": 55,
        "isVefa": false
      }
    ]
  },
  "67ba5641720d": {
    "id": "67ba5641720d",
    "label": "9 RUE RABELAIS, Pézenas",
    "lat": 43.45928,
    "lng": 3.423626,
    "transactions": [
      {
        "date": "2022-03-17",
        "priceEur": 132000,
        "typeLocal": "Maison",
        "surfaceM2": 64,
        "isVefa": false
      }
    ]
  },
  "bab5a5eb0077": {
    "id": "bab5a5eb0077",
    "label": "9 RUE DES GLACIERES, Pézenas",
    "lat": 43.457928,
    "lng": 3.425405,
    "transactions": [
      {
        "date": "2022-03-16",
        "priceEur": 255000,
        "typeLocal": "Maison",
        "surfaceM2": 96,
        "isVefa": false
      }
    ]
  },
  "aec1137e87fd": {
    "id": "aec1137e87fd",
    "label": "13 AV ARISTIDE BRIAND, Pézenas",
    "lat": 43.457697,
    "lng": 3.426017,
    "transactions": [
      {
        "date": "2022-03-29",
        "priceEur": 305000,
        "typeLocal": "Maison",
        "surfaceM2": 90,
        "isVefa": false
      }
    ]
  },
  "469afe847dff": {
    "id": "469afe847dff",
    "label": "5 RLE TRICARD, Pézenas",
    "lat": 43.459382,
    "lng": 3.421666,
    "transactions": [
      {
        "date": "2022-04-08",
        "priceEur": 85000,
        "typeLocal": "Maison",
        "surfaceM2": 85,
        "isVefa": false
      }
    ]
  },
  "6f2b6d870c84": {
    "id": "6f2b6d870c84",
    "label": "13 RUE DES ORFEVRES, Pézenas",
    "lat": 43.460565,
    "lng": 3.423344,
    "transactions": [
      {
        "date": "2022-04-14",
        "priceEur": 242360,
        "typeLocal": "Maison",
        "surfaceM2": 80,
        "isVefa": false
      }
    ]
  },
  "dd385846df5e": {
    "id": "dd385846df5e",
    "label": "18 RUE DE LA FOIRE, Pézenas",
    "lat": 43.460663,
    "lng": 3.422649,
    "transactions": [
      {
        "date": "2022-05-05",
        "priceEur": 57150,
        "typeLocal": "Appartement",
        "surfaceM2": 75,
        "isVefa": false
      },
      {
        "date": "2022-05-05",
        "priceEur": 38850,
        "typeLocal": "Appartement",
        "surfaceM2": 50,
        "isVefa": false
      }
    ]
  },
  "965b6328084a": {
    "id": "965b6328084a",
    "label": "45 RUE CONTI, Pézenas",
    "lat": 43.458922,
    "lng": 3.425742,
    "transactions": [
      {
        "date": "2022-04-26",
        "priceEur": 120000,
        "typeLocal": "Maison",
        "surfaceM2": 63,
        "isVefa": false
      }
    ]
  },
  "eac4d34df5f9": {
    "id": "eac4d34df5f9",
    "label": "2 IMP CALQUIERES HAUTES, Pézenas",
    "lat": 43.460714,
    "lng": 3.426751,
    "transactions": [
      {
        "date": "2022-04-27",
        "priceEur": 110000,
        "typeLocal": "Maison",
        "surfaceM2": 90,
        "isVefa": false
      }
    ]
  },
  "6cc4f46f7125": {
    "id": "6cc4f46f7125",
    "label": "11 RUE MERCIERE, Pézenas",
    "lat": 43.460664,
    "lng": 3.423324,
    "transactions": [
      {
        "date": "2023-01-14",
        "priceEur": 220000,
        "typeLocal": "Appartement",
        "surfaceM2": 135,
        "isVefa": false
      },
      {
        "date": "2022-04-29",
        "priceEur": 330000,
        "typeLocal": "Appartement",
        "surfaceM2": 111,
        "isVefa": false
      }
    ]
  },
  "b22dd0450743": {
    "id": "b22dd0450743",
    "label": "30 RUE CONTI, Pézenas",
    "lat": 43.459091,
    "lng": 3.424718,
    "transactions": [
      {
        "date": "2022-05-16",
        "priceEur": 126500,
        "typeLocal": "Appartement",
        "surfaceM2": 57,
        "isVefa": false
      }
    ]
  },
  "0acc18139f0a": {
    "id": "0acc18139f0a",
    "label": "13 AV DE VERDUN, Pézenas",
    "lat": 43.455926,
    "lng": 3.424124,
    "transactions": [
      {
        "date": "2022-04-29",
        "priceEur": 723000,
        "typeLocal": "Maison",
        "surfaceM2": 224,
        "isVefa": false
      }
    ]
  },
  "b112e49896cf": {
    "id": "b112e49896cf",
    "label": "1 PL PIERRE PONCET, Pézenas",
    "lat": 43.458147,
    "lng": 3.422444,
    "transactions": [
      {
        "date": "2022-05-12",
        "priceEur": 332000,
        "typeLocal": "Maison",
        "surfaceM2": 110,
        "isVefa": false
      }
    ]
  },
  "49f9b244facf": {
    "id": "49f9b244facf",
    "label": "25 RUE CONTI, Pézenas",
    "lat": 43.459269,
    "lng": 3.424973,
    "transactions": [
      {
        "date": "2024-01-16",
        "priceEur": 226000,
        "typeLocal": "Appartement",
        "surfaceM2": 30,
        "isVefa": false
      },
      {
        "date": "2024-01-16",
        "priceEur": 226000,
        "typeLocal": "Appartement",
        "surfaceM2": 30,
        "isVefa": false
      },
      {
        "date": "2022-05-19",
        "priceEur": 200000,
        "typeLocal": "Appartement",
        "surfaceM2": 30,
        "isVefa": false
      },
      {
        "date": "2022-05-19",
        "priceEur": 200000,
        "typeLocal": "Appartement",
        "surfaceM2": 30,
        "isVefa": false
      }
    ]
  },
  "057cbe0f93aa": {
    "id": "057cbe0f93aa",
    "label": "15 RUE DENFERT ROCHEREAU, Pézenas",
    "lat": 43.458701,
    "lng": 3.423155,
    "transactions": [
      {
        "date": "2022-05-12",
        "priceEur": 142510,
        "typeLocal": "Maison",
        "surfaceM2": 49,
        "isVefa": false
      }
    ]
  },
  "c284762776e9": {
    "id": "c284762776e9",
    "label": "44 RUE CONTI, Pézenas",
    "lat": 43.458766,
    "lng": 3.425254,
    "transactions": [
      {
        "date": "2024-06-26",
        "priceEur": 140000,
        "typeLocal": "Appartement",
        "surfaceM2": 4,
        "isVefa": false
      },
      {
        "date": "2024-06-26",
        "priceEur": 140000,
        "typeLocal": "Appartement",
        "surfaceM2": 41,
        "isVefa": false
      },
      {
        "date": "2022-09-14",
        "priceEur": 211000,
        "typeLocal": "Appartement",
        "surfaceM2": 90,
        "isVefa": false
      },
      {
        "date": "2022-05-31",
        "priceEur": 153980,
        "typeLocal": "Appartement",
        "surfaceM2": 95,
        "isVefa": false
      }
    ]
  },
  "c76685073aa3": {
    "id": "c76685073aa3",
    "label": "6 ALL DES SOPHORAS, Pézenas",
    "lat": 43.454727,
    "lng": 3.427702,
    "transactions": [
      {
        "date": "2022-06-07",
        "priceEur": 200000,
        "typeLocal": "Maison",
        "surfaceM2": 122,
        "isVefa": false
      }
    ]
  },
  "0fb577c8ae5f": {
    "id": "0fb577c8ae5f",
    "label": "20 RUE DE LA VILLETTE, Pézenas",
    "lat": 43.456144,
    "lng": 3.425964,
    "transactions": [
      {
        "date": "2022-06-08",
        "priceEur": 210000,
        "typeLocal": "Maison",
        "surfaceM2": 69,
        "isVefa": false
      }
    ]
  },
  "563310c3ac52": {
    "id": "563310c3ac52",
    "label": "1 RUE CHARLES GOUNOD, Pézenas",
    "lat": 43.455673,
    "lng": 3.41821,
    "transactions": [
      {
        "date": "2022-06-16",
        "priceEur": 245000,
        "typeLocal": "Maison",
        "surfaceM2": 111,
        "isVefa": false
      }
    ]
  },
  "69d8f9e63bf3": {
    "id": "69d8f9e63bf3",
    "label": "26 RUE CAPITAINE DAVID, Pézenas",
    "lat": 43.458954,
    "lng": 3.426209,
    "transactions": [
      {
        "date": "2022-06-10",
        "priceEur": 124000,
        "typeLocal": "Appartement",
        "surfaceM2": 67,
        "isVefa": false
      }
    ]
  },
  "2b8adde65e37": {
    "id": "2b8adde65e37",
    "label": "4 RUE EMILE ZOLA, Pézenas",
    "lat": 43.460807,
    "lng": 3.421917,
    "transactions": [
      {
        "date": "2022-06-09",
        "priceEur": 210000,
        "typeLocal": "Appartement",
        "surfaceM2": 48,
        "isVefa": false
      },
      {
        "date": "2022-06-09",
        "priceEur": 210000,
        "typeLocal": "Appartement",
        "surfaceM2": 48,
        "isVefa": false
      }
    ]
  },
  "8275aa6f89f8": {
    "id": "8275aa6f89f8",
    "label": "11 RUE DE LA VILLETTE, Pézenas",
    "lat": 43.456076,
    "lng": 3.426289,
    "transactions": [
      {
        "date": "2022-06-14",
        "priceEur": 300000,
        "typeLocal": "Maison",
        "surfaceM2": 97,
        "isVefa": false
      }
    ]
  },
  "05e31c431436": {
    "id": "05e31c431436",
    "label": "4B RUE DE LA VILLETTE, Pézenas",
    "lat": 43.456924,
    "lng": 3.427332,
    "transactions": [
      {
        "date": "2022-06-27",
        "priceEur": 235000,
        "typeLocal": "Maison",
        "surfaceM2": 97,
        "isVefa": false
      }
    ]
  },
  "fb65c4ac8819": {
    "id": "fb65c4ac8819",
    "label": "4 RUE DOCTEUR BASTARD, Pézenas",
    "lat": 43.458663,
    "lng": 3.423894,
    "transactions": [
      {
        "date": "2022-06-16",
        "priceEur": 146000,
        "typeLocal": "Appartement",
        "surfaceM2": 33,
        "isVefa": false
      },
      {
        "date": "2022-06-16",
        "priceEur": 146000,
        "typeLocal": "Appartement",
        "surfaceM2": 33,
        "isVefa": false
      },
      {
        "date": "2022-06-16",
        "priceEur": 146000,
        "typeLocal": "Appartement",
        "surfaceM2": 55,
        "isVefa": false
      }
    ]
  },
  "3c61eb9c41c3": {
    "id": "3c61eb9c41c3",
    "label": "13 RUE DOCTEUR BASTARD, Pézenas",
    "lat": 43.458399,
    "lng": 3.423584,
    "transactions": [
      {
        "date": "2022-07-13",
        "priceEur": 67850,
        "typeLocal": "Maison",
        "surfaceM2": 70,
        "isVefa": false
      }
    ]
  },
  "d6409fa44b87": {
    "id": "d6409fa44b87",
    "label": "8 RUE DES FABRE, Pézenas",
    "lat": 43.459849,
    "lng": 3.424384,
    "transactions": [
      {
        "date": "2022-07-05",
        "priceEur": 28000,
        "typeLocal": "Maison",
        "surfaceM2": 32,
        "isVefa": false
      }
    ]
  },
  "a28ed04b308b": {
    "id": "a28ed04b308b",
    "label": "6 RUE DENFERT ROCHEREAU, Pézenas",
    "lat": 43.458518,
    "lng": 3.422914,
    "transactions": [
      {
        "date": "2022-07-27",
        "priceEur": 60000,
        "typeLocal": "Maison",
        "surfaceM2": 36,
        "isVefa": false
      }
    ]
  },
  "72f7142059e9": {
    "id": "72f7142059e9",
    "label": "4 AV DE PLAISANCE, Pézenas",
    "lat": 43.460267,
    "lng": 3.417181,
    "transactions": [
      {
        "date": "2022-07-21",
        "priceEur": 185000,
        "typeLocal": "Maison",
        "surfaceM2": 72,
        "isVefa": false
      }
    ]
  },
  "92d7de53dc1e": {
    "id": "92d7de53dc1e",
    "label": "49 CRS JEAN JAURES, Pézenas",
    "lat": 43.460619,
    "lng": 3.421128,
    "transactions": [
      {
        "date": "2022-07-21",
        "priceEur": 145000,
        "typeLocal": "Appartement",
        "surfaceM2": 110,
        "isVefa": false
      }
    ]
  },
  "bee2abc41412": {
    "id": "bee2abc41412",
    "label": "7 CRS JEAN JAURES, Pézenas",
    "lat": 43.459721,
    "lng": 3.422518,
    "transactions": [
      {
        "date": "2025-02-25",
        "priceEur": 118000,
        "typeLocal": "Appartement",
        "surfaceM2": 82,
        "isVefa": false
      },
      {
        "date": "2025-01-13",
        "priceEur": 35000,
        "typeLocal": "Appartement",
        "surfaceM2": 22,
        "isVefa": false
      },
      {
        "date": "2022-08-16",
        "priceEur": 73250,
        "typeLocal": "Appartement",
        "surfaceM2": 55,
        "isVefa": false
      }
    ]
  },
  "b5a09b6e7d41": {
    "id": "b5a09b6e7d41",
    "label": "1 AV DE LA GARE DU MIDI, Pézenas",
    "lat": 43.4562,
    "lng": 3.425032,
    "transactions": [
      {
        "date": "2022-07-22",
        "priceEur": 664250,
        "typeLocal": "Maison",
        "surfaceM2": 175,
        "isVefa": false
      }
    ]
  },
  "a236ee2cf536": {
    "id": "a236ee2cf536",
    "label": "1 RUE DES POTIERS, Pézenas",
    "lat": 43.457842,
    "lng": 3.426792,
    "transactions": [
      {
        "date": "2022-05-05",
        "priceEur": 313700,
        "typeLocal": "Maison",
        "surfaceM2": 190,
        "isVefa": false
      }
    ]
  },
  "545a05adaff6": {
    "id": "545a05adaff6",
    "label": "14 RUE BARBES, Pézenas",
    "lat": 43.459234,
    "lng": 3.423929,
    "transactions": [
      {
        "date": "2022-07-28",
        "priceEur": 325000,
        "typeLocal": "Appartement",
        "surfaceM2": 23,
        "isVefa": false
      },
      {
        "date": "2022-07-28",
        "priceEur": 325000,
        "typeLocal": "Appartement",
        "surfaceM2": 45,
        "isVefa": false
      },
      {
        "date": "2022-07-28",
        "priceEur": 325000,
        "typeLocal": "Appartement",
        "surfaceM2": 37,
        "isVefa": false
      },
      {
        "date": "2022-07-28",
        "priceEur": 325000,
        "typeLocal": "Appartement",
        "surfaceM2": 23,
        "isVefa": false
      },
      {
        "date": "2022-07-28",
        "priceEur": 325000,
        "typeLocal": "Appartement",
        "surfaceM2": 37,
        "isVefa": false
      }
    ]
  },
  "54d37194534d": {
    "id": "54d37194534d",
    "label": "7 RUE PLAUCHE, Pézenas",
    "lat": 43.460047,
    "lng": 3.42552,
    "transactions": [
      {
        "date": "2022-08-19",
        "priceEur": 214000,
        "typeLocal": "Appartement",
        "surfaceM2": 90,
        "isVefa": false
      },
      {
        "date": "2022-08-19",
        "priceEur": 214000,
        "typeLocal": "Appartement",
        "surfaceM2": 60,
        "isVefa": false
      }
    ]
  },
  "5675efbb397c": {
    "id": "5675efbb397c",
    "label": "3 RUE CORDILLE, Pézenas",
    "lat": 43.459046,
    "lng": 3.423064,
    "transactions": [
      {
        "date": "2022-08-24",
        "priceEur": 141600,
        "typeLocal": "Maison",
        "surfaceM2": 62,
        "isVefa": false
      }
    ]
  },
  "a5f2bfc62f02": {
    "id": "a5f2bfc62f02",
    "label": "25 RUE RASPAIL, Pézenas",
    "lat": 43.458692,
    "lng": 3.422853,
    "transactions": [
      {
        "date": "2022-09-02",
        "priceEur": 70000,
        "typeLocal": "Maison",
        "surfaceM2": 40,
        "isVefa": false
      }
    ]
  },
  "36a0d6f0122e": {
    "id": "36a0d6f0122e",
    "label": "3 IMP DES SELLIERS, Pézenas",
    "lat": 43.460039,
    "lng": 3.425226,
    "transactions": [
      {
        "date": "2022-09-21",
        "priceEur": 269000,
        "typeLocal": "Appartement",
        "surfaceM2": 61,
        "isVefa": false
      },
      {
        "date": "2022-09-21",
        "priceEur": 269000,
        "typeLocal": "Appartement",
        "surfaceM2": 61,
        "isVefa": false
      }
    ]
  },
  "8aac585a3c21": {
    "id": "8aac585a3c21",
    "label": "4 RUE PLAUCHE, Pézenas",
    "lat": 43.460039,
    "lng": 3.425226,
    "transactions": [
      {
        "date": "2022-09-21",
        "priceEur": 269000,
        "typeLocal": "Appartement",
        "surfaceM2": 84,
        "isVefa": false
      }
    ]
  },
  "913bea81b5bd": {
    "id": "913bea81b5bd",
    "label": "43 RUE DENFERT ROCHEREAU, Pézenas",
    "lat": 43.458295,
    "lng": 3.423954,
    "transactions": [
      {
        "date": "2022-09-26",
        "priceEur": 898600,
        "typeLocal": "Appartement",
        "surfaceM2": 97,
        "isVefa": false
      },
      {
        "date": "2022-09-26",
        "priceEur": 898600,
        "typeLocal": "Appartement",
        "surfaceM2": 60,
        "isVefa": false
      }
    ]
  },
  "440513119f08": {
    "id": "440513119f08",
    "label": "16 RUE ANATOLE FRANCE, Pézenas",
    "lat": 43.459131,
    "lng": 3.422404,
    "transactions": [
      {
        "date": "2022-09-30",
        "priceEur": 425000,
        "typeLocal": "Appartement",
        "surfaceM2": 40,
        "isVefa": false
      },
      {
        "date": "2022-09-30",
        "priceEur": 425000,
        "typeLocal": "Appartement",
        "surfaceM2": 32,
        "isVefa": false
      },
      {
        "date": "2022-09-30",
        "priceEur": 425000,
        "typeLocal": "Appartement",
        "surfaceM2": 32,
        "isVefa": false
      },
      {
        "date": "2022-09-30",
        "priceEur": 425000,
        "typeLocal": "Appartement",
        "surfaceM2": 24,
        "isVefa": false
      },
      {
        "date": "2022-09-30",
        "priceEur": 425000,
        "typeLocal": "Appartement",
        "surfaceM2": 58,
        "isVefa": false
      }
    ]
  },
  "1da55eb80558": {
    "id": "1da55eb80558",
    "label": "6 RUE CALQUIERES BASSES, Pézenas",
    "lat": 43.458787,
    "lng": 3.427193,
    "transactions": [
      {
        "date": "2022-09-16",
        "priceEur": 421000,
        "typeLocal": "Appartement",
        "surfaceM2": 58,
        "isVefa": false
      },
      {
        "date": "2022-09-16",
        "priceEur": 421000,
        "typeLocal": "Appartement",
        "surfaceM2": 34,
        "isVefa": false
      },
      {
        "date": "2022-09-16",
        "priceEur": 421000,
        "typeLocal": "Appartement",
        "surfaceM2": 50,
        "isVefa": false
      },
      {
        "date": "2022-09-16",
        "priceEur": 421000,
        "typeLocal": "Appartement",
        "surfaceM2": 94,
        "isVefa": false
      }
    ]
  },
  "5e154e7d3a51": {
    "id": "5e154e7d3a51",
    "label": "50 RUE CONTI, Pézenas",
    "lat": 43.458642,
    "lng": 3.425657,
    "transactions": [
      {
        "date": "2024-07-09",
        "priceEur": 109330,
        "typeLocal": "Appartement",
        "surfaceM2": 68,
        "isVefa": false
      },
      {
        "date": "2022-12-01",
        "priceEur": 165300,
        "typeLocal": "Appartement",
        "surfaceM2": 94,
        "isVefa": false
      },
      {
        "date": "2022-10-13",
        "priceEur": 60450,
        "typeLocal": "Appartement",
        "surfaceM2": 31,
        "isVefa": false
      }
    ]
  },
  "9d142f175da1": {
    "id": "9d142f175da1",
    "label": "28 RUE JOSEPH CAMBON, Pézenas",
    "lat": 43.459116,
    "lng": 3.421695,
    "transactions": [
      {
        "date": "2022-10-21",
        "priceEur": 153300,
        "typeLocal": "Maison",
        "surfaceM2": 40,
        "isVefa": false
      }
    ]
  },
  "30b59fc4106d": {
    "id": "30b59fc4106d",
    "label": "15 AV DE LA GARE DU MIDI, Pézenas",
    "lat": 43.454014,
    "lng": 3.422994,
    "transactions": [
      {
        "date": "2022-10-21",
        "priceEur": 210,
        "typeLocal": "Maison",
        "surfaceM2": 98,
        "isVefa": false
      }
    ]
  },
  "65c1f4289fcc": {
    "id": "65c1f4289fcc",
    "label": "3B RUE DE LA FOIRE, Pézenas",
    "lat": 43.459958,
    "lng": 3.423316,
    "transactions": [
      {
        "date": "2024-02-27",
        "priceEur": 80500,
        "typeLocal": "Appartement",
        "surfaceM2": 73,
        "isVefa": false
      },
      {
        "date": "2022-11-07",
        "priceEur": 85000,
        "typeLocal": "Appartement",
        "surfaceM2": 73,
        "isVefa": false
      },
      {
        "date": "2022-11-07",
        "priceEur": 90000,
        "typeLocal": "Appartement",
        "surfaceM2": 78,
        "isVefa": false
      }
    ]
  },
  "b2b7bccb94df": {
    "id": "b2b7bccb94df",
    "label": "29 RUE CAPITAINE DAVID, Pézenas",
    "lat": 43.459216,
    "lng": 3.426025,
    "transactions": [
      {
        "date": "2022-10-20",
        "priceEur": 102500,
        "typeLocal": "Appartement",
        "surfaceM2": 35,
        "isVefa": false
      },
      {
        "date": "2022-10-20",
        "priceEur": 102500,
        "typeLocal": "Appartement",
        "surfaceM2": 35,
        "isVefa": false
      }
    ]
  },
  "624722df7714": {
    "id": "624722df7714",
    "label": "8 RUE ANATOLE FRANCE, Pézenas",
    "lat": 43.45951,
    "lng": 3.422394,
    "transactions": [
      {
        "date": "2023-11-22",
        "priceEur": 91500,
        "typeLocal": "Appartement",
        "surfaceM2": 45,
        "isVefa": false
      },
      {
        "date": "2022-10-31",
        "priceEur": 82500,
        "typeLocal": "Appartement",
        "surfaceM2": 44,
        "isVefa": false
      }
    ]
  },
  "e859d4129fbf": {
    "id": "e859d4129fbf",
    "label": "12 RUE ARISTIDE ROUZIERE, Pézenas",
    "lat": 43.460489,
    "lng": 3.424462,
    "transactions": [
      {
        "date": "2022-11-15",
        "priceEur": 365000,
        "typeLocal": "Appartement",
        "surfaceM2": 50,
        "isVefa": false
      },
      {
        "date": "2022-11-15",
        "priceEur": 365000,
        "typeLocal": "Appartement",
        "surfaceM2": 49,
        "isVefa": false
      },
      {
        "date": "2022-11-15",
        "priceEur": 365000,
        "typeLocal": "Appartement",
        "surfaceM2": 100,
        "isVefa": false
      },
      {
        "date": "2022-11-15",
        "priceEur": 365000,
        "typeLocal": "Appartement",
        "surfaceM2": 55,
        "isVefa": false
      }
    ]
  },
  "f171db89e183": {
    "id": "f171db89e183",
    "label": "23 AV DE CASTELNAU, Pézenas",
    "lat": 43.457769,
    "lng": 3.427715,
    "transactions": [
      {
        "date": "2022-11-04",
        "priceEur": 1148980,
        "typeLocal": "Appartement",
        "surfaceM2": 70,
        "isVefa": false
      },
      {
        "date": "2022-11-04",
        "priceEur": 1148980,
        "typeLocal": "Appartement",
        "surfaceM2": 75,
        "isVefa": false
      },
      {
        "date": "2022-11-04",
        "priceEur": 1148980,
        "typeLocal": "Appartement",
        "surfaceM2": 85,
        "isVefa": false
      },
      {
        "date": "2022-11-04",
        "priceEur": 1148980,
        "typeLocal": "Appartement",
        "surfaceM2": 100,
        "isVefa": false
      }
    ]
  },
  "360d5d7bba68": {
    "id": "360d5d7bba68",
    "label": "3 PL DU MARCHE DES TROIS SIX, Pézenas",
    "lat": 43.46022,
    "lng": 3.4242,
    "transactions": [
      {
        "date": "2022-11-22",
        "priceEur": 350000,
        "typeLocal": "Appartement",
        "surfaceM2": 160,
        "isVefa": false
      },
      {
        "date": "2022-11-22",
        "priceEur": 350000,
        "typeLocal": "Appartement",
        "surfaceM2": 27,
        "isVefa": false
      },
      {
        "date": "2022-11-22",
        "priceEur": 350000,
        "typeLocal": "Appartement",
        "surfaceM2": 50,
        "isVefa": false
      }
    ]
  },
  "2d61f50e3423": {
    "id": "2d61f50e3423",
    "label": "4 RUE DOCTEUR CALIXTE CASSAN, Pézenas",
    "lat": 43.459273,
    "lng": 3.42325,
    "transactions": [
      {
        "date": "2022-11-30",
        "priceEur": 235000,
        "typeLocal": "Appartement",
        "surfaceM2": 24,
        "isVefa": false
      },
      {
        "date": "2022-11-30",
        "priceEur": 235000,
        "typeLocal": "Appartement",
        "surfaceM2": 24,
        "isVefa": false
      },
      {
        "date": "2022-11-30",
        "priceEur": 235000,
        "typeLocal": "Appartement",
        "surfaceM2": 24,
        "isVefa": false
      },
      {
        "date": "2022-11-30",
        "priceEur": 235000,
        "typeLocal": "Appartement",
        "surfaceM2": 69,
        "isVefa": false
      },
      {
        "date": "2022-11-30",
        "priceEur": 235000,
        "typeLocal": "Appartement",
        "surfaceM2": 62,
        "isVefa": false
      },
      {
        "date": "2022-11-30",
        "priceEur": 235000,
        "typeLocal": "Appartement",
        "surfaceM2": 70,
        "isVefa": false
      }
    ]
  },
  "34333fde33de": {
    "id": "34333fde33de",
    "label": "1 RUE FLEURUS, Pézenas",
    "lat": 43.459621,
    "lng": 3.42584,
    "transactions": [
      {
        "date": "2022-11-09",
        "priceEur": 178200,
        "typeLocal": "Appartement",
        "surfaceM2": 47,
        "isVefa": false
      },
      {
        "date": "2022-11-09",
        "priceEur": 178200,
        "typeLocal": "Appartement",
        "surfaceM2": 53,
        "isVefa": false
      }
    ]
  },