{
  "31b843369f31": {
    "id": "31b843369f31",
    "label": "17 RUE DU STADE, Bessan",
    "lat": 43.359499,
    "lng": 3.417447,
    "transactions": [
      {
        "date": "2020-07-09",
        "priceEur": 410000,
        "typeLocal": "Maison",
        "surfaceM2": 155,
        "isVefa": false
      },
      {
        "date": "2020-07-09",
        "priceEur": 410000,
        "typeLocal": "Maison",
        "surfaceM2": 155,
        "isVefa": false
      }
    ]
  },
  "b6ea583f7929": {
    "id": "b6ea583f7929",
    "label": "5 CHE DES ROMPUDES, Bessan",
    "lat": 43.35853,
    "lng": 3.41968,
    "transactions": [
      {
        "date": "2020-07-09",
        "priceEur": 253000,
        "typeLocal": "Maison",
        "surfaceM2": 93,
        "isVefa": false
      },
      {
        "date": "2020-07-09",
        "priceEur": 253000,
        "typeLocal": "Maison",
        "surfaceM2": 93,
        "isVefa": false
      }
    ]
  },
  "eb72dbef8bea": {
    "id": "eb72dbef8bea",
    "label": "25 RUE FENDEILLE, Bessan",
    "lat": 43.362489,
    "lng": 3.427258,
    "transactions": [
      {
        "date": "2023-04-11",
        "priceEur": 70000,
        "typeLocal": "Maison",
        "surfaceM2": 63,
        "isVefa": false
      },
      {
        "date": "2020-07-24",
        "priceEur": 80000,
        "typeLocal": "Maison",
        "surfaceM2": 63,
        "isVefa": false
      }
    ]
  },
  "2215b5b276dc": {
    "id": "2215b5b276dc",
    "label": "14 GRAND RUE, Bessan",
    "lat": 43.361524,
    "lng": 3.426827,
    "transactions": [
      {
        "date": "2020-08-06",
        "priceEur": 70000,
        "typeLocal": "Maison",
        "surfaceM2": 70,
        "isVefa": false
      }
    ]
  },
  "bbb3fc731ef0": {
    "id": "bbb3fc731ef0",
    "label": "7 RUE DE L'HOSPICE, Bessan",
    "lat": 43.361002,
    "lng": 3.426417,
    "transactions": [
      {
        "date": "2022-04-22",
        "priceEur": 158000,
        "typeLocal": "Maison",
        "surfaceM2": 98,
        "isVefa": false
      },
      {
        "date": "2020-08-25",
        "priceEur": 130000,
        "typeLocal": "Maison",
        "surfaceM2": 98,
        "isVefa": false
      }
    ]
  },
  "4d4989ec64ad": {
    "id": "4d4989ec64ad",
    "label": "30 RUE DU CHATEAU D'EAU, Bessan",
    "lat": 43.362713,
    "lng": 3.423499,
    "transactions": [
      {
        "date": "2020-07-21",
        "priceEur": 175000,
        "typeLocal": "Maison",
        "surfaceM2": 82,
        "isVefa": false
      }
    ]
  },
  "7359669066ad": {
    "id": "7359669066ad",
    "label": "7 RUE DU CHATEAU D'EAU, Bessan",
    "lat": 43.361893,
    "lng": 3.422601,
    "transactions": [
      {
        "date": "2020-10-30",
        "priceEur": 112000,
        "typeLocal": "Appartement",
        "surfaceM2": 30,
        "isVefa": false
      },
      {
        "date": "2020-10-30",
        "priceEur": 112000,
        "typeLocal": "Maison",
        "surfaceM2": 60,
        "isVefa": false
      },
      {
        "date": "2020-09-04",
        "priceEur": 140000,
        "typeLocal": "Appartement",
        "surfaceM2": 70,
        "isVefa": false
      }
    ]
  },
  "9fdb3d9697fa": {
    "id": "9fdb3d9697fa",
    "label": "1 RUE DE LA MURAILLE, Bessan",
    "lat": 43.360828,
    "lng": 3.426107,
    "transactions": [
      {
        "date": "2020-09-09",
        "priceEur": 80000,
        "typeLocal": "Maison",
        "surfaceM2": 37,
        "isVefa": false
      }
    ]
  },
  "00a9e0b300b9": {
    "id": "00a9e0b300b9",
    "label": "10 RUE DES JASSES, Bessan",
    "lat": 43.36255,
    "lng": 3.426781,
    "transactions": [
      {
        "date": "2020-09-09",
        "priceEur": 50000,
        "typeLocal": "Maison",
        "surfaceM2": 42,
        "isVefa": false
      }
    ]
  },
  "0e169551a930": {
    "id": "0e169551a930",
    "label": "5326 RUE DU CASTEL, Bessan",
    "lat": 43.358523,
    "lng": 3.423448,
    "transactions": [
      {
        "date": "2020-09-28",
        "priceEur": 263800,
        "typeLocal": "Maison",
        "surfaceM2": 107,
        "isVefa": false
      }
    ]
  },
  "2896ef15e6a2": {
    "id": "2896ef15e6a2",
    "label": "21 RUE DE L'OCCITANIE, Bessan",
    "lat": 43.363183,
    "lng": 3.419309,
    "transactions": [
      {
        "date": "2020-09-29",
        "priceEur": 148500,
        "typeLocal": "Maison",
        "surfaceM2": 69,
        "isVefa": false
      }
    ]
  },
  "b619fc2cc40e": {
    "id": "b619fc2cc40e",
    "label": "32 RUE DE L'HOSPICE, Bessan",
    "lat": 43.360131,
    "lng": 3.426624,
    "transactions": [
      {
        "date": "2020-09-24",
        "priceEur": 128000,
        "typeLocal": "Appartement",
        "surfaceM2": 35,
        "isVefa": false
      },
      {
        "date": "2020-09-24",
        "priceEur": 128000,
        "typeLocal": "Appartement",
        "surfaceM2": 70,
        "isVefa": false
      }
    ]
  },
  "17008a7d2368": {
    "id": "17008a7d2368",
    "label": "19 AV DE LA GARE, Bessan",
    "lat": 43.359598,
    "lng": 3.422826,
    "transactions": [
      {
        "date": "2025-03-04",
        "priceEur": 200000,
        "typeLocal": "Maison",
        "surfaceM2": 110,
        "isVefa": false
      },
      {
        "date": "2020-11-02",
        "priceEur": 117800,
        "typeLocal": "Appartement",
        "surfaceM2": 84,
        "isVefa": false
      }
    ]
  },
  "82fec729a154": {
    "id": "82fec729a154",
    "label": "7 AV DE LA VICTOIRE, Bessan",
    "lat": 43.360793,
    "lng": 3.424987,
    "transactions": [
      {
        "date": "2020-11-06",
        "priceEur": 131000,
        "typeLocal": "Maison",
        "surfaceM2": 80,
        "isVefa": false
      }
    ]
  },
  "cbb3a5db9690": {
    "id": "cbb3a5db9690",
    "label": "3 IMP DU SOLEIL, Bessan",
    "lat": 43.359571,
    "lng": 3.424559,
    "transactions": [
      {
        "date": "2020-11-04",
        "priceEur": 168000,
        "typeLocal": "Maison",
        "surfaceM2": 85,
        "isVefa": false
      }
    ]
  },
  "c9e561616131": {
    "id": "c9e561616131",
    "label": "9 AV CONDORCET, Bessan",
    "lat": 43.359546,
    "lng": 3.420466,
    "transactions": [
      {
        "date": "2020-12-05",
        "priceEur": 230000,
        "typeLocal": "Maison",
        "surfaceM2": 48,
        "isVefa": false
      }
    ]
  },
  "d6dc8ba9c156": {
    "id": "d6dc8ba9c156",
    "label": "1 CHE DE LA CHICANETTE, Bessan",
    "lat": 43.358611,
    "lng": 3.420942,
    "transactions": [
      {
        "date": "2020-10-22",
        "priceEur": 230000,
        "typeLocal": "Maison",
        "surfaceM2": 88,
        "isVefa": false
      }
    ]
  },
  "80f7705a6622": {
    "id": "80f7705a6622",
    "label": "5 RUE ANCIENNES ECOLES, Bessan",
    "lat": 43.360409,
    "lng": 3.42393,
    "transactions": [
      {
        "date": "2020-12-04",
        "priceEur": 113500,
        "typeLocal": "Appartement",
        "surfaceM2": 105,
        "isVefa": false
      }
    ]
  },
  "4fa556d97b80": {
    "id": "4fa556d97b80",
    "label": "8 BD LA FAYETTE, Bessan",
    "lat": 43.359246,
    "lng": 3.426587,
    "transactions": [
      {
        "date": "2020-12-02",
        "priceEur": 70000,
        "typeLocal": "Maison",
        "surfaceM2": 46,
        "isVefa": false
      }
    ]
  },
  "d0a77120cda0": {
    "id": "d0a77120cda0",
    "label": "40 BD LA FAYETTE, Bessan",
    "lat": 43.36096,
    "lng": 3.425412,
    "transactions": [
      {
        "date": "2020-12-15",
        "priceEur": 132050,
        "typeLocal": "Maison",
        "surfaceM2": 102,
        "isVefa": false
      }
    ]
  },
  "2fdd4d1d49c6": {
    "id": "2fdd4d1d49c6",
    "label": "31 RUE DES SOLEILLERS, Bessan",
    "lat": 43.359512,
    "lng": 3.427134,
    "transactions": [
      {
        "date": "2020-12-11",
        "priceEur": 96150,
        "typeLocal": "Maison",
        "surfaceM2": 55,
        "isVefa": false
      }
    ]
  },
  "53aebcac1e4d": {
    "id": "53aebcac1e4d",
    "label": "23 BD DU PROGRES, Bessan",
    "lat": 43.362568,
    "lng": 3.427339,
    "transactions": [
      {
        "date": "2020-12-22",
        "priceEur": 71500,
        "typeLocal": "Maison",
        "surfaceM2": 53,
        "isVefa": false
      }
    ]
  },
  "48f92cf64639": {
    "id": "48f92cf64639",
    "label": "8 RUE DES FOURS, Bessan",
    "lat": 43.360832,
    "lng": 3.427116,
    "transactions": [
      {
        "date": "2020-12-30",
        "priceEur": 87700,
        "typeLocal": "Maison",
        "surfaceM2": 67,
        "isVefa": false
      }
    ]
  },
  "1c7057f185fc": {
    "id": "1c7057f185fc",
    "label": "6819 RUE ANCIENNES ECOLES, Bessan",
    "lat": 43.360736,
    "lng": 3.423866,
    "transactions": [
      {
        "date": "2020-12-18",
        "priceEur": 187000,
        "typeLocal": "Appartement",
        "surfaceM2": 118,
        "isVefa": false
      },
      {
        "date": "2020-12-18",
        "priceEur": 187000,
        "typeLocal": "Appartement",
        "surfaceM2": 81,
        "isVefa": false
      }
    ]
  },
  "b265f0945c5a": {
    "id": "b265f0945c5a",
    "label": "41 AV DU 8 MAI 1945, Bessan",
    "lat": 43.365003,
    "lng": 3.423485,
    "transactions": [
      {
        "date": "2021-01-21",
        "priceEur": 114310,
        "typeLocal": "Maison",
        "surfaceM2": 130,
        "isVefa": false
      }
    ]
  },
  "d6d639978728": {
    "id": "d6d639978728",
    "label": "2 PL DE L'EGLISE, Bessan",
    "lat": 43.360197,
    "lng": 3.426928,
    "transactions": [
      {
        "date": "2021-01-06",
        "priceEur": 340000,
        "typeLocal": "Maison",
        "surfaceM2": 300,
        "isVefa": false
      }
    ]
  },
  "bada18e0c62b": {
    "id": "bada18e0c62b",
    "label": "8 AV DU 8 MAI 1945, Bessan",
    "lat": 43.361519,
    "lng": 3.424883,
    "transactions": [
      {
        "date": "2021-01-05",
        "priceEur": 162490,
        "typeLocal": "Appartement",
        "surfaceM2": 82,
        "isVefa": false
      }
    ]
  },
  "7b833f9bbbf4": {
    "id": "7b833f9bbbf4",
    "label": "21 RUE DE L'HOSPICE, Bessan",
    "lat": 43.36053,
    "lng": 3.426499,
    "transactions": [
      {
        "date": "2021-01-11",
        "priceEur": 100000,
        "typeLocal": "Maison",
        "surfaceM2": 126,
        "isVefa": false
      }
    ]
  },
  "a1bbea21164b": {
    "id": "a1bbea21164b",
    "label": "3 IMP DES LAVANDES, Bessan",
    "lat": 43.362401,
    "lng": 3.417526,
    "transactions": [
      {
        "date": "2025-03-18",
        "priceEur": 315000,
        "typeLocal": "Maison",
        "surfaceM2": 101,
        "isVefa": false
      },
      {
        "date": "2025-03-18",
        "priceEur": 315000,
        "typeLocal": "Maison",
        "surfaceM2": 101,
        "isVefa": false
      },
      {
        "date": "2021-01-14",
        "priceEur": 285000,
        "typeLocal": "Maison",
        "surfaceM2": 101,
        "isVefa": false
      },
      {
        "date": "2021-01-14",
        "priceEur": 285000,
        "typeLocal": "Maison",
        "surfaceM2": 101,
        "isVefa": false
      }
    ]
  },
  "41077160cbdd": {
    "id": "41077160cbdd",
    "label": "35 RUE REPUBLIQUE, Bessan",
    "lat": 43.360253,
    "lng": 3.427443,
    "transactions": [
      {
        "date": "2021-01-11",
        "priceEur": 73550,
        "typeLocal": "Appartement",
        "surfaceM2": 61,
        "isVefa": false
      }
    ]
  },
  "4e018b833eaf": {
    "id": "4e018b833eaf",
    "label": "6339 LE CHEMIN DE MONTBLANC, Bessan",
    "lat": 43.363695,
    "lng": 3.419503,
    "transactions": [
      {
        "date": "2021-01-27",
        "priceEur": 195000,
        "typeLocal": "Maison",
        "surfaceM2": 100,
        "isVefa": false
      },
      {
        "date": "2021-01-27",
        "priceEur": 195000,
        "typeLocal": "Maison",
        "surfaceM2": 100,
        "isVefa": false
      }
    ]
  },
  "05dba7e055c7": {
    "id": "05dba7e055c7",
    "label": "11 BD DE LA FRATERNITE, Bessan",
    "lat": 43.361704,
    "lng": 3.424902,
    "transactions": [
      {
        "date": "2021-01-15",
        "priceEur": 214000,
        "typeLocal": "Maison",
        "surfaceM2": 80,
        "isVefa": false
      }
    ]
  },
  "ee78356485b4": {
    "id": "ee78356485b4",
    "label": "13 RUE VICTOR HUGO, Bessan",
    "lat": 43.359636,
    "lng": 3.423961,
    "transactions": [
      {
        "date": "2021-01-28",
        "priceEur": 230000,
        "typeLocal": "Maison",
        "surfaceM2": 265,
        "isVefa": false
      }
    ]
  },
  "ba97a2def196": {
    "id": "ba97a2def196",
    "label": "18 RUE ANCIENNES ECOLES, Bessan",
    "lat": 43.361103,
    "lng": 3.422759,
    "transactions": [
      {
        "date": "2021-02-03",
        "priceEur": 158900,
        "typeLocal": "Appartement",
        "surfaceM2": 112,
        "isVefa": false
      }
    ]
  },
  "c07cb7cfe22f": {
    "id": "c07cb7cfe22f",
    "label": "5 LOT LES CIGALES, Bessan",
    "lat": 43.357615,
    "lng": 3.422951,
    "transactions": [
      {
        "date": "2024-07-12",
        "priceEur": 307700,
        "typeLocal": "Maison",
        "surfaceM2": 107,
        "isVefa": false
      },
      {
        "date": "2021-02-15",
        "priceEur": 190000,
        "typeLocal": "Maison",
        "surfaceM2": 86,
        "isVefa": false
      }
    ]
  },
  "039c3ab39ca8": {
    "id": "039c3ab39ca8",
    "label": "16 AV DE LA VICTOIRE, Bessan",
    "lat": 43.359789,
    "lng": 3.42436,
    "transactions": [
      {
        "date": "2025-05-19",
        "priceEur": 230000,
        "typeLocal": "Maison",
        "surfaceM2": 112,
        "isVefa": false
      },
      {
        "date": "2021-02-12",
        "priceEur": 175000,
        "typeLocal": "Maison",
        "surfaceM2": 94,
        "isVefa": false
      }
    ]
  },
  "cbeb89471642": {
    "id": "cbeb89471642",
    "label": "6 AV CONDORCET, Bessan",
    "lat": 43.359628,
    "lng": 3.421093,
    "transactions": [
      {
        "date": "2021-02-17",
        "priceEur": 262400,
        "typeLocal": "Maison",
        "surfaceM2": 94,
        "isVefa": false
      }
    ]
  },
  "22fbb18a9cce": {
    "id": "22fbb18a9cce",
    "label": "14T RUE DE LA MURAILLE, Bessan",
    "lat": 43.360048,
    "lng": 3.425885,
    "transactions": [
      {
        "date": "2021-02-25",
        "priceEur": 190000,
        "typeLocal": "Maison",
        "surfaceM2": 84,
        "isVefa": false
      }
    ]
  },
  "4e23c67cb47c": {
    "id": "4e23c67cb47c",
    "label": "25 RUE DU STADE, Bessan",
    "lat": 43.36001,
    "lng": 3.416905,
    "transactions": [
      {
        "date": "2021-03-24",
        "priceEur": 335000,
        "typeLocal": "Maison",
        "surfaceM2": 110,
        "isVefa": false
      }
    ]
  },
  "dc60eeb5e2a3": {
    "id": "dc60eeb5e2a3",
    "label": "33 CHE DES ANES, Bessan",
    "lat": 43.364747,
    "lng": 3.418903,
    "transactions": [
      {
        "date": "2022-02-10",
        "priceEur": 269000,
        "typeLocal": "Maison",
        "surfaceM2": 87,
        "isVefa": false
      },
      {
        "date": "2022-02-10",
        "priceEur": 269000,
        "typeLocal": "Maison",
        "surfaceM2": 87,
        "isVefa": false
      },
      {
        "date": "2021-04-16",
        "priceEur": 177000,
        "typeLocal": "Maison",
        "surfaceM2": 87,
        "isVefa": false
      }
    ]
  },
  "6205079f7f9a": {
    "id": "6205079f7f9a",
    "label": "35 GRAND RUE, Bessan",
    "lat": 43.361252,
    "lng": 3.425702,
    "transactions": [
      {
        "date": "2021-04-06",
        "priceEur": 88640,
        "typeLocal": "Maison",
        "surfaceM2": 105,
        "isVefa": false
      }
    ]
  },
  "10a83fdbcae4": {
    "id": "10a83fdbcae4",
    "label": "30 AV CONDORCET, Bessan",
    "lat": 43.361179,
    "lng": 3.421625,
    "transactions": [
      {
        "date": "2021-05-17",
        "priceEur": 438000,
        "typeLocal": "Maison",
        "surfaceM2": 64,
        "isVefa": false
      },
      {
        "date": "2021-05-17",
        "priceEur": 438000,
        "typeLocal": "Maison",
        "surfaceM2": 99,
        "isVefa": false
      }
    ]
  },
  "b1daa6129a6d": {
    "id": "b1daa6129a6d",
    "label": "9 RUE DU PUECH MEJA, Bessan",
    "lat": 43.360767,
    "lng": 3.418017,
    "transactions": [
      {
        "date": "2021-05-06",
        "priceEur": 234400,
        "typeLocal": "Maison",
        "surfaceM2": 83,
        "isVefa": false
      }
    ]
  },
  "17dfe4445415": {
    "id": "17dfe4445415",
    "label": "7 RUE DU CAZAL, Bessan",
    "lat": 43.360619,
    "lng": 3.4269,
    "transactions": [
      {
        "date": "2023-04-04",
        "priceEur": 68500,
        "typeLocal": "Appartement",
        "surfaceM2": 28,
        "isVefa": false
      },
      {
        "date": "2021-05-03",
        "priceEur": 48000,
        "typeLocal": "Appartement",
        "surfaceM2": 28,
        "isVefa": false
      }
    ]
  },
  "480b9f956d85": {
    "id": "480b9f956d85",
    "label": "34 RUE DES SOLEILLERS, Bessan",
    "lat": 43.359631,
    "lng": 3.427128,
    "transactions": [
      {
        "date": "2023-10-02",
        "priceEur": 219750,
        "typeLocal": "Maison",
        "surfaceM2": 65,
        "isVefa": false
      },
      {
        "date": "2021-05-11",
        "priceEur": 178100,
        "typeLocal": "Maison",
        "surfaceM2": 65,
        "isVefa": false
      }
    ]
  },
  "e99cd3b3ed37": {
    "id": "e99cd3b3ed37",
    "label": "12 GRAND RUE, Bessan",
    "lat": 43.361543,
    "lng": 3.426873,
    "transactions": [
      {
        "date": "2021-05-28",
        "priceEur": 84000,
        "typeLocal": "Maison",
        "surfaceM2": 74,
        "isVefa": false
      }
    ]
  },
  "4c6419ced64b": {
    "id": "4c6419ced64b",
    "label": "2 RUE DE L'HOSPICE, Bessan",
    "lat": 43.360839,
    "lng": 3.426273,
    "transactions": [
      {
        "date": "2024-09-18",
        "priceEur": 130100,
        "typeLocal": "Maison",
        "surfaceM2": 82,
        "isVefa": false
      },
      {
        "date": "2021-06-01",
        "priceEur": 103880,
        "typeLocal": "Maison",
        "surfaceM2": 82,
        "isVefa": false
      }
    ]
  },
  "b055d190f11d": {
    "id": "b055d190f11d",
    "label": "6560 RUE DES FOURS, Bessan",
    "lat": 43.36082,
    "lng": 3.427258,
    "transactions": [
      {
        "date": "2021-05-12",
        "priceEur": 177050,
        "typeLocal": "Maison",
        "surfaceM2": 80,
        "isVefa": false
      }
    ]
  },
  "83abd7d09649": {
    "id": "83abd7d09649",
    "label": "3 AV DE LA GARE, Bessan",
    "lat": 43.360939,
    "lng": 3.422697,
    "transactions": [
      {
        "date": "2021-05-18",
        "priceEur": 149900,
        "typeLocal": "Maison",
        "surfaceM2": 101,
        "isVefa": false
      }
    ]
  },
  "95267e81db9d": {
    "id": "95267e81db9d",
    "label": "5B IMP DES GRISONS, Bessan",
    "lat": 43.364483,
    "lng": 3.418443,
    "transactions": [
      {
        "date": "2021-06-01",
        "priceEur": 489005,
        "typeLocal": "Maison",
        "surfaceM2": 166,
        "isVefa": false
      },
      {
        "date": "2021-06-01",
        "priceEur": 489005,
        "typeLocal": "Maison",
        "surfaceM2": 166,
        "isVefa": false
      }
    ]
  },
  "8150158b2580": {
    "id": "8150158b2580",
    "label": "10 RUE DE L'HOSPICE, Bessan",
    "lat": 43.360588,
    "lng": 3.426314,
    "transactions": [
      {
        "date": "2025-02-28",
        "priceEur": 51725,
        "typeLocal": "Appartement",
        "surfaceM2": 41,
        "isVefa": false
      },
      {
        "date": "2021-07-26",
        "priceEur": 56100,
        "typeLocal": "Appartement",
        "surfaceM2": 36,
        "isVefa": false
      },
      {
        "date": "2021-06-02",
        "priceEur": 30910,
        "typeLocal": "Appartement",
        "surfaceM2": 36,
        "isVefa": false
      }
    ]
  },
  "d38c93aa290f": {
    "id": "d38c93aa290f",
    "label": "9 RUE DU POURCAYROL, Bessan",
    "lat": 43.36229,
    "lng": 3.423474,
    "transactions": [
      {
        "date": "2021-06-07",
        "priceEur": 252200,
        "typeLocal": "Maison",
        "surfaceM2": 94,
        "isVefa": false
      }
    ]
  },
  "6d0efa5ec9aa": {
    "id": "6d0efa5ec9aa",
    "label": "11 GRAND RUE, Bessan",
    "lat": 43.361371,
    "lng": 3.427209,
    "transactions": [
      {
        "date": "2021-06-11",
        "priceEur": 123000,
        "typeLocal": "Appartement",
        "surfaceM2": 96,
        "isVefa": false
      }
    ]
  },
  "b709e991bb5f": {
    "id": "b709e991bb5f",
    "label": "9 RUE DU PORCHE ST PIERRE, Bessan",
    "lat": 43.359284,
    "lng": 3.427194,
    "transactions": [
      {
        "date": "2021-06-11",
        "priceEur": 82150,
        "typeLocal": "Maison",
        "surfaceM2": 76,
        "isVefa": false
      }
    ]
  },
  "a0cd7175ee30": {
    "id": "a0cd7175ee30",
    "label": "1 RUE NEUVE D'HORTES, Bessan",
    "lat": 43.36189,
    "lng": 3.427312,
    "transactions": [
      {
        "date": "2021-06-10",
        "priceEur": 83130,
        "typeLocal": "Maison",
        "surfaceM2": 68,
        "isVefa": false
      }
    ]
  },
  "26d7fcf84528": {
    "id": "26d7fcf84528",
    "label": "41 GRAND RUE, Bessan",
    "lat": 43.361232,
    "lng": 3.425489,
    "transactions": [
      {
        "date": "2021-12-10",
        "priceEur": 108350,
        "typeLocal": "Maison",
        "surfaceM2": 108,
        "isVefa": false
      },
      {
        "date": "2021-06-29",
        "priceEur": 100000,
        "typeLocal": "Maison",
        "surfaceM2": 108,
        "isVefa": false
      }
    ]
  },
  "21af69a29cf9": {
    "id": "21af69a29cf9",
    "label": "23 PL DE LA REPUBLIQUE, Bessan",
    "lat": 43.360574,
    "lng": 3.427671,
    "transactions": [
      {
        "date": "2021-07-07",
        "priceEur": 410000,
        "typeLocal": "Appartement",
        "surfaceM2": 28,
        "isVefa": false
      },
      {
        "date": "2021-07-07",
        "priceEur": 410000,
        "typeLocal": "Appartement",
        "surfaceM2": 48,
        "isVefa": false
      },
      {
        "date": "2021-07-07",
        "priceEur": 410000,
        "typeLocal": "Appartement",
        "surfaceM2": 48,
        "isVefa": false
      },
      {
        "date": "2021-07-07",
        "priceEur": 410000,
        "typeLocal": "Appartement",
        "surfaceM2": 50,
        "isVefa": false
      },
      {
        "date": "2021-07-07",
        "priceEur": 410000,
        "typeLocal": "Appartement",
        "surfaceM2": 44,
        "isVefa": false
      },
      {
        "date": "2021-07-07",
        "priceEur": 410000,
        "typeLocal": "Appartement",
        "surfaceM2": 43,
        "isVefa": false
      }
    ]
  },
  "960c61b9a66f": {
    "id": "960c61b9a66f",
    "label": "3B RUE DU COMMERCE, Bessan",
    "lat": 43.361508,
    "lng": 3.423477,
    "transactions": [
      {
        "date": "2021-06-29",
        "priceEur": 551140,
        "typeLocal": "Appartement",
        "surfaceM2": 54,
        "isVefa": false
      },
      {
        "date": "2021-06-29",
        "priceEur": 551140,
        "typeLocal": "Maison",
        "surfaceM2": 160,
        "isVefa": false
      }
    ]
  },
  "8df8ce075d9a": {
    "id": "8df8ce075d9a",
    "label": "32 RUE REPUBLIQUE, Bessan",
    "lat": 43.360218,
    "lng": 3.427048,
    "transactions": [
      {
        "date": "2021-06-28",
        "priceEur": 66000,
        "typeLocal": "Maison",
        "surfaceM2": 67,
        "isVefa": false
      }
    ]
  },
  "2365f8163228": {
    "id": "2365f8163228",
    "label": "35 RUE SEBASTOPOL, Bessan",
    "lat": 43.362356,
    "lng": 3.424585,
    "transactions": [
      {
        "date": "2023-04-11",
        "priceEur": 268850,
        "typeLocal": "Maison",
        "surfaceM2": 130,
        "isVefa": false
      },
      {
        "date": "2021-07-06",
        "priceEur": 238200,
        "typeLocal": "Maison",
        "surfaceM2": 130,
        "isVefa": false
      }
    ]
  },
  "8861d86134d7": {
    "id": "8861d86134d7",
    "label": "8 RUE DU POURCAYROL, Bessan",
    "lat": 43.362492,
    "lng": 3.423656,
    "transactions": [
      {
        "date": "2021-07-02",
        "priceEur": 210000,
        "typeLocal": "Appartement",
        "surfaceM2": 250,
        "isVefa": false
      }
    ]
  },
  "8d7767be14c1": {
    "id": "8d7767be14c1",
    "label": "28 RUE DU CHATEAU D'EAU, Bessan",
    "lat": 43.362573,
    "lng": 3.423448,
    "transactions": [
      {
        "date": "2021-07-02",
        "priceEur": 210000,
        "typeLocal": "Maison",
        "surfaceM2": 121,
        "isVefa": false
      }
    ]
  },
  "41a78e15ca06": {
    "id": "41a78e15ca06",
    "label": "11 RUE DES MIMOSAS, Bessan",
    "lat": 43.364597,
    "lng": 3.422868,
    "transactions": [
      {
        "date": "2021-07-05",
        "priceEur": 375250,
        "typeLocal": "Maison",
        "surfaceM2": 118,
        "isVefa": false
      }
    ]
  },
  "c6a9b62a96bb": {
    "id": "c6a9b62a96bb",
    "label": "34 GRAND RUE, Bessan",
    "lat": 43.361388,
    "lng": 3.42557,
    "transactions": [
      {
        "date": "2021-07-06",
        "priceEur": 103000,
        "typeLocal": "Maison",
        "surfaceM2": 78,
        "isVefa": false
      }
    ]
  },
  "0fafcd18a665": {
    "id": "0fafcd18a665",
    "label": "10 RUE DU PORCHE DE L'HOSPICE, Bessan",
    "lat": 43.360989,
    "lng": 3.426117,
    "transactions": [
      {
        "date": "2021-06-30",
        "priceEur": 101650,
        "typeLocal": "Appartement",
        "surfaceM2": 96,
        "isVefa": false
      }
    ]
  },
  "01284161d05e": {
    "id": "01284161d05e",
    "label": "13 RUE DU CAZAL, Bessan",
    "lat": 43.360636,
    "lng": 3.426577,
    "transactions": [
      {
        "date": "2021-07-02",
        "priceEur": 147005,
        "typeLocal": "Maison",
        "surfaceM2": 110,
        "isVefa": false
      },
      {
        "date": "2021-07-02",
        "priceEur": 147005,
        "typeLocal": "Appartement",
        "surfaceM2": 35,
        "isVefa": false
      }
    ]
  },
  "3f3bc563d869": {
    "id": "3f3bc563d869",
    "label": "14 RUE SEBASTOPOL, Bessan",
    "lat": 43.362237,
    "lng": 3.426423,
    "transactions": [
      {
        "date": "2021-07-20",
        "priceEur": 178000,
        "typeLocal": "Maison",
        "surfaceM2": 81,
        "isVefa": false
      }
    ]
  },
  "5d62a3f01568": {
    "id": "5d62a3f01568",
    "label": "7 RUE DES JASSES, Bessan",
    "lat": 43.362388,
    "lng": 3.426552,
    "transactions": [
      {
        "date": "2021-07-20",
        "priceEur": 75000,
        "typeLocal": "Maison",
        "surfaceM2": 98,
        "isVefa": false
      }
    ]
  },
  "8d75d8f46b3b": {
    "id": "8d75d8f46b3b",
    "label": "2 IMP DES PETITES BARAQUETTES, Bessan",
    "lat": 43.359901,
    "lng": 3.422948,
    "transactions": [
      {
        "date": "2025-03-21",
        "priceEur": 137750,
        "typeLocal": "Maison",
        "surfaceM2": 58,
        "isVefa": false
      },
      {
        "date": "2021-08-10",
        "priceEur": 118000,
        "typeLocal": "Maison",
        "surfaceM2": 58,
        "isVefa": false
      }
    ]
  },
  "335d34a3c06f": {
    "id": "335d34a3c06f",
    "label": "14 RUE DE L'HOSPICE, Bessan",
    "lat": 43.360498,
    "lng": 3.426368,
    "transactions": [
      {
        "date": "2021-08-06",
        "priceEur": 115700,
        "typeLocal": "Maison",
        "surfaceM2": 61,
        "isVefa": false
      }
    ]
  },
  "f7ff93f17fa5": {
    "id": "f7ff93f17fa5",
    "label": "12 RUE DES JASSES, Bessan",
    "lat": 43.362604,
    "lng": 3.42679,
    "transactions": [
      {
        "date": "2021-08-20",
        "priceEur": 149500,
        "typeLocal": "Maison",
        "surfaceM2": 84,
        "isVefa": false
      }
    ]
  },
  "960c4254bcf9": {
    "id": "960c4254bcf9",
    "label": "5 RUE DES FOURS, Bessan",
    "lat": 43.360675,
    "lng": 3.427043,
    "transactions": [
      {
        "date": "2025-04-23",
        "priceEur": 267000,
        "typeLocal": "Maison",
        "surfaceM2": 217,
        "isVefa": false
      },
      {
        "date": "2021-08-31",
        "priceEur": 195000,
        "typeLocal": "Maison",
        "surfaceM2": 217,
        "isVefa": false
      }
    ]
  },
  "3084fbc4e8ea": {
    "id": "3084fbc4e8ea",
    "label": "10 RUE DE L'OLIVIER, Bessan",
    "lat": 43.36127,
    "lng": 3.427225,
    "transactions": [
      {
        "date": "2021-09-30",
        "priceEur": 124900,
        "typeLocal": "Maison",
        "surfaceM2": 34,
        "isVefa": false
      }
    ]
  },
  "1e4db95350ee": {
    "id": "1e4db95350ee",
    "label": "18 RUE DU CASTEL, Bessan",
    "lat": 43.35923,
    "lng": 3.423229,
    "transactions": [
      {
        "date": "2021-09-14",
        "priceEur": 356250,
        "typeLocal": "Maison",
        "surfaceM2": 108,
        "isVefa": false
      }
    ]
  },
  "ad5773d01b88": {
    "id": "ad5773d01b88",
    "label": "12 RUE DE LA POMPE, Bessan",
    "lat": 43.362462,
    "lng": 3.427134,
    "transactions": [
      {
        "date": "2021-09-20",
        "priceEur": 105500,
        "typeLocal": "Maison",
        "surfaceM2": 51,
        "isVefa": false
      }
    ]
  },
  "b2b43fc1a352": {
    "id": "b2b43fc1a352",
    "label": "23 AV DU 8 MAI 1945, Bessan",
    "lat": 43.362656,
    "lng": 3.423973,
    "transactions": [
      {
        "date": "2024-12-05",
        "priceEur": 629965,
        "typeLocal": "Maison",
        "surfaceM2": 56,
        "isVefa": false
      },
      {
        "date": "2024-12-05",
        "priceEur": 629965,
        "typeLocal": "Maison",
        "surfaceM2": 209,
        "isVefa": false
      },
      {
        "date": "2021-09-23",
        "priceEur": 514310,
        "typeLocal": "Maison",
        "surfaceM2": 209,
        "isVefa": false
      },
      {
        "date": "2021-09-23",
        "priceEur": 514310,
        "typeLocal": "Maison",
        "surfaceM2": 56,
        "isVefa": false
      }
    ]
  },
  "84561e962e8b": {
    "id": "84561e962e8b",
    "label": "4 AV DE LA GARE, Bessan",
    "lat": 43.36049,
    "lng": 3.422295,
    "transactions": [
      {
        "date": "2021-09-23",
        "priceEur": 290000,
        "typeLocal": "Maison",
        "surfaceM2": 95,
        "isVefa": false
      }
    ]
  },
  "a54a7e751e7c": {
    "id": "a54a7e751e7c",
    "label": "3 LOT SAINT JOSEPH, Bessan",
    "lat": 43.357911,
    "lng": 3.41902,
    "transactions": [
      {
        "date": "2021-10-22",
        "priceEur": 258550,
        "typeLocal": "Maison",
        "surfaceM2": 98,
        "isVefa": false
      }
    ]
  },
  "5d22494150d4": {
    "id": "5d22494150d4",
    "label": "2 CHE DE LA CHICANETTE, Bessan",
    "lat": 43.359061,
    "lng": 3.420601,
    "transactions": [
      {
        "date": "2021-10-14",
        "priceEur": 204000,
        "typeLocal": "Maison",
        "surfaceM2": 59,
        "isVefa": false
      }
    ]
  },
  "d7d6e245c457": {
    "id": "d7d6e245c457",
    "label": "37 RUE REPUBLIQUE, Bessan",
    "lat": 43.360251,
    "lng": 3.427267,
    "transactions": [
      {
        "date": "2021-11-03",
        "priceEur": 144400,
        "typeLocal": "Maison",
        "surfaceM2": 82,
        "isVefa": false
      }
    ]
  },
  "14a7ecb9a97a": {
    "id": "14a7ecb9a97a",
    "label": "4 PL DE L'EGLISE, Bessan",
    "lat": 43.360128,
    "lng": 3.426805,
    "transactions": [
      {
        "date": "2021-11-10",
        "priceEur": 105000,
        "typeLocal": "Appartement",
        "surfaceM2": 85,
        "isVefa": false
      }
    ]
  },
  "6e52dbd61cfb": {
    "id": "6e52dbd61cfb",
    "label": "5470 RUE DES CAVES, Bessan",
    "lat": 43.36099,
    "lng": 3.425708,
    "transactions": [
      {
        "date": "2021-11-29",
        "priceEur": 127000,
        "typeLocal": "Maison",
        "surfaceM2": 100,
        "isVefa": false
      }
    ]
  },
  "36cbcd6b8876": {
    "id": "36cbcd6b8876",
    "label": "13 BD LA FAYETTE, Bessan",
    "lat": 43.359868,
    "lng": 3.425222,
    "transactions": [
      {
        "date": "2021-11-30",
        "priceEur": 148000,
        "typeLocal": "Maison",
        "surfaceM2": 76,
        "isVefa": false
      }
    ]
  },
  "d7f677e52022": {
    "id": "d7f677e52022",
    "label": "19 RUE NEUVE D'HORTES, Bessan",
    "lat": 43.362373,
    "lng": 3.427518,
    "transactions": [
      {
        "date": "2021-11-30",
        "priceEur": 182700,
        "typeLocal": "Maison",
        "surfaceM2": 111,
        "isVefa": false
      }
    ]
  },
  "df9422cae859": {
    "id": "df9422cae859",
    "label": "8B IMP DU LUXEMBOURG, Bessan",
    "lat": 43.357695,
    "lng": 3.418805,
    "transactions": [
      {
        "date": "2021-12-09",
        "priceEur": 240170,
        "typeLocal": "Maison",
        "surfaceM2": 90,
        "isVefa": false
      }
    ]
  },
  "4c2d37f3e7a9": {
    "id": "4c2d37f3e7a9",
    "label": "16 CHE DE LA MONADIERE, Bessan",
    "lat": 43.358149,
    "lng": 3.421559,
    "transactions": [
      {
        "date": "2024-06-03",
        "priceEur": 205000,
        "typeLocal": "Maison",
        "surfaceM2": 121,
        "isVefa": false
      },
      {
        "date": "2021-12-01",
        "priceEur": 391100,
        "typeLocal": "Maison",
        "surfaceM2": 121,
        "isVefa": false
      }
    ]
  },
  "14be070e3984": {
    "id": "14be070e3984",
    "label": "19 AV DU 8 MAI 1945, Bessan",
    "lat": 43.36246,
    "lng": 3.423927,
    "transactions": [
      {
        "date": "2021-12-16",
        "priceEur": 247335,
        "typeLocal": "Appartement",
        "surfaceM2": 113,
        "isVefa": false
      }
    ]
  },
  "296407a51a7c": {
    "id": "296407a51a7c",
    "label": "4 RUE DU POURCAYROL, Bessan",
    "lat": 43.362419,
    "lng": 3.423751,
    "transactions": [
      {
        "date": "2021-12-16",
        "priceEur": 247335,
        "typeLocal": "Appartement",
        "surfaceM2": 67,
        "isVefa": false
      }
    ]
  },
  "1376e2bbd046": {
    "id": "1376e2bbd046",
    "label": "18 RUE DU CHATEAU D'EAU, Bessan",
    "lat": 43.362006,
    "lng": 3.423223,
    "transactions": [
      {
        "date": "2021-12-20",
        "priceEur": 211000,
        "typeLocal": "Maison",
        "surfaceM2": 53,
        "isVefa": false
      }
    ]
  },
  "969faf9f16c7": {
    "id": "969faf9f16c7",
    "label": "29 RUE DE L'HOSPICE, Bessan",
    "lat": 43.360239,
    "lng": 3.426715,
    "transactions": [
      {
        "date": "2021-12-20",
        "priceEur": 73000,
        "typeLocal": "Maison",
        "surfaceM2": 50,
        "isVefa": false
      }
    ]
  },
  "2e3ffa5faacb": {
    "id": "2e3ffa5faacb",
    "label": "20 RUE DU CHATEAU D'EAU, Bessan",
    "lat": 43.362078,
    "lng": 3.423236,
    "transactions": [
      {
        "date": "2021-12-16",
        "priceEur": 195000,
        "typeLocal": "Maison",
        "surfaceM2": 150,
        "isVefa": false
      }
    ]
  },
  "07368cbdd910": {
    "id": "07368cbdd910",
    "label": "18 RUE DES JASSES, Bessan",
    "lat": 43.363007,
    "lng": 3.42682,
    "transactions": [
      {
        "date": "2021-12-17",
        "priceEur": 126150,
        "typeLocal": "Maison",
        "surfaceM2": 72,
        "isVefa": false
      }
    ]
  },
  "c557e29a9a5b": {
    "id": "c557e29a9a5b",
    "label": "10 RUE PUITS AURIOL, Bessan",
    "lat": 43.361748,
    "lng": 3.426422,
    "transactions": [
      {
        "date": "2021-12-24",
        "priceEur": 185300,
        "typeLocal": "Maison",
        "surfaceM2": 100,
        "isVefa": false
      }
    ]
  },
  "9f5f6ded0c9f": {
    "id": "9f5f6ded0c9f",
    "label": "6 RUE FONTVIEILLE, Bessan",
    "lat": 43.361618,
    "lng": 3.425903,
    "transactions": [
      {
        "date": "2021-12-31",
        "priceEur": 253701,
        "typeLocal": "Appartement",
        "surfaceM2": 48,
        "isVefa": false
      },
      {
        "date": "2021-12-31",
        "priceEur": 253701,
        "typeLocal": "Maison",
        "surfaceM2": 122,
        "isVefa": false
      }
    ]
  },
  "a97f3cd36ee0": {
    "id": "a97f3cd36ee0",
    "label": "5641 IMP GRANDE RUE, Bessan",
    "lat": 43.361645,
    "lng": 3.426661,
    "transactions": [
      {
        "date": "2021-09-28",
        "priceEur": 60001,
        "typeLocal": "Maison",
        "surfaceM2": 63,
        "isVefa": false
      }
    ]
  },
  "98de545e62a9": {
    "id": "98de545e62a9",
    "label": "21B RUE SEBASTOPOL, Bessan",
    "lat": 43.362042,
    "lng": 3.425708,
    "transactions": [
      {
        "date": "2022-01-19",
        "priceEur": 72000,
        "typeLocal": "Maison",
        "surfaceM2": 39,
        "isVefa": false
      }
    ]
  },
  "063e96eb7b6c": {
    "id": "063e96eb7b6c",
    "label": "4B RTE DE BEZIERS, Bessan",
    "lat": 43.362269,
    "lng": 3.417211,
    "transactions": [
      {
        "date": "2022-01-20",
        "priceEur": 346000,
        "typeLocal": "Maison",
        "surfaceM2": 104,
        "isVefa": false
      }
    ]
  },
  "ff809b1cd2ad": {
    "id": "ff809b1cd2ad",
    "label": "5 IMP DES ARAMONS, Bessan",
    "lat": 43.358394,
    "lng": 3.417823,
    "transactions": [
      {
        "date": "2022-01-31",
        "priceEur": 160000,
        "typeLocal": "Maison",
        "surfaceM2": 140,
        "isVefa": false
      }
    ]
  },
  "0f78bd1a077f": {
    "id": "0f78bd1a077f",
    "label": "5B RUE BARNABO, Bessan",
    "lat": 43.360356,
    "lng": 3.426776,
    "transactions": [
      {
        "date": "2022-02-02",
        "priceEur": 75050,
        "typeLocal": "Maison",
        "surfaceM2": 62,
        "isVefa": false
      }
    ]
  },
  "11f166355815": {
    "id": "11f166355815",
    "label": "45 AV DE LA VICTOIRE, Bessan",
    "lat": 43.359452,
    "lng": 3.425316,
    "transactions": [
      {
        "date": "2022-01-31",
        "priceEur": 330000,
        "typeLocal": "Maison",
        "surfaceM2": 103,
        "isVefa": false
      }
    ]
  },
  "87c95b2d1ed3": {
    "id": "87c95b2d1ed3",
    "label": "18 RUE DE LA POMPE, Bessan",
    "lat": 43.362601,
    "lng": 3.427168,
    "transactions": [
      {
        "date": "2023-02-28",
        "priceEur": 99000,
        "typeLocal": "Maison",
        "surfaceM2": 47,
        "isVefa": false
      },
      {
        "date": "2022-01-26",
        "priceEur": 46000,
        "typeLocal": "Maison",
        "surfaceM2": 47,
        "isVefa": false
      }
    ]
  },
  "868043c492b4": {
    "id": "868043c492b4",
    "label": "4 CHE DE LA RENGA, Bessan",
    "lat": 43.36501,
    "lng": 3.421317,
    "transactions": [
      {
        "date": "2022-02-21",
        "priceEur": 5535887.5,
        "typeLocal": "Maison",
        "surfaceM2": 213,
        "isVefa": true
      },
      {
        "date": "2022-02-21",
        "priceEur": 5535887.5,
        "typeLocal": "Maison",
        "surfaceM2": 213,
        "isVefa": true
      },
      {
        "date": "2022-02-18",
        "priceEur": 780000,
        "typeLocal": "Maison",
        "surfaceM2": 213,
        "isVefa": false
      },
      {
        "date": "2022-02-18",
        "priceEur": 780000,
        "typeLocal": "Maison",
        "surfaceM2": 213,
        "isVefa": false
      }
    ]
  },
  "50209648b496": {
    "id": "50209648b496",
    "label": "23 RUE DES CAVES, Bessan",
    "lat": 43.359647,
    "lng": 3.426859,
    "transactions": [
      {
        "date": "2022-02-15",
        "priceEur": 75100,
        "typeLocal": "Maison",
        "surfaceM2": 40,
        "isVefa": false
      }
    ]
  },
  "e285c12fbf40": {
    "id": "e285c12fbf40",
    "label": "10 RUE DES MIMOSAS, Bessan",
    "lat": 43.364977,
    "lng": 3.422312,
    "transactions": [
      {
        "date": "2022-02-16",
        "priceEur": 251450,
        "typeLocal": "Maison",
        "surfaceM2": 59,
        "isVefa": false
      }
    ]
  },
  "740e94f1fa83": {
    "id": "740e94f1fa83",
    "label": "78 BD DE LA FRATERNITE PROLONGE, Bessan",
    "lat": 43.365107,
    "lng": 3.425011,
    "transactions": [
      {
        "date": "2022-02-21",
        "priceEur": 338500,
        "typeLocal": "Maison",
        "surfaceM2": 95,
        "isVefa": false
      }
    ]
  },
  "f9b2205cfcd1": {
    "id": "f9b2205cfcd1",
    "label": "5421 RUE DE LA GLACIERE, Bessan",
    "lat": 43.362665,
    "lng": 3.425452,
    "transactions": [
      {
        "date": "2022-03-14",
        "priceEur": 53000,
        "typeLocal": "Maison",
        "surfaceM2": 50,
        "isVefa": false
      }
    ]
  },
  "afe721781548": {
    "id": "afe721781548",
    "label": "22 CHE DE LA MONADIERE, Bessan",
    "lat": 43.357615,
    "lng": 3.422112,
    "transactions": [
      {
        "date": "2022-03-07",
        "priceEur": 299000,
        "typeLocal": "Maison",
        "surfaceM2": 69,
        "isVefa": false
      }
    ]
  },
  "3c2e5dddd103": {
    "id": "3c2e5dddd103",
    "label": "3B IMP DE LA CROIX DE REDON, Bessan",
    "lat": 43.357713,
    "lng": 3.423513,
    "transactions": [
      {
        "date": "2022-04-08",
        "priceEur": 190000,
        "typeLocal": "Maison",
        "surfaceM2": 92,
        "isVefa": false
      }
    ]
  },
  "8b22c119ae76": {
    "id": "8b22c119ae76",
    "label": "7 RUE ANCIENNES ECOLES, Bessan",
    "lat": 43.360849,
    "lng": 3.42287,
    "transactions": [
      {
        "date": "2022-04-01",
        "priceEur": 140000,
        "typeLocal": "Appartement",
        "surfaceM2": 86,
        "isVefa": false
      }
    ]
  },
  "1b38c3d9d43c": {
    "id": "1b38c3d9d43c",
    "label": "28 RUE DE L'HOSPICE, Bessan",
    "lat": 43.360277,
    "lng": 3.426539,
    "transactions": [
      {
        "date": "2022-04-01",
        "priceEur": 98000,
        "typeLocal": "Maison",
        "surfaceM2": 95,
        "isVefa": false
      }
    ]
  },
  "9cd35a9be0a1": {
    "id": "9cd35a9be0a1",
    "label": "15 AV CONDORCET, Bessan",
    "lat": 43.36,
    "lng": 3.420381,
    "transactions": [
      {
        "date": "2022-04-14",
        "priceEur": 362900,
        "typeLocal": "Maison",
        "surfaceM2": 110,
        "isVefa": false
      }
    ]
  },
  "799da816ea76": {
    "id": "799da816ea76",
    "label": "4 RUE DU MURIER, Bessan",
    "lat": 43.359502,
    "lng": 3.426205,
    "transactions": [
      {
        "date": "2022-04-22",
        "priceEur": 100000,
        "typeLocal": "Maison",
        "surfaceM2": 72,
        "isVefa": false
      }
    ]
  },
  "3fcaa8711940": {
    "id": "3fcaa8711940",
    "label": "21 RUE DES CAVES, Bessan",
    "lat": 43.359682,
    "lng": 3.426807,
    "transactions": [
      {
        "date": "2024-11-25",
        "priceEur": 117500,
        "typeLocal": "Maison",
        "surfaceM2": 56,
        "isVefa": false
      },
      {
        "date": "2022-04-27",
        "priceEur": 90250,
        "typeLocal": "Maison",
        "surfaceM2": 56,
        "isVefa": false
      }
    ]
  },
  "6f361116d9f4": {
    "id": "6f361116d9f4",
    "label": "22 GRAND RUE, Bessan",
    "lat": 43.361524,
    "lng": 3.426438,
    "transactions": [
      {
        "date": "2022-05-25",
        "priceEur": 62000,
        "typeLocal": "Maison",
        "surfaceM2": 67,
        "isVefa": false
      }
    ]
  },
  "a85b3fc846dd": {
    "id": "a85b3fc846dd",
    "label": "3B RUE DES JASSES, Bessan",
    "lat": 43.362315,
    "lng": 3.426552,
    "transactions": [
      {
        "date": "2022-06-24",
        "priceEur": 55500,
        "typeLocal": "Maison",
        "surfaceM2": 30,
        "isVefa": false
      }
    ]
  },
  "b2c34913092a": {
    "id": "b2c34913092a",
    "label": "4 AV DU 8 MAI 1945, Bessan",
    "lat": 43.361399,
    "lng": 3.424804,
    "transactions": [
      {
        "date": "2024-05-30",
        "priceEur": 97000,
        "typeLocal": "Appartement",
        "surfaceM2": 60,
        "isVefa": false
      },
      {
        "date": "2022-06-10",
        "priceEur": 27000,
        "typeLocal": "Appartement",
        "surfaceM2": 60,
        "isVefa": false
      }
    ]
  },
  "e2c49e136d50": {
    "id": "e2c49e136d50",
    "label": "2 AV DU 8 MAI 1945, Bessan",
    "lat": 43.361339,
    "lng": 3.424819,
    "transactions": [
      {
        "date": "2024-05-30",
        "priceEur": 97000,
        "typeLocal": "Appartement",
        "surfaceM2": 3,
        "isVefa": false
      },
      {
        "date": "2022-06-10",
        "priceEur": 27000,
        "typeLocal": "Appartement",
        "surfaceM2": 3,
        "isVefa": false
      }
    ]
  },
  "8f8ab96dc6fe": {
    "id": "8f8ab96dc6fe",
    "label": "13 RUE DE L'OLIVIER, Bessan",
    "lat": 43.361124,
    "lng": 3.426733,
    "transactions": [
      {
        "date": "2022-06-24",
        "priceEur": 79180,
        "typeLocal": "Maison",
        "surfaceM2": 64,
        "isVefa": false
      }
    ]
  },
  "3e2e1ce73891": {
    "id": "3e2e1ce73891",
    "label": "7B RUE ANCIENNES ECOLES, Bessan",
    "lat": 43.360775,
    "lng": 3.423053,
    "transactions": [
      {
        "date": "2022-07-01",
        "priceEur": 389990,
        "typeLocal": "Maison",
        "surfaceM2": 130,
        "isVefa": false
      }
    ]
  },
  "bc3b6790f81f": {
    "id": "bc3b6790f81f",
    "label": "4 RUE REPUBLIQUE, Bessan",
    "lat": 43.361074,
    "lng": 3.427626,
    "transactions": [
      {
        "date": "2022-07-12",
        "priceEur": 79800,
        "typeLocal": "Maison",
        "surfaceM2": 60,
        "isVefa": false
      }
    ]
  },
  "b9a44afd3d52": {
    "id": "b9a44afd3d52",
    "label": "16B RUE DU CASTEL, Bessan",
    "lat": 43.359158,
    "lng": 3.423696,
    "transactions": [
      {
        "date": "2022-07-29",
        "priceEur": 160000,
        "typeLocal": "Appartement",
        "surfaceM2": 84,
        "isVefa": false
      }
    ]
  },
  "ed78566e1beb": {
    "id": "ed78566e1beb",
    "label": "27 CHE DES ANES, Bessan",
    "lat": 43.364423,
    "lng": 3.4196,
    "transactions": [
      {
        "date": "2022-08-03",
        "priceEur": 400000,
        "typeLocal": "Maison",
        "surfaceM2": 136,
        "isVefa": false
      },
      {
        "date": "2022-08-03",
        "priceEur": 400000,
        "typeLocal": "Maison",
        "surfaceM2": 136,
        "isVefa": false
      }
    ]
  },
  "bb80fe9e186d": {
    "id": "bb80fe9e186d",
    "label": "9 RUE DE L'OLIVIER, Bessan",
    "lat": 43.361129,
    "lng": 3.427239,
    "transactions": [
      {
        "date": "2022-08-16",
        "priceEur": 143000,
        "typeLocal": "Maison",
        "surfaceM2": 45,
        "isVefa": false
      }
    ]
  },
  "c4ab64cc627c": {
    "id": "c4ab64cc627c",
    "label": "27 RUE REPUBLIQUE, Bessan",
    "lat": 43.360496,
    "lng": 3.427507,
    "transactions": [
      {
        "date": "2022-08-30",
        "priceEur": 91040,
        "typeLocal": "Appartement",
        "surfaceM2": 60,
        "isVefa": false
      }
    ]
  },
  "f2af59c57564": {
    "id": "f2af59c57564",
    "label": "3 RUE NEUVE D'HORTES, Bessan",
    "lat": 43.362029,
    "lng": 3.427236,
    "transactions": [
      {
        "date": "2022-08-30",
        "priceEur": 130000,
        "typeLocal": "Maison",
        "surfaceM2": 102,
        "isVefa": false
      }
    ]
  },
  "eff02986fb7c": {
    "id": "eff02986fb7c",
    "label": "24 AV DE LA VICTOIRE, Bessan",
    "lat": 43.359368,
    "lng": 3.424734,
    "transactions": [
      {
        "date": "2022-09-16",
        "priceEur": 518150,
        "typeLocal": "Maison",
        "surfaceM2": 100,
        "isVefa": false
      }
    ]
  },
  "a4e1326c9d8c": {
    "id": "a4e1326c9d8c",
    "label": "6 RUE DE L'HOSPICE, Bessan",
    "lat": 43.360708,
    "lng": 3.42623,
    "transactions": [
      {
        "date": "2022-09-13",
        "priceEur": 62000,
        "typeLocal": "Maison",
        "surfaceM2": 56,
        "isVefa": false
      }
    ]
  },
  "8b75e746d664": {
    "id": "8b75e746d664",
    "label": "8 RUE DU MURIER, Bessan",
    "lat": 43.3594,
    "lng": 3.426205,
    "transactions": [
      {
        "date": "2023-09-08",
        "priceEur": 99000,
        "typeLocal": "Maison",
        "surfaceM2": 35,
        "isVefa": false
      },
      {
        "date": "2022-09-23",
        "priceEur": 40000,
        "typeLocal": "Maison",
        "surfaceM2": 35,
        "isVefa": false
      }
    ]
  },
  "a71b6e6103fd": {
    "id": "a71b6e6103fd",
    "label": "24 BD DE LA FRATERNITE, Bessan",
    "lat": 43.36221,
    "lng": 3.425254,
    "transactions": [
      {
        "date": "2022-09-30",
        "priceEur": 81000,
        "typeLocal": "Maison",
        "surfaceM2": 28,
        "isVefa": false
      }
    ]
  },
  "b4e553556499": {
    "id": "b4e553556499",
    "label": "6 RUE PUITS AURIOL, Bessan",
    "lat": 43.361641,
    "lng": 3.42631,
    "transactions": [
      {
        "date": "2022-10-07",
        "priceEur": 195900,
        "typeLocal": "Maison",
        "surfaceM2": 160,
        "isVefa": false
      }
    ]
  },
  "45ad10a99dde": {
    "id": "45ad10a99dde",
    "label": "9 RUE DE LA BRECHE, Bessan",
    "lat": 43.36012,
    "lng": 3.427434,
    "transactions": [
      {
        "date": "2022-10-17",
        "priceEur": 56400,
        "typeLocal": "Maison",
        "surfaceM2": 36,
        "isVefa": false
      }
    ]
  },
  "2e9e5e6fe16c": {
    "id": "2e9e5e6fe16c",
    "label": "4 CHE DE LA CROIX DE REDON, Bessan",
    "lat": 43.35763,
    "lng": 3.424589,
    "transactions": [
      {
        "date": "2022-10-17",
        "priceEur": 204137.2,
        "typeLocal": "Maison",
        "surfaceM2": 100,
        "isVefa": false
      }
    ]
  },
  "eeda7d38999b": {
    "id": "eeda7d38999b",
    "label": "3B RUE DU POURCAYROL, Bessan",
    "lat": 43.362166,
    "lng": 3.424046,
    "transactions": [
      {
        "date": "2022-10-24",
        "priceEur": 171000,
        "typeLocal": "Maison",
        "surfaceM2": 85,
        "isVefa": false
      }
    ]
  },
  "a31b539ab1dc": {
    "id": "a31b539ab1dc",
    "label": "7106F CHE DES ANES, Bessan",
    "lat": 43.364959,
    "lng": 3.417881,
    "transactions": [
      {
        "date": "2022-10-28",
        "priceEur": 336850,
        "typeLocal": "Maison",
        "surfaceM2": 102,
        "isVefa": false
      }
    ]
  },
  "8c314d30deb7": {
    "id": "8c314d30deb7",
    "label": "23 RUE DE L'OLIVIER, Bessan",
    "lat": 43.361147,
    "lng": 3.426511,
    "transactions": [
      {
        "date": "2022-11-16",
        "priceEur": 68000,
        "typeLocal": "Maison",
        "surfaceM2": 60,
        "isVefa": false
      }
    ]
  },
  "d625e26bd2ea": {
    "id": "d625e26bd2ea",
    "label": "27 RUE PUITS AURIOL, Bessan",
    "lat": 43.362525,
    "lng": 3.426337,
    "transactions": [
      {
        "date": "2022-11-17",
        "priceEur": 81000,
        "typeLocal": "Maison",
        "surfaceM2": 32,
        "isVefa": false
      }
    ]
  },
  "39aa08d59022": {
    "id": "39aa08d59022",
    "label": "12 RUE DU PORCHE ST PIERRE, Bessan",
    "lat": 43.359461,
    "lng": 3.426815,
    "transactions": [
      {
        "date": "2022-11-25",
        "priceEur": 120000,
        "typeLocal": "Maison",
        "surfaceM2": 78,
        "isVefa": false
      }
    ]
  },
  "568225d7f3fb": {
    "id": "568225d7f3fb",
    "label": "7 RUE DU PORCHE ST PIERRE, Bessan",
    "lat": 43.35935,
    "lng": 3.427305,
    "transactions": [
      {
        "date": "2022-11-23",
        "priceEur": 430000,
        "typeLocal": "Maison",
        "surfaceM2": 145,
        "isVefa": false
      }
    ]
  },
  "755c0714f717": {
    "id": "755c0714f717",
    "label": "15 RUE DES MIMOSAS, Bessan",
    "lat": 43.364423,
    "lng": 3.422564,
    "transactions": [
      {
        "date": "2022-12-06",
        "priceEur": 147600,
        "typeLocal": "Maison",
        "surfaceM2": 174,
        "isVefa": false
      }
    ]
  },
  "12357da2eda2": {
    "id": "12357da2eda2",
    "label": "6 AV DE LA VICTOIRE, Bessan",
    "lat": 43.360868,
    "lng": 3.424576,
    "transactions": [
      {
        "date": "2022-12-13",
        "priceEur": 198000,
        "typeLocal": "Maison",
        "surfaceM2": 91,
        "isVefa": false
      }
    ]
  },
  "14591e5b9f6d": {
    "id": "14591e5b9f6d",
    "label": "6 RUE REPUBLIQUE, Bessan",
    "lat": 43.361066,
    "lng": 3.427543,
    "transactions": [
      {
        "date": "2022-12-02",
        "priceEur": 188100,
        "typeLocal": "Maison",
        "surfaceM2": 119,
        "isVefa": false
      }
    ]
  },
  "5fa9f1128780": {
    "id": "5fa9f1128780",
    "label": "5 RUE MAGENTA, Bessan",
    "lat": 43.362712,
    "lng": 3.424797,
    "transactions": [
      {
        "date": "2022-12-08",
        "priceEur": 323260,
        "typeLocal": "Maison",
        "surfaceM2": 108,
        "isVefa": false
      }
    ]
  },
  "d5c88e4d610c": {
    "id": "d5c88e4d610c",
    "label": "12 RUE DU PORCHE DE L'HOSPICE, Bessan",
    "lat": 43.360938,
    "lng": 3.425661,
    "transactions": [
      {
        "date": "2022-12-16",
        "priceEur": 185000,
        "typeLocal": "Appartement",
        "surfaceM2": 46,
        "isVefa": false
      },
      {
        "date": "2022-12-16",
        "priceEur": 185000,
        "typeLocal": "Appartement",
        "surfaceM2": 46,
        "isVefa": false
      },
      {
        "date": "2022-12-16",
        "priceEur": 185000,
        "typeLocal": "Appartement",
        "surfaceM2": 30,
        "isVefa": false
      }
    ]
  },
  "36af35c34700": {
    "id": "36af35c34700",
    "label": "1 RUE PUITS AURIOL, Bessan",
    "lat": 43.361532,
    "lng": 3.426139,
    "transactions": [
      {
        "date": "2022-12-22",
        "priceEur": 90000,
        "typeLocal": "Maison",
        "surfaceM2": 60,
        "isVefa": false
      }
    ]
  },
  "5665c81816df": {
    "id": "5665c81816df",
    "label": "23B GRAND RUE, Bessan",
    "lat": 43.361314,
    "lng": 3.426646,
    "transactions": [
      {
        "date": "2022-12-20",
        "priceEur": 18250,
        "typeLocal": "Appartement",
        "surfaceM2": 16,
        "isVefa": false
      }
    ]
  },
  "36b93908f36e": {
    "id": "36b93908f36e",
    "label": "26 BD DE LA FRATERNITE, Bessan",
    "lat": 43.362249,
    "lng": 3.425272,
    "transactions": [
      {
        "date": "2022-12-29",
        "priceEur": 125200,
        "typeLocal": "Maison",
        "surfaceM2": 75,
        "isVefa": false
      }
    ]
  },
  "edf011d12f84": {
    "id": "edf011d12f84",
    "label": "31 RUE DE LA MURAILLE, Bessan",
    "lat": 43.359818,
    "lng": 3.426729,
    "transactions": [
      {
        "date": "2023-01-19",
        "priceEur": 101620,
        "typeLocal": "Maison",
        "surfaceM2": 43,
        "isVefa": false
      }
    ]
  },
  "7a7452a9c47b": {
    "id": "7a7452a9c47b",
    "label": "3 RUE DU CAZAL, Bessan",
    "lat": 43.360584,
    "lng": 3.427041,
    "transactions": [
      {
        "date": "2023-01-03",
        "priceEur": 84000,
        "typeLocal": "Maison",
        "surfaceM2": 41,
        "isVefa": false
      }
    ]
  },
  "ce7a198e0d96": {
    "id": "ce7a198e0d96",
    "label": "32 RUE DES SOLEILLERS, Bessan",
    "lat": 43.359653,
    "lng": 3.427216,
    "transactions": [
      {
        "date": "2023-01-10",
        "priceEur": 123500,
        "typeLocal": "Maison",
        "surfaceM2": 50,
        "isVefa": false
      }
    ]
  },
  "f9a373bac85b": {
    "id": "f9a373bac85b",
    "label": "1 RUE BARNABO, Bessan",
    "lat": 43.36047,
    "lng": 3.426736,
    "transactions": [
      {
        "date": "2023-01-12",
        "priceEur": 103000,
        "typeLocal": "Maison",
        "surfaceM2": 78,
        "isVefa": false
      }
    ]
  },
  "875de053c736": {
    "id": "875de053c736",
    "label": "31 RUE DE L'OCCITANIE, Bessan",
    "lat": 43.363099,
    "lng": 3.418729,
    "transactions": [
      {
        "date": "2023-01-30",
        "priceEur": 240000,
        "typeLocal": "Maison",
        "surfaceM2": 88,
        "isVefa": false
      }
    ]
  },
  "efc4e47acc97": {
    "id": "efc4e47acc97",
    "label": "5989 RUE DU CASTEL, Bessan",
    "lat": 43.358717,
    "lng": 3.423911,
    "transactions": [
      {
        "date": "2023-02-03",
        "priceEur": 223000,
        "typeLocal": "Maison",
        "surfaceM2": 30,
        "isVefa": false
      }
    ]
  },
  "aabb01ef2c2d": {
    "id": "aabb01ef2c2d",
    "label": "15 GRAND RUE, Bessan",
    "lat": 43.361411,
    "lng": 3.427008,
    "transactions": [
      {
        "date": "2023-02-09",
        "priceEur": 96000,
        "typeLocal": "Maison",
        "surfaceM2": 54,
        "isVefa": false
      }
    ]
  },
  "946e9917a233": {
    "id": "946e9917a233",
    "label": "4 RUE ANCIENNES ECOLES, Bessan",
    "lat": 43.360533,
    "lng": 3.424349,
    "transactions": [
      {
        "date": "2023-01-31",
        "priceEur": 177000,
        "typeLocal": "Maison",
        "surfaceM2": 100,
        "isVefa": false
      }
    ]
  },
  "3c5c6b8e88bf": {
    "id": "3c5c6b8e88bf",
    "label": "8 RUE DE LA GLACIERE, Bessan",
    "lat": 43.362624,
    "lng": 3.42602,
    "transactions": [
      {
        "date": "2023-02-01",
        "priceEur": 177650,
        "typeLocal": "Maison",
        "surfaceM2": 77,
        "isVefa": false
      }
    ]
  },
  "06e4606ad6ad": {
    "id": "06e4606ad6ad",
    "label": "14 RUE VICTOR HUGO, Bessan",
    "lat": 43.359875,
    "lng": 3.423525,
    "transactions": [
      {
        "date": "2023-01-31",
        "priceEur": 117000,
        "typeLocal": "Appartement",
        "surfaceM2": 62,
        "isVefa": false
      }
    ]
  },
  "522c77dd9404": {
    "id": "522c77dd9404",
    "label": "3 GRAND RUE, Bessan",
    "lat": 43.361437,
    "lng": 3.42748,
    "transactions": [
      {
        "date": "2023-02-20",
        "priceEur": 138000,
        "typeLocal": "Maison",
        "surfaceM2": 160,
        "isVefa": false
      }
    ]
  },
  "40514650b6b2": {
    "id": "40514650b6b2",
    "label": "23 GRAND RUE, Bessan",
    "lat": 43.361314,
    "lng": 3.426646,
    "transactions": [
      {
        "date": "2023-02-23",
        "priceEur": 301650,
        "typeLocal": "Appartement",
        "surfaceM2": 49,
        "isVefa": false
      },
      {
        "date": "2023-02-23",
        "priceEur": 301650,
        "typeLocal": "Appartement",
        "surfaceM2": 27,
        "isVefa": false
      },
      {
        "date": "2023-02-23",
        "priceEur": 301650,
        "typeLocal": "Appartement",
        "surfaceM2": 27,
        "isVefa": false
      }
    ]
  },
  "a2917f44b5fb": {
    "id": "a2917f44b5fb",
    "label": "22 RUE DE L'OLIVIER, Bessan",
    "lat": 43.361314,
    "lng": 3.426646,
    "transactions": [
      {
        "date": "2023-02-23",
        "priceEur": 301650,
        "typeLocal": "Appartement",
        "surfaceM2": 171,
        "isVefa": false
      }
    ]
  },
  "3bdae1b1ab29": {
    "id": "3bdae1b1ab29",
    "label": "15 RUE DES JASSES, Bessan",
    "lat": 43.362814,
    "lng": 3.426509,
    "transactions": [
      {
        "date": "2023-03-02",
        "priceEur": 160000,
        "typeLocal": "Appartement",
        "surfaceM2": 90,
        "isVefa": false
      },
      {
        "date": "2023-03-02",
        "priceEur": 160000,
        "typeLocal": "Appartement",
        "surfaceM2": 89,
        "isVefa": false
      }
    ]
  },
  "4d500b47ae57": {
    "id": "4d500b47ae57",
    "label": "35 AV DE LA VICTOIRE, Bessan",
    "lat": 43.359807,
    "lng": 3.425152,
    "transactions": [
      {
        "date": "2023-02-21",
        "priceEur": 120000,
        "typeLocal": "Maison",
        "surfaceM2": 49,
        "isVefa": false
      }
    ]
  },
  "c59049ed33d8": {
    "id": "c59049ed33d8",
    "label": "21 GRAND RUE, Bessan",
    "lat": 43.361381,
    "lng": 3.426775,
    "transactions": [
      {
        "date": "2023-03-09",
        "priceEur": 97000,
        "typeLocal": "Maison",
        "surfaceM2": 55,
        "isVefa": false
      }
    ]
  },
  "8f6f4923914f": {
    "id": "8f6f4923914f",
    "label": "15 RUE DE L'OCCITANIE, Bessan",
    "lat": 43.36307,
    "lng": 3.419567,
    "transactions": [
      {
        "date": "2023-03-22",
        "priceEur": 171000,
        "typeLocal": "Maison",
        "surfaceM2": 70,
        "isVefa": false
      }
    ]
  },
  "dbd477dbb989": {
    "id": "dbd477dbb989",
    "label": "5 IMP DU PIN, Bessan",
    "lat": 43.35991,
    "lng": 3.426576,
    "transactions": [
      {
        "date": "2023-04-05",
        "priceEur": 215000,
        "typeLocal": "Maison",
        "surfaceM2": 91,
        "isVefa": false
      }
    ]
  },
  "94e546bcc606": {
    "id": "94e546bcc606",
    "label": "12 RUE DE L'OLIVIER, Bessan",
    "lat": 43.361272,
    "lng": 3.427168,
    "transactions": [
      {
        "date": "2023-04-26",
        "priceEur": 20000,
        "typeLocal": "Maison",
        "surfaceM2": 56,
        "isVefa": false
      }
    ]
  },
  "cfa21c7e35bf": {
    "id": "cfa21c7e35bf",
    "label": "16 GRAND RUE, Bessan",
    "lat": 43.361515,
    "lng": 3.426771,
    "transactions": [
      {
        "date": "2023-04-17",
        "priceEur": 61750,
        "typeLocal": "Maison",
        "surfaceM2": 25,
        "isVefa": false
      }
    ]
  },
  "dcfbdff8ea9e": {
    "id": "dcfbdff8ea9e",
    "label": "12 AV CONDORCET, Bessan",
    "lat": 43.360201,
    "lng": 3.421103,
    "transactions": [
      {
        "date": "2023-05-09",
        "priceEur": 250000,
        "typeLocal": "Maison",
        "surfaceM2": 85,
        "isVefa": false
      }
    ]
  },
  "fd84664d4211": {
    "id": "fd84664d4211",
    "label": "36 RUE DE L'HOSPICE, Bessan",
    "lat": 43.360053,
    "lng": 3.426671,
    "transactions": [
      {
        "date": "2023-05-15",
        "priceEur": 216100,
        "typeLocal": "Maison",
        "surfaceM2": 115,
        "isVefa": false
      }
    ]
  },
  "9ff1f5e733da": {
    "id": "9ff1f5e733da",
    "label": "26 GRAND RUE, Bessan",
    "lat": 43.361478,
    "lng": 3.426346,
    "transactions": [
      {
        "date": "2023-05-25",
        "priceEur": 100800,
        "typeLocal": "Maison",
        "surfaceM2": 68,
        "isVefa": false
      }
    ]
  },
  "d8257ae745f6": {
    "id": "d8257ae745f6",
    "label": "4 RUE DE L'HOSPICE, Bessan",
    "lat": 43.360766,
    "lng": 3.426232,
    "transactions": [
      {
        "date": "2023-06-06",
        "priceEur": 176350,
        "typeLocal": "Maison",
        "surfaceM2": 117,
        "isVefa": false
      }
    ]
  },
  "4b085f359707": {
    "id": "4b085f359707",
    "label": "25 RUE PUITS AURIOL, Bessan",
    "lat": 43.362382,
    "lng": 3.426224,
    "transactions": [
      {
        "date": "2023-06-05",
        "priceEur": 65000,
        "typeLocal": "Maison",
        "surfaceM2": 45,
        "isVefa": false
      }
    ]
  },
  "997381319152": {
    "id": "997381319152",
    "label": "4 RUE DES MEGERIES HAUTES, Bessan",
    "lat": 43.359443,
    "lng": 3.426368,
    "transactions": [
      {
        "date": "2023-06-26",
        "priceEur": 179350,
        "typeLocal": "Maison",
        "surfaceM2": 100,
        "isVefa": false
      }
    ]
  },
  "04a12e77e144": {
    "id": "04a12e77e144",
    "label": "4 RUE DE L'OPERA, Bessan",
    "lat": 43.361063,
    "lng": 3.426717,
    "transactions": [
      {
        "date": "2025-01-28",
        "priceEur": 85500,
        "typeLocal": "Appartement",
        "surfaceM2": 88,
        "isVefa": false
      },
      {
        "date": "2023-11-22",
        "priceEur": 182000,
        "typeLocal": "Appartement",
        "surfaceM2": 125,
        "isVefa": false
      },
      {
        "date": "2023-06-19",
        "priceEur": 103550,
        "typeLocal": "Appartement",
        "surfaceM2": 83,
        "isVefa": false
      }
    ]
  },
  "f2accfbbeccc": {
    "id": "f2accfbbeccc",
    "label": "1 BD LA FAYETTE, Bessan",
    "lat": 43.358953,
    "lng": 3.426347,
    "transactions": [
      {
        "date": "2023-06-30",
        "priceEur": 411500,
        "typeLocal": "Maison",
        "surfaceM2": 178,
        "isVefa": false
      }
    ]
  },
  "ca0353413f01": {
    "id": "ca0353413f01",
    "label": "5 RUE DU CAZAL, Bessan",
    "lat": 43.3606,
    "lng": 3.426981,
    "transactions": [
      {
        "date": "2023-06-27",
        "priceEur": 85000,
        "typeLocal": "Maison",
        "surfaceM2": 46,
        "isVefa": false
      }
    ]
  },
  "678e629ae356": {
    "id": "678e629ae356",
    "label": "8B RUE DU COMMERCE, Bessan",
    "lat": 43.361544,
    "lng": 3.423918,
    "transactions": [
      {
        "date": "2023-06-30",
        "priceEur": 350000,
        "typeLocal": "Appartement",
        "surfaceM2": 56,
        "isVefa": false
      },
      {
        "date": "2023-06-30",
        "priceEur": 350000,
        "typeLocal": "Appartement",
        "surfaceM2": 63,
        "isVefa": false
      },
      {
        "date": "2023-06-30",
        "priceEur": 350000,
        "typeLocal": "Appartement",
        "surfaceM2": 45,
        "isVefa": false
      }
    ]
  },
  "986863e72ab7": {
    "id": "986863e72ab7",
    "label": "7 RUE DE LA GLACIERE, Bessan",
    "lat": 43.362499,
    "lng": 3.425915,
    "transactions": [
      {
        "date": "2023-07-27",
        "priceEur": 132000,
        "typeLocal": "Maison",
        "surfaceM2": 70,
        "isVefa": false
      }
    ]
  },
  "db7a3a63d1b9": {
    "id": "db7a3a63d1b9",
    "label": "42 AV DU 8 MAI 1945, Bessan",
    "lat": 43.364367,
    "lng": 3.424111,
    "transactions": [
      {
        "date": "2023-08-07",
        "priceEur": 199720,
        "typeLocal": "Maison",
        "surfaceM2": 73,
        "isVefa": false
      }
    ]
  },
  "e9b926139e52": {
    "id": "e9b926139e52",
    "label": "2 BD DE LA FRATERNITE, Bessan",
    "lat": 43.361433,
    "lng": 3.425221,
    "transactions": [
      {
        "date": "2023-08-10",
        "priceEur": 135000,
        "typeLocal": "Maison",
        "surfaceM2": 62,
        "isVefa": false
      }
    ]
  },
  "c62063bad574": {
    "id": "c62063bad574",
    "label": "26 RUE DE L'OLIVIER, Bessan",
    "lat": 43.361234,
    "lng": 3.426596,
    "transactions": [
      {
        "date": "2023-08-24",
        "priceEur": 65000,
        "typeLocal": "Maison",
        "surfaceM2": 40,
        "isVefa": false
      }
    ]
  },
  "11131af3c2a0": {
    "id": "11131af3c2a0",
    "label": "18 GRAND RUE, Bessan",
    "lat": 43.361525,
    "lng": 3.426639,
    "transactions": [
      {
        "date": "2024-09-10",
        "priceEur": 51000,
        "typeLocal": "Appartement",
        "surfaceM2": 35,
        "isVefa": false
      },
      {
        "date": "2023-08-10",
        "priceEur": 92600,
        "typeLocal": "Appartement",
        "surfaceM2": 40,
        "isVefa": false
      }
    ]
  },
  "c36e4aedb8a2": {
    "id": "c36e4aedb8a2",
    "label": "15 RUE DE L'HOSPICE, Bessan",
    "lat": 43.360719,
    "lng": 3.426466,
    "transactions": [
      {
        "date": "2023-08-18",
        "priceEur": 83600,
        "typeLocal": "Maison",
        "surfaceM2": 47,
        "isVefa": false
      }
    ]
  },
  "ad347ad86c99": {
    "id": "ad347ad86c99",
    "label": "25 BD DE LA FRATERNITE, Bessan",
    "lat": 43.362249,
    "lng": 3.424995,
    "transactions": [
      {
        "date": "2023-08-17",
        "priceEur": 137750,
        "typeLocal": "Maison",
        "surfaceM2": 62,
        "isVefa": false
      }
    ]
  },
  "d6286898cb04": {
    "id": "d6286898cb04",
    "label": "4 IMP DU BOULANGER, Bessan",
    "lat": 43.360288,
    "lng": 3.427659,
    "transactions": [
      {
        "date": "2023-09-08",
        "priceEur": 41000,
        "typeLocal": "Maison",
        "surfaceM2": 55,
        "isVefa": false
      }
    ]
  },
  "c14e07ab2021": {
    "id": "c14e07ab2021",
    "label": "6 GRAND RUE, Bessan",
    "lat": 43.361542,
    "lng": 3.427174,
    "transactions": [
      {
        "date": "2023-09-07",
        "priceEur": 95000,
        "typeLocal": "Maison",
        "surfaceM2": 45,
        "isVefa": false
      }
    ]
  },
  "47969c4afa23": {
    "id": "47969c4afa23",
    "label": "1 RUE DU CASTEL, Bessan",
    "lat": 43.358979,
    "lng": 3.424066,
    "transactions": [
      {
        "date": "2023-09-19",
        "priceEur": 349000,
        "typeLocal": "Maison",
        "surfaceM2": 83,
        "isVefa": false
      }
    ]
  },
  "b9901b2219af": {
    "id": "b9901b2219af",
    "label": "2 IMP DE LA CROIX DE REDON, Bessan",
    "lat": 43.357612,
    "lng": 3.424272,
    "transactions": [
      {
        "date": "2023-10-06",
        "priceEur": 260250,
        "typeLocal": "Maison",
        "surfaceM2": 147,
        "isVefa": false
      },
      {
        "date": "2023-10-06",
        "priceEur": 260250,
        "typeLocal": "Maison",
        "surfaceM2": 84,
        "isVefa": false
      }
    ]
  },
  "85ca089be1c2": {
    "id": "85ca089be1c2",
    "label": "30 RUE REPUBLIQUE, Bessan",
    "lat": 43.360259,
    "lng": 3.427082,
    "transactions": [
      {
        "date": "2023-10-11",
        "priceEur": 35000,
        "typeLocal": "Appartement",
        "surfaceM2": 24,
        "isVefa": false
      }
    ]
  },
  "989ea10c715f": {
    "id": "989ea10c715f",
    "label": "9 RUE DES MIMOSAS, Bessan",
    "lat": 43.364682,
    "lng": 3.42304,
    "transactions": [
      {
        "date": "2023-10-06",
        "priceEur": 255500,
        "typeLocal": "Maison",
        "surfaceM2": 115,
        "isVefa": false
      }
    ]
  },
  "a4d615448077": {
    "id": "a4d615448077",
    "label": "33 AV DU 8 MAI 1945, Bessan",
    "lat": 43.364316,
    "lng": 3.423654,
    "transactions": [
      {
        "date": "2023-10-05",
        "priceEur": 143100,
        "typeLocal": "Maison",
        "surfaceM2": 72,
        "isVefa": false
      }
    ]
  },
  "923d763c11fb": {
    "id": "923d763c11fb",
    "label": "23 RUE NEUVE D'HORTES, Bessan",
    "lat": 43.362522,
    "lng": 3.427605,
    "transactions": [
      {
        "date": "2023-11-13",
        "priceEur": 65000,
        "typeLocal": "Maison",
        "surfaceM2": 87,
        "isVefa": false
      }
    ]
  },
  "7cc5c87d300d": {
    "id": "7cc5c87d300d",
    "label": "7 IMP GILETTE MARCHAND, Bessan",
    "lat": 43.359855,
    "lng": 3.421528,
    "transactions": [
      {
        "date": "2023-11-20",
        "priceEur": 315000,
        "typeLocal": "Maison",
        "surfaceM2": 92,
        "isVefa": false
      }
    ]
  },
  "54f9b0d27cd1": {
    "id": "54f9b0d27cd1",
    "label": "24 AV DU 8 MAI 1945, Bessan",
    "lat": 43.362311,
    "lng": 3.424571,
    "transactions": [
      {
        "date": "2023-12-07",
        "priceEur": 154000,
        "typeLocal": "Maison",
        "surfaceM2": 93,
        "isVefa": false
      }
    ]
  },
  "0324d3fa6a84": {
    "id": "0324d3fa6a84",
    "label": "33B AV DU 8 MAI 1945, Bessan",
    "lat": 43.36435,
    "lng": 3.423481,
    "transactions": [
      {
        "date": "2023-12-21",
        "priceEur": 215000,
        "typeLocal": "Maison",
        "surfaceM2": 60,
        "isVefa": false
      }
    ]
  },
  "a143eddd34e7": {
    "id": "a143eddd34e7",
    "label": "10 RUE DU CASTEL, Bessan",
    "lat": 43.359216,
    "lng": 3.424509,
    "transactions": [
      {
        "date": "2024-01-25",
        "priceEur": 200000,
        "typeLocal": "Maison",
        "surfaceM2": 70,
        "isVefa": false
      }
    ]
  },
  "69ba0a5aae60": {
    "id": "69ba0a5aae60",
    "label": "4 RUE DES JASSES, Bessan",
    "lat": 43.362371,
    "lng": 3.426794,
    "transactions": [
      {
        "date": "2024-02-23",
        "priceEur": 158440,
        "typeLocal": "Appartement",
        "surfaceM2": 65,
        "isVefa": false
      }
    ]
  },
  "0257f03ed85a": {
    "id": "0257f03ed85a",
    "label": "12 CHE DE LA MONADIERE, Bessan",
    "lat": 43.358327,
    "lng": 3.421667,
    "transactions": [
      {
        "date": "2024-03-06",
        "priceEur": 498730,
        "typeLocal": "Maison",
        "surfaceM2": 169,
        "isVefa": false
      }
    ]
  },
  "f52bb0c2f58e": {
    "id": "f52bb0c2f58e",
    "label": "9 RUE VICTOR HUGO, Bessan",
    "lat": 43.359442,
    "lng": 3.424134,
    "transactions": [
      {
        "date": "2024-05-13",
        "priceEur": 190000,
        "typeLocal": "Maison",
        "surfaceM2": 75,
        "isVefa": false
      }
    ]
  },
  "9a96c7943a76": {
    "id": "9a96c7943a76",
    "label": "8 RUE DE L'OPERA, Bessan",
    "lat": 43.360877,
    "lng": 3.426864,
    "transactions": [
      {
        "date": "2024-04-30",
        "priceEur": 134000,
        "typeLocal": "Maison",
        "surfaceM2": 117,
        "isVefa": false
      }
    ]
  },
  "7de33be06e2e": {
    "id": "7de33be06e2e",
    "label": "16 RUE VOLTAIRE, Bessan",
    "lat": 43.3595,
    "lng": 3.423306,
    "transactions": [
      {
        "date": "2024-05-21",
        "priceEur": 44303,
        "typeLocal": "Maison",
        "surfaceM2": 26,
        "isVefa": false
      }
    ]
  },
  "7377b7cd7241": {
    "id": "7377b7cd7241",
    "label": "9 CHE D'HORTES, Bessan",
    "lat": 43.363335,
    "lng": 3.427693,
    "transactions": [
      {
        "date": "2024-05-29",
        "priceEur": 120000,
        "typeLocal": "Maison",
        "surfaceM2": 67,
        "isVefa": false
      }
    ]
  },
  "c479ee842bcf": {
    "id": "c479ee842bcf",
    "label": "20 BD LA FAYETTE, Bessan",
    "lat": 43.359725,
    "lng": 3.425499,
    "transactions": [
      {
        "date": "2024-06-12",
        "priceEur": 293400,
        "typeLocal": "Maison",
        "surfaceM2": 95,
        "isVefa": false
      }
    ]
  },
  "cabf2244ee6c": {
    "id": "cabf2244ee6c",
    "label": "17 RUE DES MIMOSAS, Bessan",
    "lat": 43.364163,
    "lng": 3.422726,
    "transactions": [
      {
        "date": "2024-06-21",
        "priceEur": 350000,
        "typeLocal": "Maison",
        "surfaceM2": 108,
        "isVefa": false
      }
    ]
  },
  "9ff56fd9022e": {
    "id": "9ff56fd9022e",
    "label": "27 RUE DE L'OCCITANIE, Bessan",
    "lat": 43.363234,
    "lng": 3.418906,
    "transactions": [
      {
        "date": "2024-06-26",
        "priceEur": 202000,
        "typeLocal": "Maison",
        "surfaceM2": 70,
        "isVefa": false
      }
    ]
  },
  "b40d88f9ea46": {
    "id": "b40d88f9ea46",
    "label": "74B BD DE LA FRATERNITE PROLONGE, Bessan",
    "lat": 43.364835,
    "lng": 3.425155,
    "transactions": [
      {
        "date": "2024-07-02",
        "priceEur": 190000,
        "typeLocal": "Maison",
        "surfaceM2": 70,
        "isVefa": false
      }
    ]
  },
  "9315a65d9a4f": {
    "id": "9315a65d9a4f",
    "label": "3 CHE DE LA RENGA, Bessan",
    "lat": 43.364999,
    "lng": 3.420318,
    "transactions": [
      {
        "date": "2024-07-11",
        "priceEur": 280000,
        "typeLocal": "Maison",
        "surfaceM2": 100,
        "isVefa": false
      }
    ]
  },
  "db8fdae56c7c": {
    "id": "db8fdae56c7c",
    "label": "11 RUE DU CAZAL, Bessan",
    "lat": 43.360566,
    "lng": 3.426752,
    "transactions": [
      {
        "date": "2024-07-24",
        "priceEur": 202170,
        "typeLocal": "Maison",
        "surfaceM2": 84,
        "isVefa": false
      }
    ]
  },
  "97721e293666": {
    "id": "97721e293666",
    "label": "6152 RUE VOLTAIRE, Bessan",
    "lat": 43.359775,
    "lng": 3.423449,
    "transactions": [
      {
        "date": "2024-08-22",
        "priceEur": 176350,
        "typeLocal": "Maison",
        "surfaceM2": 81,
        "isVefa": false
      }
    ]
  },
  "2d4f7ff4c100": {
    "id": "2d4f7ff4c100",
    "label": "7195F RUE DU CASTEL, Bessan",
    "lat": 43.35907,
    "lng": 3.42265,
    "transactions": [
      {
        "date": "2024-08-27",
        "priceEur": 185000,
        "typeLocal": "Maison",
        "surfaceM2": 100,
        "isVefa": false
      }
    ]
  },
  "9ae89d560735": {
    "id": "9ae89d560735",
    "label": "5 RUE DE LA MURAILLE, Bessan",
    "lat": 43.360748,
    "lng": 3.426125,
    "transactions": [
      {
        "date": "2024-08-26",
        "priceEur": 62238,
        "typeLocal": "Maison",
        "surfaceM2": 37,
        "isVefa": false
      }
    ]
  },
  "fa1cf7072caf": {
    "id": "fa1cf7072caf",
    "label": "14 AV CONDORCET, Bessan",
    "lat": 43.360523,
    "lng": 3.42103,
    "transactions": [
      {
        "date": "2024-09-30",
        "priceEur": 455580,
        "typeLocal": "Maison",
        "surfaceM2": 150,
        "isVefa": false
      }
    ]
  },
  "714df4425ab7": {
    "id": "714df4425ab7",
    "label": "27 RUE DE L'HOSPICE, Bessan",
    "lat": 43.36029,
    "lng": 3.426675,
    "transactions": [
      {
        "date": "2024-10-17",
        "priceEur": 114000,
        "typeLocal": "Maison",
        "surfaceM2": 36,
        "isVefa": false
      }
    ]
  },
  "67ad7ea69c16": {
    "id": "67ad7ea69c16",
    "label": "26 AV CONDORCET, Bessan",
    "lat": 43.361245,
    "lng": 3.421044,
    "transactions": [
      {
        "date": "2024-11-18",
        "priceEur": 193000,
        "typeLocal": "Maison",
        "surfaceM2": 86,
        "isVefa": false
      }
    ]
  },
  "883709acf29c": {
    "id": "883709acf29c",
    "label": "5 RUE DE L'HOSPICE, Bessan",
    "lat": 43.36106,
    "lng": 3.426416,
    "transactions": [
      {
        "date": "2024-12-02",
        "priceEur": 95000,
        "typeLocal": "Maison",
        "surfaceM2": 67,
        "isVefa": false
      }
    ]
  },
  "51c4e4c9f1dd": {
    "id": "51c4e4c9f1dd",
    "label": "32 BD LA FAYETTE, Bessan",
    "lat": 43.360342,
    "lng": 3.425422,
    "transactions": [
      {
        "date": "2024-12-18",
        "priceEur": 100000,
        "typeLocal": "Appartement",
        "surfaceM2": 49,
        "isVefa": false
      }
    ]
  },
  "df5b1337055c": {
    "id": "df5b1337055c",
    "label": "6 RUE DU PORCHE ST PIERRE, Bessan",
    "lat": 43.359838,
    "lng": 3.426808,
    "transactions": [
      {
        "date": "2024-12-20",
        "priceEur": 70300,
        "typeLocal": "Maison",
        "surfaceM2": 40,
        "isVefa": false
      }
    ]
  },
  "263b9a711a6a": {
    "id": "263b9a711a6a",
    "label": "4 PL DU 19 MARS 1962, Bessan",
    "lat": 43.360328,
    "lng": 3.418403,
    "transactions": [
      {
        "date": "2024-12-20",
        "priceEur": 239000,
        "typeLocal": "Maison",
        "surfaceM2": 74,
        "isVefa": false
      }
    ]
  },
  "e125d393a6b0": {
    "id": "e125d393a6b0",
    "label": "2T AV DE L'EGALITE, Bessan",
    "lat": 43.359022,
    "lng": 3.425784,
    "transactions": [
      {
        "date": "2024-12-20",
        "priceEur": 305000,
        "typeLocal": "Maison",
        "surfaceM2": 112,
        "isVefa": false
      }
    ]
  },
  "37e5225b5d63": {
    "id": "37e5225b5d63",
    "label": "9 RUE DU CAZAL, Bessan",
    "lat": 43.360521,
    "lng": 3.426863,
    "transactions": [
      {
        "date": "2024-12-20",
        "priceEur": 102000,
        "typeLocal": "Maison",
        "surfaceM2": 66,
        "isVefa": false
      }
    ]
  },
  "d84e054689ad": {
    "id": "d84e054689ad",
    "label": "11 RUE FENDEILLE, Bessan",
    "lat": 43.361743,
    "lng": 3.427033,
    "transactions": [
      {
        "date": "2024-12-31",
        "priceEur": 105500,
        "typeLocal": "Maison",
        "surfaceM2": 76,
        "isVefa": false
      }
    ]
  },
  "31df7090aa74": {
    "id": "31df7090aa74",
    "label": "5 RUE DU 18 JUIN 1940, Bessan",
    "lat": 43.364923,
    "lng": 3.417477,
    "transactions": [
      {
        "date": "2025-01-15",
        "priceEur": 513600,
        "typeLocal": "Maison",
        "surfaceM2": 136,
        "isVefa": false
      }
    ]
  },
  "72db8adabaa6": {
    "id": "72db8adabaa6",
    "label": "2B CHE DE LA RENGA, Bessan",
    "lat": 43.364556,
    "lng": 3.420973,
    "transactions": [
      {
        "date": "2025-02-12",
        "priceEur": 310000,
        "typeLocal": "Maison",
        "surfaceM2": 155,
        "isVefa": false
      }
    ]
  },
  "1df5d5b51f10": {
    "id": "1df5d5b51f10",
    "label": "62 BD DE LA FRATERNITE PROLONGE, Bessan",
    "lat": 43.364147,
    "lng": 3.425232,
    "transactions": [
      {
        "date": "2025-02-26",
        "priceEur": 324000,
        "typeLocal": "Maison",
        "surfaceM2": 85,
        "isVefa": false
      }
    ]
  },
  "c5af09f9a959": {
    "id": "c5af09f9a959",
    "label": "24 RUE REPUBLIQUE, Bessan",
    "lat": 43.360446,
    "lng": 3.42699,
    "transactions": [
      {
        "date": "2025-02-12",
        "priceEur": 53000,
        "typeLocal": "Maison",
        "surfaceM2": 53,
        "isVefa": false
      },
      {
        "date": "2025-02-12",
        "priceEur": 146000,
        "typeLocal": "Appartement",
        "surfaceM2": 73,
        "isVefa": false
      },
      {
        "date": "2025-02-12",
        "priceEur": 146000,
        "typeLocal": "Maison",
        "surfaceM2": 52,
        "isVefa": false
      }
    ]
  },
  "055985ba22ce": {
    "id": "055985ba22ce",
    "label": "1A CHE DES TUILERIES, Bessan",
    "lat": 43.363811,
    "lng": 3.426619,
    "transactions": [
      {
        "date": "2025-02-19",
        "priceEur": 202000,
        "typeLocal": "Appartement",
        "surfaceM2": 120,
        "isVefa": false
      },
      {
        "date": "2025-02-19",
        "priceEur": 202000,
        "typeLocal": "Appartement",
        "surfaceM2": 120,
        "isVefa": false
      }
    ]
  },
  "9f1e1c9273cd": {
    "id": "9f1e1c9273cd",
    "label": "10 BD LA FAYETTE, Bessan",
    "lat": 43.359252,
    "lng": 3.426537,
    "transactions": [
      {
        "date": "2025-03-25",
        "priceEur": 100000,
        "typeLocal": "Maison",
        "surfaceM2": 97,
        "isVefa": false
      }
    ]
  },
  "56551050972e": {
    "id": "56551050972e",
    "label": "2 RUE JEAN JACQUES ROUSSEAU, Bessan",
    "lat": 43.360752,
    "lng": 3.423188,
    "transactions": [
      {
        "date": "2025-03-18",
        "priceEur": 150000,
        "typeLocal": "Appartement",
        "surfaceM2": 70,
        "isVefa": false
      }
    ]
  },
  "a3b2c6110658": {
    "id": "a3b2c6110658",
    "label": "37 RUE DE L'OCCITANIE, Bessan",
    "lat": 43.362901,
    "lng": 3.418447,
    "transactions": [
      {
        "date": "2025-03-27",
        "priceEur": 257628,
        "typeLocal": "Maison",
        "surfaceM2": 158,
        "isVefa": false
      }
    ]
  },
  "07b6b15caf08": {
    "id": "07b6b15caf08",
    "label": "5 RUE VICTOR HUGO, Bessan",
    "lat": 43.360306,
    "lng": 3.423824,
    "transactions": [
      {
        "date": "2025-04-30",
        "priceEur": 239700,
        "typeLocal": "Maison",
        "surfaceM2": 150,
        "isVefa": false
      }
    ]
  },
  "e34ede99c349": {
    "id": "e34ede99c349",
    "label": "55 BD DE LA FRATERNITE PROLONGE, Bessan",
    "lat": 43.364626,
    "lng": 3.424778,
    "transactions": [
      {
        "date": "2025-05-20",
        "priceEur": 215000,
        "typeLocal": "Maison",
        "surfaceM2": 106,
        "isVefa": false
      }
    ]
  }
}