{
  "3a75887aed7e": {
    "id": "3a75887aed7e",
    "label": "5 RUE DE LA CARRIERE CIVALE, Bessan",
    "lat": 43.370182,
    "lng": 3.422788,
    "transactions": [
      {
        "date": "2020-09-25",
        "priceEur": 210000,
        "typeLocal": "Maison",
        "surfaceM2": 107,
        "isVefa": false
      }
    ]
  },
  "ddc617837a40": {
    "id": "ddc617837a40",
    "label": "5 IMP DU THYM, Bessan",
    "lat": 43.367319,
    "lng": 3.419604,
    "transactions": [
      {
        "date": "2020-11-24",
        "priceEur": 405050,
        "typeLocal": "Maison",
        "surfaceM2": 136,
        "isVefa": false
      },
      {
        "date": "2020-11-24",
        "priceEur": 405050,
        "typeLocal": "Maison",
        "surfaceM2": 136,
        "isVefa": false
      }
    ]
  },
  "7871a5693bde": {
    "id": "7871a5693bde",
    "label": "38 RUE HENRI DUNANT, Bessan",
    "lat": 43.366797,
    "lng": 3.421431,
    "transactions": [
      {
        "date": "2020-12-15",
        "priceEur": 160000,
        "typeLocal": "Maison",
        "surfaceM2": 76,
        "isVefa": false
      }
    ]
  },
  "515ac5fa444f": {
    "id": "515ac5fa444f",
    "label": "70 AV DU 8 MAI 1945, Bessan",
    "lat": 43.36596,
    "lng": 3.423788,
    "transactions": [
      {
        "date": "2020-12-18",
        "priceEur": 276000,
        "typeLocal": "Maison",
        "surfaceM2": 80,
        "isVefa": false
      },
      {
        "date": "2020-12-18",
        "priceEur": 276000,
        "typeLocal": "Maison",
        "surfaceM2": 21,
        "isVefa": false
      }
    ]
  },
  "91ec6354b17c": {
    "id": "91ec6354b17c",
    "label": "10 LOT LES OLIVIERS, Bessan",
    "lat": 43.3661,
    "lng": 3.42242,
    "transactions": [
      {
        "date": "2021-05-21",
        "priceEur": 279650,
        "typeLocal": "Maison",
        "surfaceM2": 81,
        "isVefa": false
      }
    ]
  },
  "7b0df42b67ae": {
    "id": "7b0df42b67ae",
    "label": "8 RUE DE LA CARRIERE CIVALE, Bessan",
    "lat": 43.370261,
    "lng": 3.423235,
    "transactions": [
      {
        "date": "2023-10-16",
        "priceEur": 379350,
        "typeLocal": "Maison",
        "surfaceM2": 117,
        "isVefa": false
      },
      {
        "date": "2021-06-21",
        "priceEur": 338000,
        "typeLocal": "Maison",
        "surfaceM2": 117,
        "isVefa": false
      }
    ]
  },
  "cf7e2e11531d": {
    "id": "cf7e2e11531d",
    "label": "22 CHE DES ANES, Bessan",
    "lat": 43.365923,
    "lng": 3.417669,
    "transactions": [
      {
        "date": "2021-06-24",
        "priceEur": 225000,
        "typeLocal": "Maison",
        "surfaceM2": 123,
        "isVefa": false
      }
    ]
  },
  "b69bfd424db2": {
    "id": "b69bfd424db2",
    "label": "23 CHE DE LA RENGA, Bessan",
    "lat": 43.36743,
    "lng": 3.419975,
    "transactions": [
      {
        "date": "2021-08-16",
        "priceEur": 370000,
        "typeLocal": "Maison",
        "surfaceM2": 131,
        "isVefa": false
      },
      {
        "date": "2021-08-16",
        "priceEur": 370000,
        "typeLocal": "Maison",
        "surfaceM2": 131,
        "isVefa": false
      }
    ]
  },
  "eb4c05b59776": {
    "id": "eb4c05b59776",
    "label": "7169F LOT LES OLIVIERS, Bessan",
    "lat": 43.366868,
    "lng": 3.422885,
    "transactions": [
      {
        "date": "2021-09-30",
        "priceEur": 369000,
        "typeLocal": "Maison",
        "surfaceM2": 110,
        "isVefa": false
      }
    ]
  },
  "06e55eb20998": {
    "id": "06e55eb20998",
    "label": "28B RUE DES ALBIZIAS, Bessan",
    "lat": 43.367767,
    "lng": 3.417265,
    "transactions": [
      {
        "date": "2021-10-11",
        "priceEur": 319930,
        "typeLocal": "Maison",
        "surfaceM2": 112,
        "isVefa": false
      }
    ]
  },
  "cb2d441e9b20": {
    "id": "cb2d441e9b20",
    "label": "5198 CHE DES ANES, Bessan",
    "lat": 43.36567,
    "lng": 3.417381,
    "transactions": [
      {
        "date": "2021-10-13",
        "priceEur": 317000,
        "typeLocal": "Maison",
        "surfaceM2": 117,
        "isVefa": false
      }
    ]
  },
  "5eab06db2aae": {
    "id": "5eab06db2aae",
    "label": "28 RUE DES ALBIZIAS, Bessan",
    "lat": 43.367555,
    "lng": 3.417098,
    "transactions": [
      {
        "date": "2021-09-29",
        "priceEur": 346000,
        "typeLocal": "Appartement",
        "surfaceM2": 100,
        "isVefa": false
      },
      {
        "date": "2021-09-29",
        "priceEur": 346000,
        "typeLocal": "Appartement",
        "surfaceM2": 100,
        "isVefa": false
      },
      {
        "date": "2021-09-29",
        "priceEur": 346000,
        "typeLocal": "Appartement",
        "surfaceM2": 100,
        "isVefa": false
      },
      {
        "date": "2021-09-29",
        "priceEur": 346000,
        "typeLocal": "Appartement",
        "surfaceM2": 100,
        "isVefa": false
      }
    ]
  },
  "f287c5ea1cac": {
    "id": "f287c5ea1cac",
    "label": "34 CHE DES JARDINS DE TOBIE, Bessan",
    "lat": 43.368269,
    "lng": 3.418927,
    "transactions": [
      {
        "date": "2021-11-18",
        "priceEur": 305885,
        "typeLocal": "Maison",
        "surfaceM2": 129,
        "isVefa": false
      }
    ]
  },
  "fa1c7c7b2708": {
    "id": "fa1c7c7b2708",
    "label": "24 RUE DES ALBIZIAS, Bessan",
    "lat": 43.367817,
    "lng": 3.41756,
    "transactions": [
      {
        "date": "2024-07-24",
        "priceEur": 172000,
        "typeLocal": "Appartement",
        "surfaceM2": 66,
        "isVefa": false
      },
      {
        "date": "2023-11-10",
        "priceEur": 148950,
        "typeLocal": "Appartement",
        "surfaceM2": 66,
        "isVefa": false
      },
      {
        "date": "2021-12-01",
        "priceEur": 160000,
        "typeLocal": "Appartement",
        "surfaceM2": 66,
        "isVefa": false
      }
    ]
  },
  "4d38dc7d89fd": {
    "id": "4d38dc7d89fd",
    "label": "4B CHE DE LA RENGA, Bessan",
    "lat": 43.365151,
    "lng": 3.421262,
    "transactions": [
      {
        "date": "2021-12-30",
        "priceEur": 239400,
        "typeLocal": "Maison",
        "surfaceM2": 83,
        "isVefa": false
      }
    ]
  },
  "1ad59d988569": {
    "id": "1ad59d988569",
    "label": "65 BD DE LA FRATERNITE PROLONGE, Bessan",
    "lat": 43.365428,
    "lng": 3.424531,
    "transactions": [
      {
        "date": "2021-12-20",
        "priceEur": 303150,
        "typeLocal": "Maison",
        "surfaceM2": 100,
        "isVefa": false
      }
    ]
  },
  "b9345e09e52d": {
    "id": "b9345e09e52d",
    "label": "28 CHE DE LA RENGA, Bessan",
    "lat": 43.367076,
    "lng": 3.420487,
    "transactions": [
      {
        "date": "2022-01-06",
        "priceEur": 120000,
        "typeLocal": "Maison",
        "surfaceM2": 73,
        "isVefa": false
      }
    ]
  },
  "a71b0d5a17cd": {
    "id": "a71b0d5a17cd",
    "label": "36 RUE HENRI DUNANT, Bessan",
    "lat": 43.36655,
    "lng": 3.421277,
    "transactions": [
      {
        "date": "2022-01-27",
        "priceEur": 256000,
        "typeLocal": "Maison",
        "surfaceM2": 97,
        "isVefa": false
      }
    ]
  },
  "249701c9e871": {
    "id": "249701c9e871",
    "label": "30 RUE HENRI DUNANT, Bessan",
    "lat": 43.36641,
    "lng": 3.42175,
    "transactions": [
      {
        "date": "2022-05-24",
        "priceEur": 271800,
        "typeLocal": "Maison",
        "surfaceM2": 74,
        "isVefa": false
      }
    ]
  },
  "cb8746bd4b91": {
    "id": "cb8746bd4b91",
    "label": "75 BD DE LA FRATERNITE, Bessan",
    "lat": 43.366151,
    "lng": 3.42418,
    "transactions": [
      {
        "date": "2022-06-16",
        "priceEur": 203800,
        "typeLocal": "Maison",
        "surfaceM2": 104,
        "isVefa": false
      }
    ]
  },
  "f2be7f7f632f": {
    "id": "f2be7f7f632f",
    "label": "2 RUE DE LA CARRIERE CIVALE, Bessan",
    "lat": 43.369878,
    "lng": 3.423195,
    "transactions": [
      {
        "date": "2022-07-28",
        "priceEur": 264100,
        "typeLocal": "Maison",
        "surfaceM2": 95,
        "isVefa": false
      }
    ]
  },
  "581036522a38": {
    "id": "581036522a38",
    "label": "2B RUE DU 18 JUIN 1940, Bessan",
    "lat": 43.365247,
    "lng": 3.417169,
    "transactions": [
      {
        "date": "2022-11-18",
        "priceEur": 375000,
        "typeLocal": "Maison",
        "surfaceM2": 130,
        "isVefa": false
      }
    ]
  },
  "c79c274067aa": {
    "id": "c79c274067aa",
    "label": "8 RUE HENRI DUNANT, Bessan",
    "lat": 43.365465,
    "lng": 3.421082,
    "transactions": [
      {
        "date": "2022-10-31",
        "priceEur": 294500,
        "typeLocal": "Maison",
        "surfaceM2": 95,
        "isVefa": false
      }
    ]
  },
  "293f93f3ca15": {
    "id": "293f93f3ca15",
    "label": "16 CHE DES ANES, Bessan",
    "lat": 43.365564,
    "lng": 3.418411,
    "transactions": [
      {
        "date": "2023-01-18",
        "priceEur": 300000,
        "typeLocal": "Maison",
        "surfaceM2": 93,
        "isVefa": false
      }
    ]
  },
  "01cd737d27eb": {
    "id": "01cd737d27eb",
    "label": "5 CHE DE LA RENGA, Bessan",
    "lat": 43.365279,
    "lng": 3.419846,
    "transactions": [
      {
        "date": "2023-08-31",
        "priceEur": 296200,
        "typeLocal": "Maison",
        "surfaceM2": 85,
        "isVefa": false
      },
      {
        "date": "2023-04-21",
        "priceEur": 541000,
        "typeLocal": "Maison",
        "surfaceM2": 85,
        "isVefa": false
      }
    ]
  },
  "90e938fcbf8c": {
    "id": "90e938fcbf8c",
    "label": "7 RUE DES ALBIZIAS, Bessan",
    "lat": 43.366318,
    "lng": 3.419149,
    "transactions": [
      {
        "date": "2023-08-29",
        "priceEur": 147000,
        "typeLocal": "Maison",
        "surfaceM2": 101,
        "isVefa": false
      }
    ]
  },
  "510cbe78c87e": {
    "id": "510cbe78c87e",
    "label": "18 RUE HENRI DUNANT, Bessan",
    "lat": 43.365486,
    "lng": 3.422078,
    "transactions": [
      {
        "date": "2023-10-09",
        "priceEur": 310000,
        "typeLocal": "Maison",
        "surfaceM2": 95,
        "isVefa": false
      }
    ]
  },
  "39ebe9d86ec6": {
    "id": "39ebe9d86ec6",
    "label": "5141 LE CAUSSE, Bessan",
    "lat": 43.372766,
    "lng": 3.423874,
    "transactions": [
      {
        "date": "2023-11-08",
        "priceEur": 165420,
        "typeLocal": "Maison",
        "surfaceM2": 75,
        "isVefa": false
      }
    ]
  },
  "cdc78dd988ce": {
    "id": "cdc78dd988ce",
    "label": "9 RUE DES ALBIZIAS, Bessan",
    "lat": 43.366061,
    "lng": 3.419125,
    "transactions": [
      {
        "date": "2023-12-27",
        "priceEur": 286600,
        "typeLocal": "Maison",
        "surfaceM2": 129,
        "isVefa": false
      }
    ]
  },
  "248afcc02ef2": {
    "id": "248afcc02ef2",
    "label": "18 RUE DES ALBIZIAS, Bessan",
    "lat": 43.367483,
    "lng": 3.417967,
    "transactions": [
      {
        "date": "2025-01-15",
        "priceEur": 282200,
        "typeLocal": "Maison",
        "surfaceM2": 116,
        "isVefa": false
      }
    ]
  },
  "de0fc49ab751": {
    "id": "de0fc49ab751",
    "label": "20 RUE HENRI DUNANT, Bessan",
    "lat": 43.365719,
    "lng": 3.422123,
    "transactions": [
      {
        "date": "2025-03-13",
        "priceEur": 320000,
        "typeLocal": "Maison",
        "surfaceM2": 130,
        "isVefa": false
      }
    ]
  }
}