{
  "ea36c448c55f": {
    "id": "ea36c448c55f",
    "label": "50 RTE DU HAMEAU D'ENFER, Saint-Romain-de-Colbosc",
    "lat": 49.53261,
    "lng": 0.370474,
    "transactions": [
      {
        "date": "2021-10-22",
        "priceEur": 346800,
        "typeLocal": "Maison",
        "surfaceM2": 97,
        "isVefa": false
      }
    ]
  },
  "068faca70ba1": {
    "id": "068faca70ba1",
    "label": "1983 AV MAL DE LATTRE DE TASSIGNY, Saint-Romain-de-Colbosc",
    "lat": 49.536788,
    "lng": 0.367036,
    "transactions": [
      {
        "date": "2021-12-04",
        "priceEur": 250000,
        "typeLocal": "Maison",
        "surfaceM2": 280,
        "isVefa": false
      }
    ]
  },
  "cb5d1c105bb1": {
    "id": "cb5d1c105bb1",
    "label": "1975 AV MAL DE LATTRE DE TASSIGNY, Saint-Romain-de-Colbosc",
    "lat": 49.536665,
    "lng": 0.366924,
    "transactions": [
      {
        "date": "2021-12-04",
        "priceEur": 250000,
        "typeLocal": "Maison",
        "surfaceM2": 100,
        "isVefa": false
      },
      {
        "date": "2021-12-04",
        "priceEur": 250000,
        "typeLocal": "Appartement",
        "surfaceM2": 60,
        "isVefa": false
      }
    ]
  },
  "0795304a54b6": {
    "id": "0795304a54b6",
    "label": "456 RTE DE LA CHAPELLE, Saint-Romain-de-Colbosc",
    "lat": 49.53278,
    "lng": 0.367406,
    "transactions": [
      {
        "date": "2022-04-01",
        "priceEur": 265500,
        "typeLocal": "Maison",
        "surfaceM2": 110,
        "isVefa": false
      }
    ]
  },
  "a08cf646d15c": {
    "id": "a08cf646d15c",
    "label": "6288 LA CHAPELLE DE LA MALADRER, Saint-Romain-de-Colbosc",
    "lat": 49.532926,
    "lng": 0.367707,
    "transactions": [
      {
        "date": "2022-04-14",
        "priceEur": 187000,
        "typeLocal": "Maison",
        "surfaceM2": 64,
        "isVefa": false
      }
    ]
  },
  "05468dfdcc76": {
    "id": "05468dfdcc76",
    "label": "1790 AV MAL DE LATTRE DE TASSIGNY, Saint-Romain-de-Colbosc",
    "lat": 49.535527,
    "lng": 0.365568,
    "transactions": [
      {
        "date": "2022-05-30",
        "priceEur": 345000,
        "typeLocal": "Appartement",
        "surfaceM2": 143,
        "isVefa": false
      },
      {
        "date": "2022-05-30",
        "priceEur": 345000,
        "typeLocal": "Appartement",
        "surfaceM2": 29,
        "isVefa": false
      }
    ]
  },
  "f6be5925edda": {
    "id": "f6be5925edda",
    "label": "337 RTE DE LA CHAPELLE, Saint-Romain-de-Colbosc",
    "lat": 49.532694,
    "lng": 0.367081,
    "transactions": [
      {
        "date": "2025-01-31",
        "priceEur": 70000,
        "typeLocal": "Maison",
        "surfaceM2": 120,
        "isVefa": false
      }
    ]
  },
  "491768bc1e88": {
    "id": "491768bc1e88",
    "label": "6881 HAMEAU D ENFER, Saint-Romain-de-Colbosc",
    "lat": 49.534897,
    "lng": 0.372586,
    "transactions": [
      {
        "date": "2025-06-13",
        "priceEur": 321000,
        "typeLocal": "Maison",
        "surfaceM2": 135,
        "isVefa": false
      }
    ]
  }
}