{
  "7b5f5a1938d4": {
    "id": "7b5f5a1938d4",
    "label": "3 CHE DE L'ABREUVOIR, Elbeuf-sur-Andelle",
    "lat": 49.4706,
    "lng": 1.400093,
    "transactions": [
      {
        "date": "2020-08-13",
        "priceEur": 35000,
        "typeLocal": "Maison",
        "surfaceM2": 127,
        "isVefa": false
      }
    ]
  },
  "a12bca420976": {
    "id": "a12bca420976",
    "label": "9999 RTE DU HERON, Elbeuf-sur-Andelle",
    "lat": 49.471794,
    "lng": 1.401782,
    "transactions": [
      {
        "date": "2020-12-09",
        "priceEur": 168000,
        "typeLocal": "Maison",
        "surfaceM2": 82,
        "isVefa": false
      }
    ]
  },
  "15689f302be7": {
    "id": "15689f302be7",
    "label": "7022 RUE DES GRANDS PRES, Elbeuf-sur-Andelle",
    "lat": 49.469065,
    "lng": 1.397657,
    "transactions": [
      {
        "date": "2021-08-19",
        "priceEur": 241200,
        "typeLocal": "Maison",
        "surfaceM2": 117,
        "isVefa": false
      }
    ]
  },
  "c3c6db56f76b": {
    "id": "c3c6db56f76b",
    "label": "5046 RUE DES GRANDS PRES, Elbeuf-sur-Andelle",
    "lat": 49.469875,
    "lng": 1.399556,
    "transactions": [
      {
        "date": "2021-10-11",
        "priceEur": 125000,
        "typeLocal": "Maison",
        "surfaceM2": 65,
        "isVefa": false
      }
    ]
  },
  "03139415deab": {
    "id": "03139415deab",
    "label": "7030 RTE DU HERON, Elbeuf-sur-Andelle",
    "lat": 49.471784,
    "lng": 1.400286,
    "transactions": [
      {
        "date": "2022-10-04",
        "priceEur": 180000,
        "typeLocal": "Maison",
        "surfaceM2": 102,
        "isVefa": false
      }
    ]
  },
  "292014f45982": {
    "id": "292014f45982",
    "label": "5048 RUE DES GRANDS PRES, Elbeuf-sur-Andelle",
    "lat": 49.469576,
    "lng": 1.398181,
    "transactions": [
      {
        "date": "2022-11-08",
        "priceEur": 212000,
        "typeLocal": "Maison",
        "surfaceM2": 112,
        "isVefa": false
      }
    ]
  },
  "9c221ff9cf47": {
    "id": "9c221ff9cf47",
    "label": "14A RUE DES GRANDS PRES, Elbeuf-sur-Andelle",
    "lat": 49.469338,
    "lng": 1.399493,
    "transactions": [
      {
        "date": "2024-01-31",
        "priceEur": 308500,
        "typeLocal": "Maison",
        "surfaceM2": 92,
        "isVefa": false
      }
    ]
  },
  "0a86c8b8277b": {
    "id": "0a86c8b8277b",
    "label": "16 RUE DES GRANDS PRES, Elbeuf-sur-Andelle",
    "lat": 49.469095,
    "lng": 1.39894,
    "transactions": [
      {
        "date": "2024-06-29",
        "priceEur": 150700,
        "typeLocal": "Maison",
        "surfaceM2": 141,
        "isVefa": false
      }
    ]
  },
  "f91d33e59395": {
    "id": "f91d33e59395",
    "label": "11A RTE DU HERON, Elbeuf-sur-Andelle",
    "lat": 49.471678,
    "lng": 1.397939,
    "transactions": [
      {
        "date": "2024-11-12",
        "priceEur": 180000,
        "typeLocal": "Maison",
        "surfaceM2": 95,
        "isVefa": false
      }
    ]
  },
  "5bf73247d5b8": {
    "id": "5bf73247d5b8",
    "label": "3 RTE DU HERON, Elbeuf-sur-Andelle",
    "lat": 49.472791,
    "lng": 1.40047,
    "transactions": [
      {
        "date": "2025-04-25",
        "priceEur": 189900,
        "typeLocal": "Maison",
        "surfaceM2": 85,
        "isVefa": false
      }
    ]
  }
}