{
  "b4dccecab4df": {
    "id": "b4dccecab4df",
    "label": "200 CAMI DES OLIVIERS, Montbazin",
    "lat": 43.520414,
    "lng": 3.70117,
    "transactions": [
      {
        "date": "2020-09-30",
        "priceEur": 369700,
        "typeLocal": "Maison",
        "surfaceM2": 126,
        "isVefa": false
      }
    ]
  },
  "999b69d59771": {
    "id": "999b69d59771",
    "label": "9 CAMI DE LA ROQUE, Montbazin",
    "lat": 43.517411,
    "lng": 3.700914,
    "transactions": [
      {
        "date": "2020-10-03",
        "priceEur": 275000,
        "typeLocal": "Maison",
        "surfaceM2": 88,
        "isVefa": false
      }
    ]
  },
  "ac86172b32b0": {
    "id": "ac86172b32b0",
    "label": "180 CAMI DES OLIVIERS, Montbazin",
    "lat": 43.520214,
    "lng": 3.701114,
    "transactions": [
      {
        "date": "2020-12-14",
        "priceEur": 309000,
        "typeLocal": "Maison",
        "surfaceM2": 108,
        "isVefa": false
      }
    ]
  },
  "13ca0d4cfbe6": {
    "id": "13ca0d4cfbe6",
    "label": "27 RUE DU JEU DE MAIL, Montbazin",
    "lat": 43.517586,
    "lng": 3.697755,
    "transactions": [
      {
        "date": "2021-04-09",
        "priceEur": 260150,
        "typeLocal": "Maison",
        "surfaceM2": 103,
        "isVefa": false
      }
    ]
  },
  "8046b78fecd7": {
    "id": "8046b78fecd7",
    "label": "1 CAMI DE LA ROQUE, Montbazin",
    "lat": 43.516692,
    "lng": 3.700815,
    "transactions": [
      {
        "date": "2021-06-17",
        "priceEur": 295000,
        "typeLocal": "Maison",
        "surfaceM2": 105,
        "isVefa": false
      }
    ]
  },
  "629905475ebd": {
    "id": "629905475ebd",
    "label": "5 IMP DES COURBES, Montbazin",
    "lat": 43.518026,
    "lng": 3.699971,
    "transactions": [
      {
        "date": "2021-06-18",
        "priceEur": 274000,
        "typeLocal": "Maison",
        "surfaceM2": 60,
        "isVefa": false
      }
    ]
  },
  "8e0ad26dc3d5": {
    "id": "8e0ad26dc3d5",
    "label": "11 CAMI DE LA ROQUE, Montbazin",
    "lat": 43.517617,
    "lng": 3.700764,
    "transactions": [
      {
        "date": "2021-12-06",
        "priceEur": 270000,
        "typeLocal": "Maison",
        "surfaceM2": 65,
        "isVefa": false
      }
    ]
  },
  "0ca50a72cea6": {
    "id": "0ca50a72cea6",
    "label": "7 RUE DE VALFALIS, Montbazin",
    "lat": 43.518298,
    "lng": 3.698084,
    "transactions": [
      {
        "date": "2022-01-31",
        "priceEur": 599800,
        "typeLocal": "Maison",
        "surfaceM2": 180,
        "isVefa": false
      },
      {
        "date": "2022-01-31",
        "priceEur": 599800,
        "typeLocal": "Maison",
        "surfaceM2": 180,
        "isVefa": false
      }
    ]
  },
  "1baad3a815a1": {
    "id": "1baad3a815a1",
    "label": "30 RUE DU JEU DE MAIL, Montbazin",
    "lat": 43.517375,
    "lng": 3.698641,
    "transactions": [
      {
        "date": "2022-04-21",
        "priceEur": 416050,
        "typeLocal": "Maison",
        "surfaceM2": 134,
        "isVefa": false
      }
    ]
  },
  "e8e0ff693290": {
    "id": "e8e0ff693290",
    "label": "275 CAMI DES OLIVIERS, Montbazin",
    "lat": 43.52131,
    "lng": 3.701033,
    "transactions": [
      {
        "date": "2022-06-24",
        "priceEur": 351250,
        "typeLocal": "Maison",
        "surfaceM2": 84,
        "isVefa": false
      }
    ]
  },
  "3603b594d2d1": {
    "id": "3603b594d2d1",
    "label": "11 RUE DU CIGALOU, Montbazin",
    "lat": 43.518552,
    "lng": 3.700373,
    "transactions": [
      {
        "date": "2022-08-12",
        "priceEur": 310000,
        "typeLocal": "Maison",
        "surfaceM2": 84,
        "isVefa": false
      }
    ]
  },
  "a80483be55cb": {
    "id": "a80483be55cb",
    "label": "24 RUE DU JEU DE MAIL, Montbazin",
    "lat": 43.517295,
    "lng": 3.698294,
    "transactions": [
      {
        "date": "2022-09-16",
        "priceEur": 305000,
        "typeLocal": "Maison",
        "surfaceM2": 111,
        "isVefa": false
      }
    ]
  },
  "a1de13434cb8": {
    "id": "a1de13434cb8",
    "label": "19 RUE DU CIGALOU, Montbazin",
    "lat": 43.518708,
    "lng": 3.700782,
    "transactions": [
      {
        "date": "2022-10-14",
        "priceEur": 334900,
        "typeLocal": "Maison",
        "surfaceM2": 97,
        "isVefa": false
      }
    ]
  },
  "3255a6a65fc1": {
    "id": "3255a6a65fc1",
    "label": "3 RUE DES COURBES, Montbazin",
    "lat": 43.516821,
    "lng": 3.699095,
    "transactions": [
      {
        "date": "2022-11-21",
        "priceEur": 330000,
        "typeLocal": "Maison",
        "surfaceM2": 75,
        "isVefa": false
      }
    ]
  },
  "b6ed78da9ed6": {
    "id": "b6ed78da9ed6",
    "label": "27 CAMI DE LA ROQUE, Montbazin",
    "lat": 43.518903,
    "lng": 3.701275,
    "transactions": [
      {
        "date": "2023-03-30",
        "priceEur": 354210,
        "typeLocal": "Appartement",
        "surfaceM2": 25,
        "isVefa": false
      },
      {
        "date": "2023-03-30",
        "priceEur": 354210,
        "typeLocal": "Maison",
        "surfaceM2": 73,
        "isVefa": false
      }
    ]
  },
  "09a227b79b7d": {
    "id": "09a227b79b7d",
    "label": "19 CAMI DE LA ROQUE, Montbazin",
    "lat": 43.518076,
    "lng": 3.701326,
    "transactions": [
      {
        "date": "2023-09-22",
        "priceEur": 325960,
        "typeLocal": "Maison",
        "surfaceM2": 102,
        "isVefa": false
      }
    ]
  },
  "2b9d69b0f6ac": {
    "id": "2b9d69b0f6ac",
    "label": "525 CHE DES ROMAINS, Montbazin",
    "lat": 43.516761,
    "lng": 3.70126,
    "transactions": [
      {
        "date": "2023-11-06",
        "priceEur": 385870,
        "typeLocal": "Maison",
        "surfaceM2": 82,
        "isVefa": false
      }
    ]
  },
  "b1dcb680dfe4": {
    "id": "b1dcb680dfe4",
    "label": "1 RUE DES COURBES, Montbazin",
    "lat": 43.516704,
    "lng": 3.69881,
    "transactions": [
      {
        "date": "2024-03-08",
        "priceEur": 360000,
        "typeLocal": "Maison",
        "surfaceM2": 75,
        "isVefa": false
      }
    ]
  },
  "f4544e9a7e75": {
    "id": "f4544e9a7e75",
    "label": "10 RUE DES TROIS OLIVIERS, Montbazin",
    "lat": 43.518752,
    "lng": 3.699681,
    "transactions": [
      {
        "date": "2024-09-16",
        "priceEur": 311000,
        "typeLocal": "Maison",
        "surfaceM2": 74,
        "isVefa": false
      }
    ]
  },
  "9d83e4c170a5": {
    "id": "9d83e4c170a5",
    "label": "26 RUE DU JEU DE MAIL, Montbazin",
    "lat": 43.517132,
    "lng": 3.698423,
    "transactions": [
      {
        "date": "2024-11-28",
        "priceEur": 235000,
        "typeLocal": "Maison",
        "surfaceM2": 94,
        "isVefa": false
      }
    ]
  },
  "3c74ebac570b": {
    "id": "3c74ebac570b",
    "label": "9 LOT LES TROIS OLIVIERS, Montbazin",
    "lat": 43.519103,
    "lng": 3.699109,
    "transactions": [
      {
        "date": "2024-11-18",
        "priceEur": 370000,
        "typeLocal": "Maison",
        "surfaceM2": 104,
        "isVefa": false
      }
    ]
  },
  "3f58c1bbebc7": {
    "id": "3f58c1bbebc7",
    "label": "15 RUE DES COURBES, Montbazin",
    "lat": 43.517653,
    "lng": 3.698791,
    "transactions": [
      {
        "date": "2025-03-05",
        "priceEur": 474000,
        "typeLocal": "Maison",
        "surfaceM2": 114,
        "isVefa": false
      }
    ]
  },
  "490dee1673ac": {
    "id": "490dee1673ac",
    "label": "7 IMP ALDEBERT, Montbazin",
    "lat": 43.517404,
    "lng": 3.700599,
    "transactions": [
      {
        "date": "2025-03-26",
        "priceEur": 405000,
        "typeLocal": "Maison",
        "surfaceM2": 100,
        "isVefa": false
      }
    ]
  },
  "29064dba21cc": {
    "id": "29064dba21cc",
    "label": "15 LOT LES ORCHIDEES, Montbazin",
    "lat": 43.522819,
    "lng": 3.70162,
    "transactions": [
      {
        "date": "2025-06-30",
        "priceEur": 558650,
        "typeLocal": "Maison",
        "surfaceM2": 167,
        "isVefa": false
      }
    ]
  }
}