{
  "81d658aa5b32": {
    "id": "81d658aa5b32",
    "label": "2 RUE DE LA TANNERIE, Haubourdin",
    "lat": 50.601844,
    "lng": 2.984104,
    "transactions": [
      {
        "date": "2021-07-07",
        "priceEur": 247700,
        "typeLocal": "Maison",
        "surfaceM2": 120,
        "isVefa": false
      },
      {
        "date": "2020-07-03",
        "priceEur": 214000,
        "typeLocal": "Maison",
        "surfaceM2": 120,
        "isVefa": false
      }
    ]
  },
  "52718c449270": {
    "id": "52718c449270",
    "label": "40 AV JACQUARD, Haubourdin",
    "lat": 50.60407,
    "lng": 2.987838,
    "transactions": [
      {
        "date": "2020-08-24",
        "priceEur": 157970,
        "typeLocal": "Maison",
        "surfaceM2": 76,
        "isVefa": false
      }
    ]
  },
  "e2811bec0bd9": {
    "id": "e2811bec0bd9",
    "label": "5 RUE DU FAISAN, Haubourdin",
    "lat": 50.603606,
    "lng": 2.986818,
    "transactions": [
      {
        "date": "2020-11-30",
        "priceEur": 235000,
        "typeLocal": "Maison",
        "surfaceM2": 80,
        "isVefa": false
      }
    ]
  },
  "c87fda14b4ca": {
    "id": "c87fda14b4ca",
    "label": "1B RUE DE LA RACHE, Haubourdin",
    "lat": 50.600582,
    "lng": 2.980829,
    "transactions": [
      {
        "date": "2021-01-11",
        "priceEur": 173000,
        "typeLocal": "Maison",
        "surfaceM2": 70,
        "isVefa": false
      }
    ]
  },
  "26348bbfeaab": {
    "id": "26348bbfeaab",
    "label": "101B RUE DU GENERAL MESNY, Haubourdin",
    "lat": 50.602676,
    "lng": 2.985085,
    "transactions": [
      {
        "date": "2021-02-26",
        "priceEur": 163000,
        "typeLocal": "Maison",
        "surfaceM2": 105,
        "isVefa": false
      }
    ]
  },
  "063480fe63e1": {
    "id": "063480fe63e1",
    "label": "43 RUE DU GENERAL MESNY, Haubourdin",
    "lat": 50.603832,
    "lng": 2.986534,
    "transactions": [
      {
        "date": "2021-04-22",
        "priceEur": 80000,
        "typeLocal": "Maison",
        "surfaceM2": 55,
        "isVefa": false
      }
    ]
  },
  "11064c237723": {
    "id": "11064c237723",
    "label": "2 CHE HALAGE MOULIN ROUGE, Haubourdin",
    "lat": 50.601635,
    "lng": 2.982411,
    "transactions": [
      {
        "date": "2021-09-29",
        "priceEur": 175000,
        "typeLocal": "Maison",
        "surfaceM2": 45,
        "isVefa": false
      }
    ]
  },
  "74eaac7e4a92": {
    "id": "74eaac7e4a92",
    "label": "12T CHE HALAGE AU VIEUX CANAL, Haubourdin",
    "lat": 50.602908,
    "lng": 2.98809,
    "transactions": [
      {
        "date": "2021-12-14",
        "priceEur": 210000,
        "typeLocal": "Maison",
        "surfaceM2": 51,
        "isVefa": false
      }
    ]
  },
  "1be818834358": {
    "id": "1be818834358",
    "label": "41 RUE DU BOIS, Haubourdin",
    "lat": 50.603008,
    "lng": 2.985796,
    "transactions": [
      {
        "date": "2022-04-20",
        "priceEur": 116380,
        "typeLocal": "Maison",
        "surfaceM2": 53,
        "isVefa": false
      }
    ]
  },
  "61b6ebed5190": {
    "id": "61b6ebed5190",
    "label": "12 RUE DU BOIS, Haubourdin",
    "lat": 50.602137,
    "lng": 2.986815,
    "transactions": [
      {
        "date": "2022-06-10",
        "priceEur": 140000,
        "typeLocal": "Maison",
        "surfaceM2": 90,
        "isVefa": false
      },
      {
        "date": "2022-06-10",
        "priceEur": 140000,
        "typeLocal": "Maison",
        "surfaceM2": 47,
        "isVefa": false
      }
    ]
  },
  "3af93fd6f238": {
    "id": "3af93fd6f238",
    "label": "4 CHE HALAGE AU VIEUX CANAL, Haubourdin",
    "lat": 50.603665,
    "lng": 2.986924,
    "transactions": [
      {
        "date": "2022-06-13",
        "priceEur": 370000,
        "typeLocal": "Maison",
        "surfaceM2": 158,
        "isVefa": false
      }
    ]
  },
  "d0a8ac0758f7": {
    "id": "d0a8ac0758f7",
    "label": "9 RUE DU BOIS, Haubourdin",
    "lat": 50.602025,
    "lng": 2.987742,
    "transactions": [
      {
        "date": "2022-07-26",
        "priceEur": 165000,
        "typeLocal": "Maison",
        "surfaceM2": 62,
        "isVefa": false
      }
    ]
  },
  "768c93fd881f": {
    "id": "768c93fd881f",
    "label": "7 RUE DE LA RACHE, Haubourdin",
    "lat": 50.600517,
    "lng": 2.980684,
    "transactions": [
      {
        "date": "2022-12-05",
        "priceEur": 133500,
        "typeLocal": "Maison",
        "surfaceM2": 101,
        "isVefa": false
      }
    ]
  },
  "65574261a279": {
    "id": "65574261a279",
    "label": "67 RUE DU GENERAL MESNY, Haubourdin",
    "lat": 50.603443,
    "lng": 2.986186,
    "transactions": [
      {
        "date": "2022-12-20",
        "priceEur": 240000,
        "typeLocal": "Maison",
        "surfaceM2": 82,
        "isVefa": false
      }
    ]
  },
  "d5b2f5a0864f": {
    "id": "d5b2f5a0864f",
    "label": "6 RUE DE LA TANNERIE, Haubourdin",
    "lat": 50.601708,
    "lng": 2.984275,
    "transactions": [
      {
        "date": "2024-01-09",
        "priceEur": 165000,
        "typeLocal": "Maison",
        "surfaceM2": 87,
        "isVefa": false
      }
    ]
  },
  "152176d4e7ad": {
    "id": "152176d4e7ad",
    "label": "46 AV JACQUARD, Haubourdin",
    "lat": 50.60387,
    "lng": 2.987636,
    "transactions": [
      {
        "date": "2024-06-12",
        "priceEur": 148500,
        "typeLocal": "Maison",
        "surfaceM2": 75,
        "isVefa": false
      }
    ]
  },
  "6972f213e820": {
    "id": "6972f213e820",
    "label": "38 AV JACQUARD, Haubourdin",
    "lat": 50.604143,
    "lng": 2.987884,
    "transactions": [
      {
        "date": "2024-12-20",
        "priceEur": 204000,
        "typeLocal": "Maison",
        "surfaceM2": 80,
        "isVefa": false
      }
    ]
  }
}