{
  "14d2eb8a8574": {
    "id": "14d2eb8a8574",
    "label": "2 RUE DES PEUPLIERS, Brouckerque",
    "lat": 50.951843,
    "lng": 2.293108,
    "transactions": [
      {
        "date": "2020-10-09",
        "priceEur": 165000,
        "typeLocal": "Maison",
        "surfaceM2": 111,
        "isVefa": false
      }
    ]
  },
  "3af615cab766": {
    "id": "3af615cab766",
    "label": "15 RTE DE COPPENAXFORT, Brouckerque",
    "lat": 50.954781,
    "lng": 2.291229,
    "transactions": [
      {
        "date": "2020-10-29",
        "priceEur": 227150,
        "typeLocal": "Maison",
        "surfaceM2": 85,
        "isVefa": false
      }
    ]
  },
  "2d855b29306d": {
    "id": "2d855b29306d",
    "label": "10 RUE DES MARRONNIERS, Brouckerque",
    "lat": 50.952192,
    "lng": 2.292386,
    "transactions": [
      {
        "date": "2020-11-10",
        "priceEur": 151000,
        "typeLocal": "Maison",
        "surfaceM2": 83,
        "isVefa": false
      }
    ]
  },
  "4324011f27b6": {
    "id": "4324011f27b6",
    "label": "45 RTE DE COPPENAXFORT, Brouckerque",
    "lat": 50.955289,
    "lng": 2.286061,
    "transactions": [
      {
        "date": "2021-01-29",
        "priceEur": 224600,
        "typeLocal": "Maison",
        "surfaceM2": 126,
        "isVefa": false
      }
    ]
  },
  "66326a7d44b1": {
    "id": "66326a7d44b1",
    "label": "15 PL DU VILLAGE, Brouckerque",
    "lat": 50.953442,
    "lng": 2.292416,
    "transactions": [
      {
        "date": "2021-02-19",
        "priceEur": 170000,
        "typeLocal": "Maison",
        "surfaceM2": 92,
        "isVefa": false
      }
    ]
  },
  "958254d4fde6": {
    "id": "958254d4fde6",
    "label": "31 RTE DE COPPENAXFORT, Brouckerque",
    "lat": 50.955627,
    "lng": 2.288567,
    "transactions": [
      {
        "date": "2021-05-17",
        "priceEur": 155100,
        "typeLocal": "Maison",
        "surfaceM2": 120,
        "isVefa": false
      }
    ]
  },
  "b0dacebbe5b2": {
    "id": "b0dacebbe5b2",
    "label": "7 RUE DES JONCS, Brouckerque",
    "lat": 50.955268,
    "lng": 2.294916,
    "transactions": [
      {
        "date": "2021-06-09",
        "priceEur": 240250,
        "typeLocal": "Maison",
        "surfaceM2": 97,
        "isVefa": false
      }
    ]
  },
  "2a34360ca064": {
    "id": "2a34360ca064",
    "label": "3 PL DU VILLAGE, Brouckerque",
    "lat": 50.953782,
    "lng": 2.29221,
    "transactions": [
      {
        "date": "2022-01-21",
        "priceEur": 95000,
        "typeLocal": "Maison",
        "surfaceM2": 75,
        "isVefa": false
      }
    ]
  },
  "9d9e3b7a010a": {
    "id": "9d9e3b7a010a",
    "label": "38 RUE ABBE DE BECO, Brouckerque",
    "lat": 50.958165,
    "lng": 2.29533,
    "transactions": [
      {
        "date": "2022-04-12",
        "priceEur": 213860,
        "typeLocal": "Maison",
        "surfaceM2": 87,
        "isVefa": false
      }
    ]
  },
  "499699d0a232": {
    "id": "499699d0a232",
    "label": "3 CHE DE LA PETITE CHAPELLE, Brouckerque",
    "lat": 50.955893,
    "lng": 2.287627,
    "transactions": [
      {
        "date": "2022-05-12",
        "priceEur": 310000,
        "typeLocal": "Maison",
        "surfaceM2": 113,
        "isVefa": false
      }
    ]
  },
  "048f74127d99": {
    "id": "048f74127d99",
    "label": "4 PL DU VILLAGE, Brouckerque",
    "lat": 50.95418,
    "lng": 2.292618,
    "transactions": [
      {
        "date": "2022-09-20",
        "priceEur": 364100,
        "typeLocal": "Maison",
        "surfaceM2": 173,
        "isVefa": false
      }
    ]
  },
  "a5d07b7cfac4": {
    "id": "a5d07b7cfac4",
    "label": "11 RTE DE BERGUES, Brouckerque",
    "lat": 50.952961,
    "lng": 2.293823,
    "transactions": [
      {
        "date": "2022-11-04",
        "priceEur": 157000,
        "typeLocal": "Maison",
        "surfaceM2": 94,
        "isVefa": false
      }
    ]
  },
  "6a5392c164d7": {
    "id": "6a5392c164d7",
    "label": "8 RUE DES PINSONS, Brouckerque",
    "lat": 50.952561,
    "lng": 2.293683,
    "transactions": [
      {
        "date": "2024-03-06",
        "priceEur": 172500,
        "typeLocal": "Maison",
        "surfaceM2": 61,
        "isVefa": false
      },
      {
        "date": "2023-04-17",
        "priceEur": 145000,
        "typeLocal": "Maison",
        "surfaceM2": 61,
        "isVefa": false
      }
    ]
  },
  "e2f128c1252e": {
    "id": "e2f128c1252e",
    "label": "18 AV DES CHENES, Brouckerque",
    "lat": 50.957239,
    "lng": 2.29059,
    "transactions": [
      {
        "date": "2023-05-17",
        "priceEur": 180000,
        "typeLocal": "Maison",
        "surfaceM2": 101,
        "isVefa": false
      }
    ]
  },
  "9c890564a31b": {
    "id": "9c890564a31b",
    "label": "9 RUE DES ORMES, Brouckerque",
    "lat": 50.951872,
    "lng": 2.294366,
    "transactions": [
      {
        "date": "2023-05-22",
        "priceEur": 200000,
        "typeLocal": "Maison",
        "surfaceM2": 84,
        "isVefa": false
      }
    ]
  },
  "b1ff36de191b": {
    "id": "b1ff36de191b",
    "label": "32 RUE ABBE DE BECO, Brouckerque",
    "lat": 50.957476,
    "lng": 2.294616,
    "transactions": [
      {
        "date": "2023-07-20",
        "priceEur": 220000,
        "typeLocal": "Maison",
        "surfaceM2": 97,
        "isVefa": false
      }
    ]
  },
  "9c5bbee6e046": {
    "id": "9c5bbee6e046",
    "label": "11 RTE DE COPPENAXFORT, Brouckerque",
    "lat": 50.954645,
    "lng": 2.291521,
    "transactions": [
      {
        "date": "2023-10-04",
        "priceEur": 65000,
        "typeLocal": "Maison",
        "surfaceM2": 103,
        "isVefa": false
      }
    ]
  },
  "b6a8b5bb470d": {
    "id": "b6a8b5bb470d",
    "label": "7 PL DU VILLAGE, Brouckerque",
    "lat": 50.953681,
    "lng": 2.2922,
    "transactions": [
      {
        "date": "2024-04-11",
        "priceEur": 90000,
        "typeLocal": "Maison",
        "surfaceM2": 141,
        "isVefa": false
      }
    ]
  },
  "cda105a5ca3a": {
    "id": "cda105a5ca3a",
    "label": "14 PL DU VILLAGE, Brouckerque",
    "lat": 50.953534,
    "lng": 2.292926,
    "transactions": [
      {
        "date": "2024-05-23",
        "priceEur": 50000,
        "typeLocal": "Maison",
        "surfaceM2": 45,
        "isVefa": false
      }
    ]
  },
  "376f9795595b": {
    "id": "376f9795595b",
    "label": "1 CHE DE LA PETITE CHAPELLE, Brouckerque",
    "lat": 50.955667,
    "lng": 2.288228,
    "transactions": [
      {
        "date": "2024-09-16",
        "priceEur": 90000,
        "typeLocal": "Maison",
        "surfaceM2": 40,
        "isVefa": false
      }
    ]
  },
  "972cbe95ac7b": {
    "id": "972cbe95ac7b",
    "label": "18 PL DU VILLAGE, Brouckerque",
    "lat": 50.95345,
    "lng": 2.293014,
    "transactions": [
      {
        "date": "2024-10-17",
        "priceEur": 105000,
        "typeLocal": "Maison",
        "surfaceM2": 74,
        "isVefa": false
      },
      {
        "date": "2024-09-24",
        "priceEur": 74,
        "typeLocal": "Maison",
        "surfaceM2": 74,
        "isVefa": false
      }
    ]
  },
  "35dd3e1d9432": {
    "id": "35dd3e1d9432",
    "label": "3 RUE DES SAULES, Brouckerque",
    "lat": 50.956891,
    "lng": 2.293303,
    "transactions": [
      {
        "date": "2024-11-28",
        "priceEur": 286000,
        "typeLocal": "Maison",
        "surfaceM2": 146,
        "isVefa": false
      }
    ]
  },
  "44b7ad3278b3": {
    "id": "44b7ad3278b3",
    "label": "9 RUE DES JONCS, Brouckerque",
    "lat": 50.955051,
    "lng": 2.294932,
    "transactions": [
      {
        "date": "2025-04-07",
        "priceEur": 406000,
        "typeLocal": "Maison",
        "surfaceM2": 177,
        "isVefa": false
      }
    ]
  },
  "3da880ace6f1": {
    "id": "3da880ace6f1",
    "label": "9 RTE DE BERGUES, Brouckerque",
    "lat": 50.952978,
    "lng": 2.293602,
    "transactions": [
      {
        "date": "2025-03-21",
        "priceEur": 169500,
        "typeLocal": "Maison",
        "surfaceM2": 101,
        "isVefa": false
      }
    ]
  }
}