{
  "7cd08ffa42f9": {
    "id": "7cd08ffa42f9",
    "label": "156 RTE DE SAINT HELLIER, Cropus",
    "lat": 49.738996,
    "lng": 1.149468,
    "transactions": [
      {
        "date": "2021-03-11",
        "priceEur": 81000,
        "typeLocal": "Maison",
        "surfaceM2": 68,
        "isVefa": false
      }
    ]
  },
  "1e7daf2cccc9": {
    "id": "1e7daf2cccc9",
    "label": "93 IMP DES VIOLETTES, Cropus",
    "lat": 49.740659,
    "lng": 1.145475,
    "transactions": [
      {
        "date": "2021-06-23",
        "priceEur": 214500,
        "typeLocal": "Maison",
        "surfaceM2": 120,
        "isVefa": false
      }
    ]
  },
  "c4f03f8521f9": {
    "id": "c4f03f8521f9",
    "label": "220 RTE DE SAINT HELLIER, Cropus",
    "lat": 49.738703,
    "lng": 1.15059,
    "transactions": [
      {
        "date": "2021-10-06",
        "priceEur": 233000,
        "typeLocal": "Maison",
        "surfaceM2": 110,
        "isVefa": false
      }
    ]
  },
  "94fedd1dabff": {
    "id": "94fedd1dabff",
    "label": "5007 CROPUS, Cropus",
    "lat": 49.739659,
    "lng": 1.144377,
    "transactions": [
      {
        "date": "2022-04-28",
        "priceEur": 193000,
        "typeLocal": "Maison",
        "surfaceM2": 48,
        "isVefa": false
      }
    ]
  },
  "e9926aa8de28": {
    "id": "e9926aa8de28",
    "label": "16 CHE DU FOUR A CHAUX, Cropus",
    "lat": 49.739718,
    "lng": 1.144088,
    "transactions": [
      {
        "date": "2022-04-28",
        "priceEur": 193000,
        "typeLocal": "Maison",
        "surfaceM2": 123,
        "isVefa": false
      }
    ]
  },
  "5f64f3d6a28c": {
    "id": "5f64f3d6a28c",
    "label": "210 RTE DE SAINT HELLIER, Cropus",
    "lat": 49.738722,
    "lng": 1.149896,
    "transactions": [
      {
        "date": "2024-10-30",
        "priceEur": 260000,
        "typeLocal": "Maison",
        "surfaceM2": 102,
        "isVefa": false
      },
      {
        "date": "2022-07-04",
        "priceEur": 237730,
        "typeLocal": "Maison",
        "surfaceM2": 102,
        "isVefa": false
      }
    ]
  },
  "bc21fb00d813": {
    "id": "bc21fb00d813",
    "label": "120 RUE NOTRE DAME DU PARC, Cropus",
    "lat": 49.74017,
    "lng": 1.145924,
    "transactions": [
      {
        "date": "2023-07-28",
        "priceEur": 213300,
        "typeLocal": "Maison",
        "surfaceM2": 150,
        "isVefa": false
      }
    ]
  },
  "dcdb0d189e04": {
    "id": "dcdb0d189e04",
    "label": "49 RUE NOTRE DAME DU PARC, Cropus",
    "lat": 49.739427,
    "lng": 1.147065,
    "transactions": [
      {
        "date": "2023-08-02",
        "priceEur": 228100,
        "typeLocal": "Maison",
        "surfaceM2": 169,
        "isVefa": false
      }
    ]
  },
  "6b74045ffd3b": {
    "id": "6b74045ffd3b",
    "label": "140 RTE DE SAINT HELLIER, Cropus",
    "lat": 49.739292,
    "lng": 1.149225,
    "transactions": [
      {
        "date": "2025-05-26",
        "priceEur": 48830,
        "typeLocal": "Maison",
        "surfaceM2": 134,
        "isVefa": false
      },
      {
        "date": "2024-11-12",
        "priceEur": 257000,
        "typeLocal": "Maison",
        "surfaceM2": 134,
        "isVefa": false
      }
    ]
  },
  "7f965d8161de": {
    "id": "7f965d8161de",
    "label": "55 CHE DU CHANT DES OISEAUX, Cropus",
    "lat": 49.740544,
    "lng": 1.148518,
    "transactions": [
      {
        "date": "2024-12-06",
        "priceEur": 203000,
        "typeLocal": "Maison",
        "surfaceM2": 119,
        "isVefa": false
      }
    ]
  },
  "fe79df87fa18": {
    "id": "fe79df87fa18",
    "label": "126 RUE DU CATELIER, Cropus",
    "lat": 49.740934,
    "lng": 1.148197,
    "transactions": [
      {
        "date": "2024-12-10",
        "priceEur": 80000,
        "typeLocal": "Maison",
        "surfaceM2": 87,
        "isVefa": false
      }
    ]
  },
  "7ddb173030d1": {
    "id": "7ddb173030d1",
    "label": "44 RUE NOTRE DAME DU PARC, Cropus",
    "lat": 49.740136,
    "lng": 1.147254,
    "transactions": [
      {
        "date": "2025-02-21",
        "priceEur": 319000,
        "typeLocal": "Maison",
        "surfaceM2": 128,
        "isVefa": false
      }
    ]
  }
}