{
  "f6e3a70e92b5": {
    "id": "f6e3a70e92b5",
    "label": "190 RUE AVRIL COEURET, Isneauville",
    "lat": 49.499017,
    "lng": 1.146746,
    "transactions": [
      {
        "date": "2020-08-27",
        "priceEur": 282000,
        "typeLocal": "Maison",
        "surfaceM2": 104,
        "isVefa": false
      }
    ]
  },
  "d45dc22e7d28": {
    "id": "d45dc22e7d28",
    "label": "232 RUE DU BOUVREUIL, Isneauville",
    "lat": 49.499053,
    "lng": 1.143675,
    "transactions": [
      {
        "date": "2020-09-07",
        "priceEur": 260800,
        "typeLocal": "Maison",
        "surfaceM2": 98,
        "isVefa": false
      }
    ]
  },
  "50a5a51a4e19": {
    "id": "50a5a51a4e19",
    "label": "126 RUE DE LA CAMPAGNE, Isneauville",
    "lat": 49.496709,
    "lng": 1.144973,
    "transactions": [
      {
        "date": "2020-10-09",
        "priceEur": 250000,
        "typeLocal": "Maison",
        "surfaceM2": 101,
        "isVefa": false
      }
    ]
  },
  "bd39008c66cc": {
    "id": "bd39008c66cc",
    "label": "77 RUE DU CHAMP VERT, Isneauville",
    "lat": 49.50327,
    "lng": 1.153023,
    "transactions": [
      {
        "date": "2020-12-14",
        "priceEur": 283300,
        "typeLocal": "Maison",
        "surfaceM2": 125,
        "isVefa": false
      }
    ]
  },
  "930d773b82a0": {
    "id": "930d773b82a0",
    "label": "224 RUE AVRIL COEURET, Isneauville",
    "lat": 49.499181,
    "lng": 1.147154,
    "transactions": [
      {
        "date": "2020-12-15",
        "priceEur": 267600,
        "typeLocal": "Maison",
        "surfaceM2": 90,
        "isVefa": false
      }
    ]
  },
  "eb0cb040c68d": {
    "id": "eb0cb040c68d",
    "label": "39 RUE DU LORIOT, Isneauville",
    "lat": 49.499133,
    "lng": 1.14589,
    "transactions": [
      {
        "date": "2020-12-07",
        "priceEur": 173000,
        "typeLocal": "Maison",
        "surfaceM2": 78,
        "isVefa": false
      }
    ]
  },
  "cdaaa4c58223": {
    "id": "cdaaa4c58223",
    "label": "60 RUE DES PRIMEVERES, Isneauville",
    "lat": 49.497149,
    "lng": 1.148789,
    "transactions": [
      {
        "date": "2021-03-08",
        "priceEur": 359500,
        "typeLocal": "Maison",
        "surfaceM2": 131,
        "isVefa": false
      }
    ]
  },
  "50e9aa4cb6a3": {
    "id": "50e9aa4cb6a3",
    "label": "85 RUE DU LORIOT, Isneauville",
    "lat": 49.499215,
    "lng": 1.14534,
    "transactions": [
      {
        "date": "2025-05-06",
        "priceEur": 350700,
        "typeLocal": "Maison",
        "surfaceM2": 117,
        "isVefa": false
      },
      {
        "date": "2021-05-05",
        "priceEur": 346000,
        "typeLocal": "Maison",
        "surfaceM2": 117,
        "isVefa": false
      }
    ]
  },
  "420fa72da8ff": {
    "id": "420fa72da8ff",
    "label": "162 RUE DES PRIMEVERES, Isneauville",
    "lat": 49.497777,
    "lng": 1.149018,
    "transactions": [
      {
        "date": "2021-07-08",
        "priceEur": 395500,
        "typeLocal": "Maison",
        "surfaceM2": 184,
        "isVefa": false
      }
    ]
  },
  "7d71bb3b4d43": {
    "id": "7d71bb3b4d43",
    "label": "40 PL DES GLYCINES, Isneauville",
    "lat": 49.498655,
    "lng": 1.148306,
    "transactions": [
      {
        "date": "2021-07-16",
        "priceEur": 321600,
        "typeLocal": "Maison",
        "surfaceM2": 118,
        "isVefa": false
      }
    ]
  },
  "64fa18445404": {
    "id": "64fa18445404",
    "label": "74 RUE DES IRIS, Isneauville",
    "lat": 49.497375,
    "lng": 1.147157,
    "transactions": [
      {
        "date": "2022-04-14",
        "priceEur": 146000,
        "typeLocal": "Appartement",
        "surfaceM2": 65,
        "isVefa": false
      }
    ]
  },
  "8e9cc3d265eb": {
    "id": "8e9cc3d265eb",
    "label": "1491 RTE DE NEUFCHATEL, Isneauville",
    "lat": 49.497523,
    "lng": 1.150241,
    "transactions": [
      {
        "date": "2022-06-16",
        "priceEur": 352800,
        "typeLocal": "Maison",
        "surfaceM2": 129,
        "isVefa": false
      }
    ]
  },
  "69d3791521a1": {
    "id": "69d3791521a1",
    "label": "35 ALL DES FAUVETTES, Isneauville",
    "lat": 49.499135,
    "lng": 1.144327,
    "transactions": [
      {
        "date": "2022-07-04",
        "priceEur": 280000,
        "typeLocal": "Maison",
        "surfaceM2": 90,
        "isVefa": false
      }
    ]
  },
  "22de1292baac": {
    "id": "22de1292baac",
    "label": "80 ALL DES ROSES, Isneauville",
    "lat": 49.499227,
    "lng": 1.150571,
    "transactions": [
      {
        "date": "2022-07-28",
        "priceEur": 303500,
        "typeLocal": "Maison",
        "surfaceM2": 117,
        "isVefa": false
      }
    ]
  },
  "c0bdd8b1dcb3": {
    "id": "c0bdd8b1dcb3",
    "label": "26 RUE DES IRIS, Isneauville",
    "lat": 49.497375,
    "lng": 1.147157,
    "transactions": [
      {
        "date": "2022-08-01",
        "priceEur": 185000,
        "typeLocal": "Appartement",
        "surfaceM2": 68,
        "isVefa": false
      }
    ]
  },
  "a834930c43d4": {
    "id": "a834930c43d4",
    "label": "231 RUE DU BOUVREUIL, Isneauville",
    "lat": 49.499185,
    "lng": 1.143707,
    "transactions": [
      {
        "date": "2022-09-16",
        "priceEur": 291500,
        "typeLocal": "Maison",
        "surfaceM2": 112,
        "isVefa": false
      }
    ]
  },
  "fd12bd9af944": {
    "id": "fd12bd9af944",
    "label": "25 RUE DES PRIMEVERES, Isneauville",
    "lat": 49.496675,
    "lng": 1.148062,
    "transactions": [
      {
        "date": "2023-01-25",
        "priceEur": 326000,
        "typeLocal": "Maison",
        "surfaceM2": 102,
        "isVefa": false
      }
    ]
  },
  "cda78366debd": {
    "id": "cda78366debd",
    "label": "28 ALL DES VIOLETTES, Isneauville",
    "lat": 49.49945,
    "lng": 1.149226,
    "transactions": [
      {
        "date": "2023-02-06",
        "priceEur": 335000,
        "typeLocal": "Maison",
        "surfaceM2": 101,
        "isVefa": false
      }
    ]
  },
  "d682c6631ccb": {
    "id": "d682c6631ccb",
    "label": "417 RUE DE L EGLISE, Isneauville",
    "lat": 49.497682,
    "lng": 1.144317,
    "transactions": [
      {
        "date": "2023-02-10",
        "priceEur": 500000,
        "typeLocal": "Maison",
        "surfaceM2": 69,
        "isVefa": false
      }
    ]
  },
  "3ac5c12b041e": {
    "id": "3ac5c12b041e",
    "label": "506 RUE DE L EGLISE, Isneauville",
    "lat": 49.498416,
    "lng": 1.14327,
    "transactions": [
      {
        "date": "2023-05-12",
        "priceEur": 188500,
        "typeLocal": "Maison",
        "surfaceM2": 132,
        "isVefa": false
      }
    ]
  },
  "7334da7e01d3": {
    "id": "7334da7e01d3",
    "label": "1630 RTE DE NEUFCHATEL, Isneauville",
    "lat": 49.49803,
    "lng": 1.152151,
    "transactions": [
      {
        "date": "2023-06-27",
        "priceEur": 109000,
        "typeLocal": "Maison",
        "surfaceM2": 74,
        "isVefa": false
      }
    ]
  },
  "6419e083815b": {
    "id": "6419e083815b",
    "label": "13 ALL DU SERPOLET, Isneauville",
    "lat": 49.497622,
    "lng": 1.147432,
    "transactions": [
      {
        "date": "2023-07-21",
        "priceEur": 113750,
        "typeLocal": "Maison",
        "surfaceM2": 77,
        "isVefa": false
      }
    ]
  },
  "a80f198dd80e": {
    "id": "a80f198dd80e",
    "label": "345 RUE DE L EGLISE, Isneauville",
    "lat": 49.497606,
    "lng": 1.145222,
    "transactions": [
      {
        "date": "2023-09-19",
        "priceEur": 158000,
        "typeLocal": "Maison",
        "surfaceM2": 70,
        "isVefa": false
      }
    ]
  },
  "225caf4a1da7": {
    "id": "225caf4a1da7",
    "label": "363 RUE DE L EGLISE, Isneauville",
    "lat": 49.497682,
    "lng": 1.14499,
    "transactions": [
      {
        "date": "2023-11-29",
        "priceEur": 271500,
        "typeLocal": "Maison",
        "surfaceM2": 100,
        "isVefa": false
      }
    ]
  },
  "52eb70cfb46c": {
    "id": "52eb70cfb46c",
    "label": "42 IMP DES FAUVETTES, Isneauville",
    "lat": 49.498508,
    "lng": 1.143933,
    "transactions": [
      {
        "date": "2024-01-11",
        "priceEur": 279500,
        "typeLocal": "Maison",
        "surfaceM2": 97,
        "isVefa": false
      }
    ]
  },
  "f69e6a9aab4d": {
    "id": "f69e6a9aab4d",
    "label": "1188 RUE DU MESNIL, Isneauville",
    "lat": 49.497863,
    "lng": 1.153256,
    "transactions": [
      {
        "date": "2024-01-05",
        "priceEur": 120000,
        "typeLocal": "Maison",
        "surfaceM2": 90,
        "isVefa": false
      }
    ]
  },
  "d20546ffb8a9": {
    "id": "d20546ffb8a9",
    "label": "61 RUE DU LORIOT, Isneauville",
    "lat": 49.499098,
    "lng": 1.145719,
    "transactions": [
      {
        "date": "2024-09-13",
        "priceEur": 226000,
        "typeLocal": "Maison",
        "surfaceM2": 90,
        "isVefa": false
      }
    ]
  },
  "8cf9ecc45866": {
    "id": "8cf9ecc45866",
    "label": "202 ALL DES VIOLETTES, Isneauville",
    "lat": 49.498659,
    "lng": 1.147039,
    "transactions": [
      {
        "date": "2024-09-17",
        "priceEur": 212264,
        "typeLocal": "Maison",
        "surfaceM2": 70,
        "isVefa": false
      }
    ]
  },
  "d9032200a97f": {
    "id": "d9032200a97f",
    "label": "16 ALL DU SERPOLET, Isneauville",
    "lat": 49.49755,
    "lng": 1.14786,
    "transactions": [
      {
        "date": "2025-01-31",
        "priceEur": 305000,
        "typeLocal": "Maison",
        "surfaceM2": 104,
        "isVefa": false
      }
    ]
  },
  "ae98d44e20d5": {
    "id": "ae98d44e20d5",
    "label": "52 RUE DES PRIMEVERES, Isneauville",
    "lat": 49.496756,
    "lng": 1.149081,
    "transactions": [
      {
        "date": "2025-03-14",
        "priceEur": 368500,
        "typeLocal": "Maison",
        "surfaceM2": 117,
        "isVefa": false
      }
    ]
  },
  "1cfbcea47d18": {
    "id": "1cfbcea47d18",
    "label": "589 RUE AVRIL COEURET, Isneauville",
    "lat": 49.500801,
    "lng": 1.149378,
    "transactions": [
      {
        "date": "2025-04-11",
        "priceEur": 758300,
        "typeLocal": "Maison",
        "surfaceM2": 190,
        "isVefa": false
      }
    ]
  },
  "747c8aacc5b7": {
    "id": "747c8aacc5b7",
    "label": "21 SEN DE L EGLISE, Isneauville",
    "lat": 49.49855,
    "lng": 1.142664,
    "transactions": [
      {
        "date": "2025-04-28",
        "priceEur": 440000,
        "typeLocal": "Maison",
        "surfaceM2": 134,
        "isVefa": false
      }
    ]
  },
  "bbc858e68171": {
    "id": "bbc858e68171",
    "label": "93 ALL DU PINSON, Isneauville",
    "lat": 49.499829,
    "lng": 1.144893,
    "transactions": [
      {
        "date": "2025-05-07",
        "priceEur": 195000,
        "typeLocal": "Maison",
        "surfaceM2": 108,
        "isVefa": false
      }
    ]
  },
  "f370f0f5836b": {
    "id": "f370f0f5836b",
    "label": "309 RUE DU MANOIR, Isneauville",
    "lat": 49.496935,
    "lng": 1.144849,
    "transactions": [
      {
        "date": "2025-06-06",
        "priceEur": 386000,
        "typeLocal": "Maison",
        "surfaceM2": 81,
        "isVefa": false
      }
    ]
  }
}