{
  "c43ca167a97f": {
    "id": "c43ca167a97f",
    "label": "10 RUE GAMBETTA, Le Mesnil-Esnard",
    "lat": 49.415462,
    "lng": 1.142726,
    "transactions": [
      {
        "date": "2020-07-31",
        "priceEur": 180000,
        "typeLocal": "Maison",
        "surfaceM2": 66,
        "isVefa": false
      }
    ]
  },
  "f1633bdc2f5b": {
    "id": "f1633bdc2f5b",
    "label": "47E RTE DE DARNETAL, Le Mesnil-Esnard",
    "lat": 49.417915,
    "lng": 1.146113,
    "transactions": [
      {
        "date": "2020-07-31",
        "priceEur": 299000,
        "typeLocal": "Maison",
        "surfaceM2": 100,
        "isVefa": true
      }
    ]
  },
  "4c8f82610656": {
    "id": "4c8f82610656",
    "label": "24C RUE DE LA REPUBLIQUE, Le Mesnil-Esnard",
    "lat": 49.411832,
    "lng": 1.146257,
    "transactions": [
      {
        "date": "2020-09-02",
        "priceEur": 379650,
        "typeLocal": "Maison",
        "surfaceM2": 136,
        "isVefa": false
      }
    ]
  },
  "c73ede7c10df": {
    "id": "c73ede7c10df",
    "label": "8 RUE GAMBETTA, Le Mesnil-Esnard",
    "lat": 49.415341,
    "lng": 1.142771,
    "transactions": [
      {
        "date": "2022-11-07",
        "priceEur": 72000,
        "typeLocal": "Appartement",
        "surfaceM2": 22,
        "isVefa": false
      },
      {
        "date": "2020-10-20",
        "priceEur": 422800,
        "typeLocal": "Appartement",
        "surfaceM2": 26,
        "isVefa": false
      },
      {
        "date": "2020-10-20",
        "priceEur": 422800,
        "typeLocal": "Appartement",
        "surfaceM2": 23,
        "isVefa": false
      }
    ]
  },
  "0f425d06ab48": {
    "id": "0f425d06ab48",
    "label": "37 RUE GABRIEL DAVID, Le Mesnil-Esnard",
    "lat": 49.416521,
    "lng": 1.145099,
    "transactions": [
      {
        "date": "2021-03-31",
        "priceEur": 219500,
        "typeLocal": "Maison",
        "surfaceM2": 32,
        "isVefa": false
      },
      {
        "date": "2021-03-31",
        "priceEur": 219500,
        "typeLocal": "Maison",
        "surfaceM2": 72,
        "isVefa": false
      }
    ]
  },
  "b5fa161ea40a": {
    "id": "b5fa161ea40a",
    "label": "39 RUE GABRIEL DAVID, Le Mesnil-Esnard",
    "lat": 49.41663,
    "lng": 1.145331,
    "transactions": [
      {
        "date": "2021-04-08",
        "priceEur": 264900,
        "typeLocal": "Maison",
        "surfaceM2": 32,
        "isVefa": false
      }
    ]
  },
  "0ab1fdac9f02": {
    "id": "0ab1fdac9f02",
    "label": "3T RUE DE FRANQUEVILLE, Le Mesnil-Esnard",
    "lat": 49.412214,
    "lng": 1.147137,
    "transactions": [
      {
        "date": "2021-06-09",
        "priceEur": 242550,
        "typeLocal": "Maison",
        "surfaceM2": 119,
        "isVefa": false
      }
    ]
  },
  "1cc466a75c0d": {
    "id": "1cc466a75c0d",
    "label": "1 CHE DE ROUEN, Le Mesnil-Esnard",
    "lat": 49.416985,
    "lng": 1.145255,
    "transactions": [
      {
        "date": "2021-06-21",
        "priceEur": 312000,
        "typeLocal": "Maison",
        "surfaceM2": 115,
        "isVefa": false
      }
    ]
  },
  "af4a2f3eeb38": {
    "id": "af4a2f3eeb38",
    "label": "18 RUE GABRIEL DAVID, Le Mesnil-Esnard",
    "lat": 49.412815,
    "lng": 1.143036,
    "transactions": [
      {
        "date": "2021-07-12",
        "priceEur": 303000,
        "typeLocal": "Maison",
        "surfaceM2": 100,
        "isVefa": false
      }
    ]
  },
  "208de9b9b844": {
    "id": "208de9b9b844",
    "label": "2B RUE DE FRANQUEVILLE, Le Mesnil-Esnard",
    "lat": 49.41243,
    "lng": 1.148483,
    "transactions": [
      {
        "date": "2021-07-23",
        "priceEur": 337000,
        "typeLocal": "Maison",
        "surfaceM2": 158,
        "isVefa": false
      }
    ]
  },
  "bc57bf6dc426": {
    "id": "bc57bf6dc426",
    "label": "12 RUE D ANJOU, Le Mesnil-Esnard",
    "lat": 49.412835,
    "lng": 1.150933,
    "transactions": [
      {
        "date": "2021-09-07",
        "priceEur": 500000,
        "typeLocal": "Maison",
        "surfaceM2": 37,
        "isVefa": false
      }
    ]
  },
  "56f3656dea5e": {
    "id": "56f3656dea5e",
    "label": "5 RUE DE PICARDIE, Le Mesnil-Esnard",
    "lat": 49.411576,
    "lng": 1.151785,
    "transactions": [
      {
        "date": "2021-09-13",
        "priceEur": 306000,
        "typeLocal": "Maison",
        "surfaceM2": 105,
        "isVefa": false
      }
    ]
  },
  "d0ca2911253c": {
    "id": "d0ca2911253c",
    "label": "12 RUE PIERRE LE TRIVIDIC, Le Mesnil-Esnard",
    "lat": 49.417618,
    "lng": 1.144343,
    "transactions": [
      {
        "date": "2021-08-27",
        "priceEur": 231066,
        "typeLocal": "Maison",
        "surfaceM2": 88,
        "isVefa": false
      }
    ]
  },
  "2abd9bcf994f": {
    "id": "2abd9bcf994f",
    "label": "31 RUE GABRIEL DAVID, Le Mesnil-Esnard",
    "lat": 49.416842,
    "lng": 1.145013,
    "transactions": [
      {
        "date": "2021-09-17",
        "priceEur": 185000,
        "typeLocal": "Maison",
        "surfaceM2": 90,
        "isVefa": false
      }
    ]
  },
  "aeff367e910d": {
    "id": "aeff367e910d",
    "label": "33D RUE DE LA REPUBLIQUE, Le Mesnil-Esnard",
    "lat": 49.412394,
    "lng": 1.144935,
    "transactions": [
      {
        "date": "2021-10-26",
        "priceEur": 413000,
        "typeLocal": "Maison",
        "surfaceM2": 107,
        "isVefa": false
      }
    ]
  },
  "75faeb246d08": {
    "id": "75faeb246d08",
    "label": "6 RUE DE NORMANDIE, Le Mesnil-Esnard",
    "lat": 49.411768,
    "lng": 1.148547,
    "transactions": [
      {
        "date": "2021-11-05",
        "priceEur": 225800,
        "typeLocal": "Maison",
        "surfaceM2": 75,
        "isVefa": false
      }
    ]
  },
  "4133fd849727": {
    "id": "4133fd849727",
    "label": "7 RUE DE FRANQUEVILLE, Le Mesnil-Esnard",
    "lat": 49.412484,
    "lng": 1.146834,
    "transactions": [
      {
        "date": "2021-11-17",
        "priceEur": 190000,
        "typeLocal": "Maison",
        "surfaceM2": 48,
        "isVefa": false
      },
      {
        "date": "2021-11-17",
        "priceEur": 190000,
        "typeLocal": "Maison",
        "surfaceM2": 26,
        "isVefa": false
      },
      {
        "date": "2021-11-17",
        "priceEur": 190000,
        "typeLocal": "Appartement",
        "surfaceM2": 21,
        "isVefa": false
      }
    ]
  },
  "6482f618b5cc": {
    "id": "6482f618b5cc",
    "label": "24 RUE DE LA REPUBLIQUE, Le Mesnil-Esnard",
    "lat": 49.412346,
    "lng": 1.145617,
    "transactions": [
      {
        "date": "2022-01-31",
        "priceEur": 485750,
        "typeLocal": "Maison",
        "surfaceM2": 220,
        "isVefa": false
      }
    ]
  },
  "8aea9704b945": {
    "id": "8aea9704b945",
    "label": "21 RUE DE NORMANDIE, Le Mesnil-Esnard",
    "lat": 49.411329,
    "lng": 1.147543,
    "transactions": [
      {
        "date": "2022-05-09",
        "priceEur": 288600,
        "typeLocal": "Maison",
        "surfaceM2": 104,
        "isVefa": false
      }
    ]
  },
  "e79d60910e50": {
    "id": "e79d60910e50",
    "label": "34B RUE DE LA REPUBLIQUE, Le Mesnil-Esnard",
    "lat": 49.413201,
    "lng": 1.147374,
    "transactions": [
      {
        "date": "2022-07-07",
        "priceEur": 464500,
        "typeLocal": "Maison",
        "surfaceM2": 168,
        "isVefa": false
      }
    ]
  },
  "8b0b11778b44": {
    "id": "8b0b11778b44",
    "label": "4 RUE CHARLES SCHERER, Le Mesnil-Esnard",
    "lat": 49.414777,
    "lng": 1.144877,
    "transactions": [
      {
        "date": "2022-07-12",
        "priceEur": 630000,
        "typeLocal": "Maison",
        "surfaceM2": 166,
        "isVefa": false
      }
    ]
  },
  "12714ed292ac": {
    "id": "12714ed292ac",
    "label": "11 RUE DE FRANQUEVILLE, Le Mesnil-Esnard",
    "lat": 49.412374,
    "lng": 1.146294,
    "transactions": [
      {
        "date": "2023-03-06",
        "priceEur": 319900,
        "typeLocal": "Appartement",
        "surfaceM2": 103,
        "isVefa": true
      },
      {
        "date": "2022-07-20",
        "priceEur": 299900,
        "typeLocal": "Appartement",
        "surfaceM2": 104,
        "isVefa": true
      },
      {
        "date": "2022-07-20",
        "priceEur": 307400,
        "typeLocal": "Appartement",
        "surfaceM2": 95,
        "isVefa": true
      }
    ]
  },
  "92a77fae3b42": {
    "id": "92a77fae3b42",
    "label": "19 RUE DE FRANQUEVILLE, Le Mesnil-Esnard",
    "lat": 49.412493,
    "lng": 1.14596,
    "transactions": [
      {
        "date": "2022-07-13",
        "priceEur": 283500,
        "typeLocal": "Maison",
        "surfaceM2": 125,
        "isVefa": false
      }
    ]
  },
  "0df48fd9701d": {
    "id": "0df48fd9701d",
    "label": "14 RUE DE FRANQUEVILLE, Le Mesnil-Esnard",
    "lat": 49.41283,
    "lng": 1.146092,
    "transactions": [
      {
        "date": "2022-07-29",
        "priceEur": 227600,
        "typeLocal": "Maison",
        "surfaceM2": 85,
        "isVefa": false
      }
    ]
  },
  "6a43760e9c72": {
    "id": "6a43760e9c72",
    "label": "7 RUE DE NORMANDIE, Le Mesnil-Esnard",
    "lat": 49.411615,
    "lng": 1.146333,
    "transactions": [
      {
        "date": "2022-10-07",
        "priceEur": 250000,
        "typeLocal": "Maison",
        "surfaceM2": 75,
        "isVefa": false
      }
    ]
  },
  "843301bee7d6": {
    "id": "843301bee7d6",
    "label": "29 RUE GABRIEL DAVID, Le Mesnil-Esnard",
    "lat": 49.416679,
    "lng": 1.14438,
    "transactions": [
      {
        "date": "2022-10-25",
        "priceEur": 699000,
        "typeLocal": "Maison",
        "surfaceM2": 254,
        "isVefa": false
      }
    ]
  },
  "8359c78da397": {
    "id": "8359c78da397",
    "label": "1B RUE CHARLES SCHERER, Le Mesnil-Esnard",
    "lat": 49.413539,
    "lng": 1.145138,
    "transactions": [
      {
        "date": "2022-11-08",
        "priceEur": 317000,
        "typeLocal": "Maison",
        "surfaceM2": 102,
        "isVefa": false
      }
    ]
  },
  "45bd5fda2906": {
    "id": "45bd5fda2906",
    "label": "13C RUE DE FRANQUEVILLE, Le Mesnil-Esnard",
    "lat": 49.412667,
    "lng": 1.143996,
    "transactions": [
      {
        "date": "2022-12-05",
        "priceEur": 370000,
        "typeLocal": "Maison",
        "surfaceM2": 165,
        "isVefa": false
      }
    ]
  },
  "58be9729963b": {
    "id": "58be9729963b",
    "label": "3 RUE DE NORMANDIE, Le Mesnil-Esnard",
    "lat": 49.411189,
    "lng": 1.146154,
    "transactions": [
      {
        "date": "2022-11-29",
        "priceEur": 247000,
        "typeLocal": "Maison",
        "surfaceM2": 98,
        "isVefa": false
      }
    ]
  },
  "2a700a8ae4db": {
    "id": "2a700a8ae4db",
    "label": "1A RUE DE FRANQUEVILLE, Le Mesnil-Esnard",
    "lat": 49.412015,
    "lng": 1.149029,
    "transactions": [
      {
        "date": "2023-01-18",
        "priceEur": 274000,
        "typeLocal": "Maison",
        "surfaceM2": 73,
        "isVefa": false
      }
    ]
  },
  "06fb8d98319e": {
    "id": "06fb8d98319e",
    "label": "23 RUE DE LA REPUBLIQUE, Le Mesnil-Esnard",
    "lat": 49.411891,
    "lng": 1.143593,
    "transactions": [
      {
        "date": "2024-01-30",
        "priceEur": 294600,
        "typeLocal": "Maison",
        "surfaceM2": 100,
        "isVefa": false
      }
    ]
  },
  "3326a70a9c35": {
    "id": "3326a70a9c35",
    "label": "20 RUE GABRIEL DAVID, Le Mesnil-Esnard",
    "lat": 49.412861,
    "lng": 1.14275,
    "transactions": [
      {
        "date": "2024-01-24",
        "priceEur": 250000,
        "typeLocal": "Maison",
        "surfaceM2": 90,
        "isVefa": false
      }
    ]
  },
  "20f21a6774ab": {
    "id": "20f21a6774ab",
    "label": "8 SQ DE FLANDRES, Le Mesnil-Esnard",
    "lat": 49.412407,
    "lng": 1.151168,
    "transactions": [
      {
        "date": "2024-08-23",
        "priceEur": 359200,
        "typeLocal": "Maison",
        "surfaceM2": 123,
        "isVefa": false
      }
    ]
  },
  "94dcfd174d0d": {
    "id": "94dcfd174d0d",
    "label": "17 RUE DE NORMANDIE, Le Mesnil-Esnard",
    "lat": 49.41166,
    "lng": 1.147882,
    "transactions": [
      {
        "date": "2024-08-12",
        "priceEur": 324000,
        "typeLocal": "Maison",
        "surfaceM2": 112,
        "isVefa": false
      }
    ]
  },
  "7673613700f2": {
    "id": "7673613700f2",
    "label": "16A RUE DE FRANQUEVILLE, Le Mesnil-Esnard",
    "lat": 49.413513,
    "lng": 1.143781,
    "transactions": [
      {
        "date": "2024-09-26",
        "priceEur": 160000,
        "typeLocal": "Maison",
        "surfaceM2": 60,
        "isVefa": false
      }
    ]
  },
  "a1cab435b1fd": {
    "id": "a1cab435b1fd",
    "label": "43 RUE GABRIEL DAVID, Le Mesnil-Esnard",
    "lat": 49.416786,
    "lng": 1.145394,
    "transactions": [
      {
        "date": "2024-10-15",
        "priceEur": 120000,
        "typeLocal": "Maison",
        "surfaceM2": 160,
        "isVefa": false
      }
    ]
  },
  "43c4fea4df00": {
    "id": "43c4fea4df00",
    "label": "9 RUE DE PROVENCE, Le Mesnil-Esnard",
    "lat": 49.413331,
    "lng": 1.148723,
    "transactions": [
      {
        "date": "2025-01-10",
        "priceEur": 329000,
        "typeLocal": "Maison",
        "surfaceM2": 112,
        "isVefa": false
      }
    ]
  },
  "04f568e18a1e": {
    "id": "04f568e18a1e",
    "label": "6 CHE DE ROUEN, Le Mesnil-Esnard",
    "lat": 49.418006,
    "lng": 1.145296,
    "transactions": [
      {
        "date": "2025-04-11",
        "priceEur": 173000,
        "typeLocal": "Maison",
        "surfaceM2": 93,
        "isVefa": false
      }
    ]
  },
  "e2ed5d58550d": {
    "id": "e2ed5d58550d",
    "label": "9D RUE CHARLES SCHERER, Le Mesnil-Esnard",
    "lat": 49.414425,
    "lng": 1.144159,
    "transactions": [
      {
        "date": "2025-04-09",
        "priceEur": 333000,
        "typeLocal": "Maison",
        "surfaceM2": 98,
        "isVefa": false
      }
    ]
  }
}