{
  "1be552138b03": {
    "id": "1be552138b03",
    "label": "7 ALL DES ARENASSES, Vendargues",
    "lat": 43.660444,
    "lng": 3.979531,
    "transactions": [
      {
        "date": "2020-09-16",
        "priceEur": 400000,
        "typeLocal": "Maison",
        "surfaceM2": 111,
        "isVefa": false
      }
    ]
  },
  "cb2356242b1f": {
    "id": "cb2356242b1f",
    "label": "3 ALL DES ARENASSES, Vendargues",
    "lat": 43.660069,
    "lng": 3.979715,
    "transactions": [
      {
        "date": "2021-01-15",
        "priceEur": 289850,
        "typeLocal": "Appartement",
        "surfaceM2": 87,
        "isVefa": false
      }
    ]
  },
  "4b85360676cc": {
    "id": "4b85360676cc",
    "label": "55 RUE DE LA MONNAIE, Vendargues",
    "lat": 43.662635,
    "lng": 3.977653,
    "transactions": [
      {
        "date": "2021-01-25",
        "priceEur": 334000,
        "typeLocal": "Maison",
        "surfaceM2": 110,
        "isVefa": false
      }
    ]
  },
  "a8b802baed5e": {
    "id": "a8b802baed5e",
    "label": "2 RUE GEORGES BIZET, Vendargues",
    "lat": 43.661605,
    "lng": 3.977589,
    "transactions": [
      {
        "date": "2022-10-05",
        "priceEur": 309100,
        "typeLocal": "Maison",
        "surfaceM2": 55,
        "isVefa": false
      }
    ]
  },
  "7b60f2220ca0": {
    "id": "7b60f2220ca0",
    "label": "2 RUE JEAN MOULIN, Vendargues",
    "lat": 43.66013,
    "lng": 3.977255,
    "transactions": [
      {
        "date": "2022-11-03",
        "priceEur": 420000,
        "typeLocal": "Maison",
        "surfaceM2": 110,
        "isVefa": false
      }
    ]
  },
  "64d2069e9166": {
    "id": "64d2069e9166",
    "label": "16 RUE JACQUES OFFENBACH, Vendargues",
    "lat": 43.661277,
    "lng": 3.978478,
    "transactions": [
      {
        "date": "2023-05-15",
        "priceEur": 375600,
        "typeLocal": "Maison",
        "surfaceM2": 75,
        "isVefa": false
      }
    ]
  },
  "00d4bf0a9e3f": {
    "id": "00d4bf0a9e3f",
    "label": "3 IMP JEAN MOULIN, Vendargues",
    "lat": 43.660393,
    "lng": 3.979275,
    "transactions": [
      {
        "date": "2023-09-07",
        "priceEur": 427000,
        "typeLocal": "Maison",
        "surfaceM2": 88,
        "isVefa": false
      }
    ]
  },
  "f634269ed6da": {
    "id": "f634269ed6da",
    "label": "1 RUE JEAN JAURES, Vendargues",
    "lat": 43.660388,
    "lng": 3.977138,
    "transactions": [
      {
        "date": "2024-09-17",
        "priceEur": 352400,
        "typeLocal": "Maison",
        "surfaceM2": 77,
        "isVefa": false
      }
    ]
  },
  "d0650b6c59be": {
    "id": "d0650b6c59be",
    "label": "23 RUE DES CISTES, Vendargues",
    "lat": 43.660174,
    "lng": 3.977487,
    "transactions": [
      {
        "date": "2025-01-28",
        "priceEur": 330000,
        "typeLocal": "Maison",
        "surfaceM2": 74,
        "isVefa": false
      }
    ]
  },
  "71f0a9c3ec78": {
    "id": "71f0a9c3ec78",
    "label": "3 IMP DU PHENIX, Vendargues",
    "lat": 43.665838,
    "lng": 3.977208,
    "transactions": [
      {
        "date": "2025-02-06",
        "priceEur": 320520,
        "typeLocal": "Maison",
        "surfaceM2": 87,
        "isVefa": false
      }
    ]
  }
}