{
  "9e0e601096d4": {
    "id": "9e0e601096d4",
    "label": "42 RUE FREDERIC BAZILLE, Castries",
    "lat": 43.678632,
    "lng": 3.977119,
    "transactions": [
      {
        "date": "2021-02-09",
        "priceEur": 347360,
        "typeLocal": "Maison",
        "surfaceM2": 79,
        "isVefa": false
      }
    ]
  },
  "3ed603b73afd": {
    "id": "3ed603b73afd",
    "label": "19B AV DE MONTPELLIER, Castries",
    "lat": 43.676228,
    "lng": 3.984078,
    "transactions": [
      {
        "date": "2021-02-09",
        "priceEur": 231000,
        "typeLocal": "Appartement",
        "surfaceM2": 79,
        "isVefa": false
      }
    ]
  },
  "31c7d0aff408": {
    "id": "31c7d0aff408",
    "label": "12 RUE DE L ARGENTERIE, Castries",
    "lat": 43.677986,
    "lng": 3.984668,
    "transactions": [
      {
        "date": "2021-03-01",
        "priceEur": 350000,
        "typeLocal": "Maison",
        "surfaceM2": 142,
        "isVefa": false
      }
    ]
  },
  "04d1da2fca8b": {
    "id": "04d1da2fca8b",
    "label": "14B AV DU 8 MAI 1945, Castries",
    "lat": 43.676285,
    "lng": 3.985228,
    "transactions": [
      {
        "date": "2021-03-12",
        "priceEur": 529173,
        "typeLocal": "Maison",
        "surfaceM2": 147,
        "isVefa": false
      }
    ]
  },
  "3f2960f562f8": {
    "id": "3f2960f562f8",
    "label": "11 AV DE SOMMIERES, Castries",
    "lat": 43.679009,
    "lng": 3.985197,
    "transactions": [
      {
        "date": "2021-03-05",
        "priceEur": 368800,
        "typeLocal": "Maison",
        "surfaceM2": 139,
        "isVefa": false
      }
    ]
  },
  "993f34d2fa89": {
    "id": "993f34d2fa89",
    "label": "2B AV DE LA COOPERATIVE, Castries",
    "lat": 43.676803,
    "lng": 3.98284,
    "transactions": [
      {
        "date": "2021-03-26",
        "priceEur": 151900,
        "typeLocal": "Appartement",
        "surfaceM2": 48,
        "isVefa": false
      }
    ]
  },
  "74cfd13b88ad": {
    "id": "74cfd13b88ad",
    "label": "10 RUE PLAN DU FOUR, Castries",
    "lat": 43.678227,
    "lng": 3.985012,
    "transactions": [
      {
        "date": "2024-08-08",
        "priceEur": 120000,
        "typeLocal": "Appartement",
        "surfaceM2": 60,
        "isVefa": false
      },
      {
        "date": "2021-04-09",
        "priceEur": 169000,
        "typeLocal": "Appartement",
        "surfaceM2": 20,
        "isVefa": false
      },
      {
        "date": "2021-04-09",
        "priceEur": 169000,
        "typeLocal": "Appartement",
        "surfaceM2": 20,
        "isVefa": false
      },
      {
        "date": "2021-04-09",
        "priceEur": 169000,
        "typeLocal": "Appartement",
        "surfaceM2": 15,
        "isVefa": false
      }
    ]
  },
  "1c00850849bc": {
    "id": "1c00850849bc",
    "label": "5B AV DES PINS, Castries",
    "lat": 43.683258,
    "lng": 3.985646,
    "transactions": [
      {
        "date": "2021-04-14",
        "priceEur": 530200,
        "typeLocal": "Maison",
        "surfaceM2": 138,
        "isVefa": false
      }
    ]
  },
  "7252e55d53e9": {
    "id": "7252e55d53e9",
    "label": "1 IMP DU PRESBYTERE, Castries",
    "lat": 43.677331,
    "lng": 3.986086,
    "transactions": [
      {
        "date": "2021-05-07",
        "priceEur": 106800,
        "typeLocal": "Maison",
        "surfaceM2": 30,
        "isVefa": false
      }
    ]
  },
  "34bab352f1e5": {
    "id": "34bab352f1e5",
    "label": "59 RUE FREDERIC BAZILLE, Castries",
    "lat": 43.678456,
    "lng": 3.978098,
    "transactions": [
      {
        "date": "2021-05-27",
        "priceEur": 250000,
        "typeLocal": "Maison",
        "surfaceM2": 79,
        "isVefa": false
      }
    ]
  },
  "46e2c423df02": {
    "id": "46e2c423df02",
    "label": "19 IMP DE LA BRISE, Castries",
    "lat": 43.679348,
    "lng": 3.977917,
    "transactions": [
      {
        "date": "2021-05-31",
        "priceEur": 353400,
        "typeLocal": "Maison",
        "surfaceM2": 88,
        "isVefa": false
      }
    ]
  },
  "990b6c3cdbec": {
    "id": "990b6c3cdbec",
    "label": "23 RUE DES ALIZES, Castries",
    "lat": 43.679608,
    "lng": 3.978434,
    "transactions": [
      {
        "date": "2021-06-07",
        "priceEur": 311500,
        "typeLocal": "Maison",
        "surfaceM2": 93,
        "isVefa": false
      }
    ]
  },
  "f477bfe0a592": {
    "id": "f477bfe0a592",
    "label": "13 RUE DU BALCON ROND, Castries",
    "lat": 43.678974,
    "lng": 3.985775,
    "transactions": [
      {
        "date": "2021-05-26",
        "priceEur": 190000,
        "typeLocal": "Maison",
        "surfaceM2": 72,
        "isVefa": false
      }
    ]
  },
  "507603b476dc": {
    "id": "507603b476dc",
    "label": "24 RUE DES OLIVETTES, Castries",
    "lat": 43.683182,
    "lng": 3.977279,
    "transactions": [
      {
        "date": "2021-07-13",
        "priceEur": 570500,
        "typeLocal": "Maison",
        "surfaceM2": 156,
        "isVefa": false
      }
    ]
  },
  "d2183f915177": {
    "id": "d2183f915177",
    "label": "5 RUE DU BALCON ROND, Castries",
    "lat": 43.678409,
    "lng": 3.985806,
    "transactions": [
      {
        "date": "2021-07-05",
        "priceEur": 362320,
        "typeLocal": "Maison",
        "surfaceM2": 145,
        "isVefa": false
      }
    ]
  },
  "d00fb0805c91": {
    "id": "d00fb0805c91",
    "label": "22 AV DU PIC ST LOUP, Castries",
    "lat": 43.682423,
    "lng": 3.978259,
    "transactions": [
      {
        "date": "2021-07-09",
        "priceEur": 459240,
        "typeLocal": "Maison",
        "surfaceM2": 100,
        "isVefa": false
      }
    ]
  },
  "a955595b8b3f": {
    "id": "a955595b8b3f",
    "label": "16 RUE DU CHATEAU, Castries",
    "lat": 43.676886,
    "lng": 3.986841,
    "transactions": [
      {
        "date": "2022-07-01",
        "priceEur": 201400,
        "typeLocal": "Appartement",
        "surfaceM2": 51,
        "isVefa": false
      },
      {
        "date": "2021-07-08",
        "priceEur": 370000,
        "typeLocal": "Appartement",
        "surfaceM2": 130,
        "isVefa": false
      }
    ]
  },
  "bd3b24765667": {
    "id": "bd3b24765667",
    "label": "5 RUE DU CAPITAINE MOREAU, Castries",
    "lat": 43.677195,
    "lng": 3.983045,
    "transactions": [
      {
        "date": "2021-08-05",
        "priceEur": 390000,
        "typeLocal": "Maison",
        "surfaceM2": 120,
        "isVefa": false
      }
    ]
  },
  "492d4baa0acb": {
    "id": "492d4baa0acb",
    "label": "3 RUE DU CANTONNAT, Castries",
    "lat": 43.677767,
    "lng": 3.986925,
    "transactions": [
      {
        "date": "2022-10-14",
        "priceEur": 75150,
        "typeLocal": "Maison",
        "surfaceM2": 19,
        "isVefa": false
      },
      {
        "date": "2021-07-29",
        "priceEur": 65600,
        "typeLocal": "Maison",
        "surfaceM2": 19,
        "isVefa": false
      }
    ]
  },
  "5f11ac96ba1d": {
    "id": "5f11ac96ba1d",
    "label": "45 RUE DE LA COLLINE, Castries",
    "lat": 43.681823,
    "lng": 3.978631,
    "transactions": [
      {
        "date": "2021-08-12",
        "priceEur": 346300,
        "typeLocal": "Maison",
        "surfaceM2": 83,
        "isVefa": false
      }
    ]
  },
  "9755e17f1ca7": {
    "id": "9755e17f1ca7",
    "label": "19 RUE DE LA PIERRE BLEUE, Castries",
    "lat": 43.682495,
    "lng": 3.986966,
    "transactions": [
      {
        "date": "2021-08-13",
        "priceEur": 630000,
        "typeLocal": "Maison",
        "surfaceM2": 143,
        "isVefa": false
      },
      {
        "date": "2021-08-13",
        "priceEur": 630000,
        "typeLocal": "Maison",
        "surfaceM2": 143,
        "isVefa": false
      }
    ]
  },
  "83e88cfccf12": {
    "id": "83e88cfccf12",
    "label": "14 RUE DE LA TAILLADE, Castries",
    "lat": 43.679727,
    "lng": 3.981362,
    "transactions": [
      {
        "date": "2024-06-28",
        "priceEur": 310000,
        "typeLocal": "Appartement",
        "surfaceM2": 65,
        "isVefa": false
      },
      {
        "date": "2023-05-15",
        "priceEur": 319000,
        "typeLocal": "Appartement",
        "surfaceM2": 63,
        "isVefa": false
      },
      {
        "date": "2022-06-29",
        "priceEur": 360000,
        "typeLocal": "Appartement",
        "surfaceM2": 67,
        "isVefa": false
      },
      {
        "date": "2022-04-25",
        "priceEur": 260000,
        "typeLocal": "Appartement",
        "surfaceM2": 58,
        "isVefa": false
      },
      {
        "date": "2021-08-18",
        "priceEur": 229500,
        "typeLocal": "Appartement",
        "surfaceM2": 48,
        "isVefa": true
      }
    ]
  },
  "05bc69e7fcda": {
    "id": "05bc69e7fcda",
    "label": "2 PL EMILE GRANIER, Castries",
    "lat": 43.678064,
    "lng": 3.985528,
    "transactions": [
      {
        "date": "2021-08-10",
        "priceEur": 300000,
        "typeLocal": "Maison",
        "surfaceM2": 85,
        "isVefa": false
      }
    ]
  },
  "e139400a1856": {
    "id": "e139400a1856",
    "label": "49 RUE DE LA COLLINE, Castries",
    "lat": 43.681923,
    "lng": 3.97731,
    "transactions": [
      {
        "date": "2021-08-06",
        "priceEur": 355000,
        "typeLocal": "Maison",
        "surfaceM2": 139,
        "isVefa": false
      }
    ]
  },
  "4e40f4f6caea": {
    "id": "4e40f4f6caea",
    "label": "12 RUE DES ARCEAUX, Castries",
    "lat": 43.679422,
    "lng": 3.985273,
    "transactions": [
      {
        "date": "2021-08-30",
        "priceEur": 219000,
        "typeLocal": "Maison",
        "surfaceM2": 65,
        "isVefa": false
      }
    ]
  },
  "da6b0369d6ad": {
    "id": "da6b0369d6ad",
    "label": "28 AV DE MONTPELLIER, Castries",
    "lat": 43.676147,
    "lng": 3.983379,
    "transactions": [
      {
        "date": "2025-06-17",
        "priceEur": 277000,
        "typeLocal": "Appartement",
        "surfaceM2": 62,
        "isVefa": false
      },
      {
        "date": "2021-08-20",
        "priceEur": 239132,
        "typeLocal": "Appartement",
        "surfaceM2": 62,
        "isVefa": false
      }
    ]
  },
  "503d93f3432d": {
    "id": "503d93f3432d",
    "label": "3 IMP DU SQUARE, Castries",
    "lat": 43.677713,
    "lng": 3.986608,
    "transactions": [
      {
        "date": "2021-09-21",
        "priceEur": 269000,
        "typeLocal": "Maison",
        "surfaceM2": 92,
        "isVefa": false
      }
    ]
  },
  "0a43f643c2ac": {
    "id": "0a43f643c2ac",
    "label": "12 RUE DE LA TAILLADE, Castries",
    "lat": 43.679339,
    "lng": 3.981719,
    "transactions": [
      {
        "date": "2021-09-30",
        "priceEur": 624000,
        "typeLocal": "Maison",
        "surfaceM2": 154,
        "isVefa": false
      },
      {
        "date": "2021-09-30",
        "priceEur": 624000,
        "typeLocal": "Maison",
        "surfaceM2": 154,
        "isVefa": false
      }
    ]
  },
  "dd40f614feed": {
    "id": "dd40f614feed",
    "label": "22 RUE DES OLIVETTES, Castries",
    "lat": 43.683199,
    "lng": 3.977534,
    "transactions": [
      {
        "date": "2021-10-11",
        "priceEur": 501200,
        "typeLocal": "Maison",
        "surfaceM2": 123,
        "isVefa": false
      }
    ]
  },
  "7bb08242e0f7": {
    "id": "7bb08242e0f7",
    "label": "16 RUE DU COURS COMPLEMENTAIRE, Castries",
    "lat": 43.678186,
    "lng": 3.981654,
    "transactions": [
      {
        "date": "2021-10-15",
        "priceEur": 305000,
        "typeLocal": "Maison",
        "surfaceM2": 90,
        "isVefa": false
      }
    ]
  },
  "7bf8b154cff8": {
    "id": "7bf8b154cff8",
    "label": "38 RUE FREDERIC BAZILLE, Castries",
    "lat": 43.678718,
    "lng": 3.978029,
    "transactions": [
      {
        "date": "2021-10-25",
        "priceEur": 344340,
        "typeLocal": "Maison",
        "surfaceM2": 78,
        "isVefa": false
      }
    ]
  },
  "de8c24868a7e": {
    "id": "de8c24868a7e",
    "label": "3 RUE DE LA GARRIGUE, Castries",
    "lat": 43.682724,
    "lng": 3.979474,
    "transactions": [
      {
        "date": "2021-10-28",
        "priceEur": 693790,
        "typeLocal": "Maison",
        "surfaceM2": 123,
        "isVefa": false
      }
    ]
  },
  "650bd2ffccf1": {
    "id": "650bd2ffccf1",
    "label": "1 RUE DE LA PIERRE BLEUE, Castries",
    "lat": 43.680845,
    "lng": 3.986363,
    "transactions": [
      {
        "date": "2021-11-05",
        "priceEur": 265000,
        "typeLocal": "Maison",
        "surfaceM2": 132,
        "isVefa": false
      }
    ]
  },
  "ab791ae43e73": {
    "id": "ab791ae43e73",
    "label": "4 IMP DU PETIT BOIS, Castries",
    "lat": 43.681374,
    "lng": 3.985632,
    "transactions": [
      {
        "date": "2021-10-29",
        "priceEur": 610000,
        "typeLocal": "Maison",
        "surfaceM2": 181,
        "isVefa": false
      },
      {
        "date": "2021-10-29",
        "priceEur": 610000,
        "typeLocal": "Maison",
        "surfaceM2": 181,
        "isVefa": false
      }
    ]
  },
  "cc5377ac3b35": {
    "id": "cc5377ac3b35",
    "label": "3B IMP DU SQUARE, Castries",
    "lat": 43.677679,
    "lng": 3.986555,
    "transactions": [
      {
        "date": "2021-11-23",
        "priceEur": 219000,
        "typeLocal": "Maison",
        "surfaceM2": 61,
        "isVefa": false
      }
    ]
  },
  "0be42f7ccdb0": {
    "id": "0be42f7ccdb0",
    "label": "17 AV DE SOMMIERES, Castries",
    "lat": 43.679075,
    "lng": 3.985538,
    "transactions": [
      {
        "date": "2021-12-27",
        "priceEur": 98000,
        "typeLocal": "Maison",
        "surfaceM2": 45,
        "isVefa": false
      }
    ]
  },
  "49f2aa4d80fd": {
    "id": "49f2aa4d80fd",
    "label": "8 RUE DU BALCON ROND, Castries",
    "lat": 43.678845,
    "lng": 3.98626,
    "transactions": [
      {
        "date": "2021-12-16",
        "priceEur": 470250,
        "typeLocal": "Maison",
        "surfaceM2": 122,
        "isVefa": false
      }
    ]
  },
  "6690aca131ea": {
    "id": "6690aca131ea",
    "label": "11 AV DE LA PROMENADE, Castries",
    "lat": 43.677145,
    "lng": 3.985102,
    "transactions": [
      {
        "date": "2021-12-28",
        "priceEur": 147950,
        "typeLocal": "Maison",
        "surfaceM2": 67,
        "isVefa": false
      }
    ]
  },
  "f7a1034cdc72": {
    "id": "f7a1034cdc72",
    "label": "4 RUE SAINTE CATHERINE, Castries",
    "lat": 43.676508,
    "lng": 3.985866,
    "transactions": [
      {
        "date": "2023-06-09",
        "priceEur": 240000,
        "typeLocal": "Maison",
        "surfaceM2": 60,
        "isVefa": false
      },
      {
        "date": "2021-12-17",
        "priceEur": 150000,
        "typeLocal": "Maison",
        "surfaceM2": 60,
        "isVefa": false
      }
    ]
  },
  "353bc425305b": {
    "id": "353bc425305b",
    "label": "27 RUE DES AIRES, Castries",
    "lat": 43.679923,
    "lng": 3.982104,
    "transactions": [
      {
        "date": "2022-01-12",
        "priceEur": 160000,
        "typeLocal": "Maison",
        "surfaceM2": 84,
        "isVefa": false
      }
    ]
  },
  "7f4a6c2f5723": {
    "id": "7f4a6c2f5723",
    "label": "68 RUE FREDERIC BAZILLE, Castries",
    "lat": 43.677847,
    "lng": 3.978426,
    "transactions": [
      {
        "date": "2022-01-13",
        "priceEur": 351000,
        "typeLocal": "Maison",
        "surfaceM2": 79,
        "isVefa": false
      }
    ]
  },
  "f6a22c88b7a4": {
    "id": "f6a22c88b7a4",
    "label": "19 AV DE LA RIVIERE, Castries",
    "lat": 43.676227,
    "lng": 3.980336,
    "transactions": [
      {
        "date": "2022-02-03",
        "priceEur": 798130,
        "typeLocal": "Maison",
        "surfaceM2": 117,
        "isVefa": false
      },
      {
        "date": "2022-02-03",
        "priceEur": 798130,
        "typeLocal": "Maison",
        "surfaceM2": 117,
        "isVefa": false
      }
    ]
  },
  "fa7f247d78ab": {
    "id": "fa7f247d78ab",
    "label": "11 AV DU 8 MAI 1945, Castries",
    "lat": 43.676954,
    "lng": 3.984664,
    "transactions": [
      {
        "date": "2022-01-26",
        "priceEur": 344750,
        "typeLocal": "Maison",
        "surfaceM2": 97,
        "isVefa": false
      }
    ]
  },
  "431a37cf36eb": {
    "id": "431a37cf36eb",
    "label": "5 RUE DES AIRES, Castries",
    "lat": 43.679311,
    "lng": 3.983887,
    "transactions": [
      {
        "date": "2022-02-11",
        "priceEur": 150000,
        "typeLocal": "Appartement",
        "surfaceM2": 42,
        "isVefa": false
      }
    ]
  },
  "dba53745dca5": {
    "id": "dba53745dca5",
    "label": "97 RUE PAUL CEZANNE, Castries",
    "lat": 43.677464,
    "lng": 3.978756,
    "transactions": [
      {
        "date": "2022-09-29",
        "priceEur": 382310,
        "typeLocal": "Maison",
        "surfaceM2": 79,
        "isVefa": false
      },
      {
        "date": "2022-02-24",
        "priceEur": 345010,
        "typeLocal": "Maison",
        "surfaceM2": 79,
        "isVefa": false
      }
    ]
  },
  "dbf17e338cbe": {
    "id": "dbf17e338cbe",
    "label": "21 RUE DES ARCEAUX, Castries",
    "lat": 43.68022,
    "lng": 3.983113,
    "transactions": [
      {
        "date": "2022-03-07",
        "priceEur": 642452,
        "typeLocal": "Maison",
        "surfaceM2": 110,
        "isVefa": false
      }
    ]
  },
  "9f0dabb8da79": {
    "id": "9f0dabb8da79",
    "label": "46 RUE DU SIMOUN, Castries",
    "lat": 43.679193,
    "lng": 3.977418,
    "transactions": [
      {
        "date": "2022-03-16",
        "priceEur": 393400,
        "typeLocal": "Maison",
        "surfaceM2": 100,
        "isVefa": false
      }
    ]
  },
  "a9399320b3d4": {
    "id": "a9399320b3d4",
    "label": "7 AV DU PIC ST LOUP, Castries",
    "lat": 43.681794,
    "lng": 3.979404,
    "transactions": [
      {
        "date": "2022-03-16",
        "priceEur": 140000,
        "typeLocal": "Maison",
        "surfaceM2": 90,
        "isVefa": false
      },
      {
        "date": "2022-03-16",
        "priceEur": 140000,
        "typeLocal": "Maison",
        "surfaceM2": 56,
        "isVefa": false
      }
    ]
  },
  "18265e953ecb": {
    "id": "18265e953ecb",
    "label": "13B RUE DU CANTONNAT, Castries",
    "lat": 43.678011,
    "lng": 3.986861,
    "transactions": [
      {
        "date": "2022-04-14",
        "priceEur": 74000,
        "typeLocal": "Appartement",
        "surfaceM2": 22,
        "isVefa": false
      }
    ]
  },
  "41d985fdb4b6": {
    "id": "41d985fdb4b6",
    "label": "7 AV DES PINS, Castries",
    "lat": 43.683332,
    "lng": 3.985765,
    "transactions": [
      {
        "date": "2022-04-14",
        "priceEur": 525000,
        "typeLocal": "Maison",
        "surfaceM2": 220,
        "isVefa": false
      }
    ]
  },
  "a8fc91d73dbc": {
    "id": "a8fc91d73dbc",
    "label": "8 RUE SAINTE CATHERINE, Castries",
    "lat": 43.67589,
    "lng": 3.98502,
    "transactions": [
      {
        "date": "2022-04-26",
        "priceEur": 530000,
        "typeLocal": "Maison",
        "surfaceM2": 162,
        "isVefa": false
      }
    ]
  },
  "d28618d9ea99": {
    "id": "d28618d9ea99",
    "label": "16 RUE DU LIEUTENANT PAUL CALS, Castries",
    "lat": 43.676512,
    "lng": 3.987002,
    "transactions": [
      {
        "date": "2022-04-27",
        "priceEur": 252948,
        "typeLocal": "Maison",
        "surfaceM2": 65,
        "isVefa": false
      }
    ]
  },
  "3750662c4e4e": {
    "id": "3750662c4e4e",
    "label": "15 AV DE SOMMIERES, Castries",
    "lat": 43.679021,
    "lng": 3.985417,
    "transactions": [
      {
        "date": "2022-05-06",
        "priceEur": 125000,
        "typeLocal": "Maison",
        "surfaceM2": 65,
        "isVefa": false
      }
    ]
  },
  "7b6a9b8dfea0": {
    "id": "7b6a9b8dfea0",
    "label": "6 AV DU MOULIN A VENT, Castries",
    "lat": 43.67756,
    "lng": 3.982146,
    "transactions": [
      {
        "date": "2022-05-25",
        "priceEur": 350000,
        "typeLocal": "Maison",
        "surfaceM2": 90,
        "isVefa": false
      }
    ]
  },
  "9bb66ea1d61e": {
    "id": "9bb66ea1d61e",
    "label": "1 AV DE LA COOPERATIVE, Castries",
    "lat": 43.676377,
    "lng": 3.983287,
    "transactions": [
      {
        "date": "2022-05-25",
        "priceEur": 220000,
        "typeLocal": "Maison",
        "surfaceM2": 60,
        "isVefa": false
      }
    ]
  },
  "c57dc55578ad": {
    "id": "c57dc55578ad",
    "label": "94B IMP JEAN HONORE FRAGONARD, Castries",
    "lat": 43.677656,
    "lng": 3.98045,
    "transactions": [
      {
        "date": "2022-06-24",
        "priceEur": 357640,
        "typeLocal": "Maison",
        "surfaceM2": 96,
        "isVefa": false
      }
    ]
  },
  "3368446a7792": {
    "id": "3368446a7792",
    "label": "80 IMP FRANCOIS XAVIER FABRE, Castries",
    "lat": 43.67776,
    "lng": 3.979806,
    "transactions": [
      {
        "date": "2022-07-06",
        "priceEur": 325000,
        "typeLocal": "Maison",
        "surfaceM2": 79,
        "isVefa": false
      }
    ]
  },
  "6df2f3e264ca": {
    "id": "6df2f3e264ca",
    "label": "10 AV DE SOMMIERES, Castries",
    "lat": 43.678668,
    "lng": 3.98519,
    "transactions": [
      {
        "date": "2022-07-20",
        "priceEur": 182000,
        "typeLocal": "Maison",
        "surfaceM2": 102,
        "isVefa": false
      }
    ]
  },
  "2f319927b2b9": {
    "id": "2f319927b2b9",
    "label": "10 RUE DES ARCEAUX, Castries",
    "lat": 43.679373,
    "lng": 3.985457,
    "transactions": [
      {
        "date": "2022-07-26",
        "priceEur": 335000,
        "typeLocal": "Appartement",
        "surfaceM2": 75,
        "isVefa": false
      },
      {
        "date": "2022-07-26",
        "priceEur": 335000,
        "typeLocal": "Appartement",
        "surfaceM2": 75,
        "isVefa": false
      }
    ]
  },
  "8183d70992b4": {
    "id": "8183d70992b4",
    "label": "23 AV DE MONTPELLIER, Castries",
    "lat": 43.676089,
    "lng": 3.983911,
    "transactions": [
      {
        "date": "2022-09-27",
        "priceEur": 306600,
        "typeLocal": "Maison",
        "surfaceM2": 77,
        "isVefa": false
      }
    ]
  },
  "4144d423c5e7": {
    "id": "4144d423c5e7",
    "label": "14 RUE DU COURS COMPLEMENTAIRE, Castries",
    "lat": 43.678474,
    "lng": 3.982536,
    "transactions": [
      {
        "date": "2022-10-13",
        "priceEur": 360970,
        "typeLocal": "Appartement",
        "surfaceM2": 81,
        "isVefa": false
      }
    ]
  },
  "133bb018f823": {
    "id": "133bb018f823",
    "label": "4 RUE DES ARCEAUX, Castries",
    "lat": 43.679231,
    "lng": 3.985596,
    "transactions": [
      {
        "date": "2022-10-11",
        "priceEur": 228521,
        "typeLocal": "Maison",
        "surfaceM2": 65,
        "isVefa": false
      }
    ]
  },
  "a3a86e9b2819": {
    "id": "a3a86e9b2819",
    "label": "1 MTE DE L'ARCHE, Castries",
    "lat": 43.677025,
    "lng": 3.986491,
    "transactions": [
      {
        "date": "2022-10-21",
        "priceEur": 477171,
        "typeLocal": "Maison",
        "surfaceM2": 130,
        "isVefa": false
      }
    ]
  },
  "f5dc304962ba": {
    "id": "f5dc304962ba",
    "label": "8 RUE DE LA TAILLADE, Castries",
    "lat": 43.678865,
    "lng": 3.981694,
    "transactions": [
      {
        "date": "2022-11-09",
        "priceEur": 424500,
        "typeLocal": "Maison",
        "surfaceM2": 112,
        "isVefa": false
      }
    ]
  },
  "f7dc3a0b591d": {
    "id": "f7dc3a0b591d",
    "label": "18 RUE DU CHATEAU, Castries",
    "lat": 43.676858,
    "lng": 3.987083,
    "transactions": [
      {
        "date": "2022-11-15",
        "priceEur": 289200,
        "typeLocal": "Appartement",
        "surfaceM2": 66,
        "isVefa": false
      }
    ]
  },
  "23f695409d9f": {
    "id": "23f695409d9f",
    "label": "37 RUE DE LA TRAMONTANE, Castries",
    "lat": 43.680619,
    "lng": 3.977415,
    "transactions": [
      {
        "date": "2022-11-16",
        "priceEur": 361000,
        "typeLocal": "Maison",
        "surfaceM2": 84,
        "isVefa": false
      }
    ]
  },
  "2b7118c7a083": {
    "id": "2b7118c7a083",
    "label": "1 IMP DU LIERRE, Castries",
    "lat": 43.676161,
    "lng": 3.986355,
    "transactions": [
      {
        "date": "2022-11-10",
        "priceEur": 431000,
        "typeLocal": "Maison",
        "surfaceM2": 105,
        "isVefa": false
      }
    ]
  },
  "f5f58aaf7bba": {
    "id": "f5f58aaf7bba",
    "label": "31 AV DE LA GARE, Castries",
    "lat": 43.676563,
    "lng": 3.9874,
    "transactions": [
      {
        "date": "2022-11-21",
        "priceEur": 220000,
        "typeLocal": "Maison",
        "surfaceM2": 77,
        "isVefa": false
      }
    ]
  },
  "0fa159846d54": {
    "id": "0fa159846d54",
    "label": "117 RUE HENRI MATISSE, Castries",
    "lat": 43.675981,
    "lng": 3.978763,
    "transactions": [
      {
        "date": "2022-12-09",
        "priceEur": 560950,
        "typeLocal": "Maison",
        "surfaceM2": 130,
        "isVefa": false
      }
    ]
  },
  "fac548078db0": {
    "id": "fac548078db0",
    "label": "1 RUE DU CHATEAU, Castries",
    "lat": 43.677726,
    "lng": 3.986318,
    "transactions": [
      {
        "date": "2022-12-19",
        "priceEur": 163000,
        "typeLocal": "Appartement",
        "surfaceM2": 99,
        "isVefa": false
      }
    ]
  },
  "c74b9ce6deba": {
    "id": "c74b9ce6deba",
    "label": "56 RUE DE LA TRAMONTANE, Castries",
    "lat": 43.680686,
    "lng": 3.97707,
    "transactions": [
      {
        "date": "2022-12-23",
        "priceEur": 169500,
        "typeLocal": "Maison",
        "surfaceM2": 84,
        "isVefa": false
      }
    ]
  },
  "a9bcce3779af": {
    "id": "a9bcce3779af",
    "label": "12 AV DE LA PROMENADE, Castries",
    "lat": 43.676715,
    "lng": 3.983996,
    "transactions": [
      {
        "date": "2023-01-16",
        "priceEur": 408450,
        "typeLocal": "Maison",
        "surfaceM2": 15,
        "isVefa": false
      },
      {
        "date": "2023-01-16",
        "priceEur": 408450,
        "typeLocal": "Maison",
        "surfaceM2": 68,
        "isVefa": false
      }
    ]
  },
  "21b9afbb25b9": {
    "id": "21b9afbb25b9",
    "label": "8B RUE DU BALCON ROND, Castries",
    "lat": 43.67893,
    "lng": 3.986027,
    "transactions": [
      {
        "date": "2025-03-06",
        "priceEur": 385000,
        "typeLocal": "Maison",
        "surfaceM2": 134,
        "isVefa": false
      },
      {
        "date": "2023-02-01",
        "priceEur": 338000,
        "typeLocal": "Maison",
        "surfaceM2": 134,
        "isVefa": false
      }
    ]
  },
  "becacc14208e": {
    "id": "becacc14208e",
    "label": "107 IMP PIERRE RENOIR, Castries",
    "lat": 43.676673,
    "lng": 3.97945,
    "transactions": [
      {
        "date": "2023-01-24",
        "priceEur": 324709,
        "typeLocal": "Maison",
        "surfaceM2": 78,
        "isVefa": false
      }
    ]
  },
  "ff55a64b8ca7": {
    "id": "ff55a64b8ca7",
    "label": "8 RUE PLAN DU FOUR, Castries",
    "lat": 43.678056,
    "lng": 3.985069,
    "transactions": [
      {
        "date": "2023-02-14",
        "priceEur": 170000,
        "typeLocal": "Maison",
        "surfaceM2": 59,
        "isVefa": false
      }
    ]
  },
  "90a0b7dffca2": {
    "id": "90a0b7dffca2",
    "label": "20 AV DU 8 MAI 1945, Castries",
    "lat": 43.676474,
    "lng": 3.985765,
    "transactions": [
      {
        "date": "2023-02-24",
        "priceEur": 306000,
        "typeLocal": "Maison",
        "surfaceM2": 68,
        "isVefa": false
      }
    ]
  },
  "84f1371339af": {
    "id": "84f1371339af",
    "label": "11B RUE DU CANTONNAT, Castries",
    "lat": 43.677891,
    "lng": 3.986915,
    "transactions": [
      {
        "date": "2023-03-09",
        "priceEur": 322900,
        "typeLocal": "Maison",
        "surfaceM2": 40,
        "isVefa": false
      }
    ]
  },
  "e2acba87b89f": {
    "id": "e2acba87b89f",
    "label": "39 RUE FREDERIC BAZILLE, Castries",
    "lat": 43.678558,
    "lng": 3.977704,
    "transactions": [
      {
        "date": "2023-04-05",
        "priceEur": 374650,
        "typeLocal": "Maison",
        "surfaceM2": 78,
        "isVefa": false
      }
    ]
  },
  "722ae014fb8f": {
    "id": "722ae014fb8f",
    "label": "32 RUE DE LA TRAMONTANE, Castries",
    "lat": 43.680718,
    "lng": 3.97782,
    "transactions": [
      {
        "date": "2023-04-14",
        "priceEur": 422550,
        "typeLocal": "Maison",
        "surfaceM2": 84,
        "isVefa": false
      }
    ]
  },
  "a759bb963cea": {
    "id": "a759bb963cea",
    "label": "21 RUE DE LA PIERRE BLEUE, Castries",
    "lat": 43.682795,
    "lng": 3.987348,
    "transactions": [
      {
        "date": "2023-06-28",
        "priceEur": 492200,
        "typeLocal": "Maison",
        "surfaceM2": 68,
        "isVefa": false
      }
    ]
  },
  "b509cc79dc7d": {
    "id": "b509cc79dc7d",
    "label": "11 IMP DU ROSSIGNOL, Castries",
    "lat": 43.678953,
    "lng": 3.983247,
    "transactions": [
      {
        "date": "2023-07-28",
        "priceEur": 466950,
        "typeLocal": "Maison",
        "surfaceM2": 100,
        "isVefa": false
      }
    ]
  },
  "e57a183748cc": {
    "id": "e57a183748cc",
    "label": "1 PL DES HALLES, Castries",
    "lat": 43.678048,
    "lng": 3.985995,
    "transactions": [
      {
        "date": "2023-08-28",
        "priceEur": 115000,
        "typeLocal": "Maison",
        "surfaceM2": 65,
        "isVefa": false
      }
    ]
  },
  "a2f7e72eba03": {
    "id": "a2f7e72eba03",
    "label": "13 RUE DE L AQUEDUC, Castries",
    "lat": 43.683326,
    "lng": 3.982098,
    "transactions": [
      {
        "date": "2023-09-06",
        "priceEur": 739581.5,
        "typeLocal": "Maison",
        "surfaceM2": 165,
        "isVefa": false
      }
    ]
  },
  "6b661aa4a2f4": {
    "id": "6b661aa4a2f4",
    "label": "28 AV DE LA GARE, Castries",
    "lat": 43.676146,
    "lng": 3.987353,
    "transactions": [
      {
        "date": "2023-09-04",
        "priceEur": 3000000,
        "typeLocal": "Maison",
        "surfaceM2": 230,
        "isVefa": false
      }
    ]
  },
  "f0d7fe362433": {
    "id": "f0d7fe362433",
    "label": "13 RUE DES ALIZES, Castries",
    "lat": 43.678909,
    "lng": 3.978245,
    "transactions": [
      {
        "date": "2023-09-18",
        "priceEur": 415350,
        "typeLocal": "Maison",
        "surfaceM2": 86,
        "isVefa": false
      }
    ]
  },
  "17b6c1f209ad": {
    "id": "17b6c1f209ad",
    "label": "10 RUE DU CHATEAU, Castries",
    "lat": 43.677149,
    "lng": 3.986334,
    "transactions": [
      {
        "date": "2023-09-08",
        "priceEur": 128750,
        "typeLocal": "Appartement",
        "surfaceM2": 42,
        "isVefa": false
      }
    ]
  },
  "5d312c88ffff": {
    "id": "5d312c88ffff",
    "label": "3 AV DE LA RIVIERE, Castries",
    "lat": 43.676883,
    "lng": 3.981996,
    "transactions": [
      {
        "date": "2023-09-21",
        "priceEur": 99808.8,
        "typeLocal": "Maison",
        "surfaceM2": 102,
        "isVefa": false
      }
    ]
  },
  "e482d522d632": {
    "id": "e482d522d632",
    "label": "2 PL DES HALLES, Castries",
    "lat": 43.677844,
    "lng": 3.986112,
    "transactions": [
      {
        "date": "2023-09-29",
        "priceEur": 306650,
        "typeLocal": "Appartement",
        "surfaceM2": 88,
        "isVefa": false
      }
    ]
  },
  "78df82788d3a": {
    "id": "78df82788d3a",
    "label": "96B IMP JEAN HONORE FRAGONARD, Castries",
    "lat": 43.677425,
    "lng": 3.980545,
    "transactions": [
      {
        "date": "2023-12-19",
        "priceEur": 584070,
        "typeLocal": "Maison",
        "surfaceM2": 98,
        "isVefa": false
      },
      {
        "date": "2023-12-19",
        "priceEur": 584070,
        "typeLocal": "Maison",
        "surfaceM2": 98,
        "isVefa": false
      }
    ]
  },
  "efe62f5fd96e": {
    "id": "efe62f5fd96e",
    "label": "43 RUE FREDERIC BAZILLE, Castries",
    "lat": 43.678515,
    "lng": 3.97721,
    "transactions": [
      {
        "date": "2023-12-28",
        "priceEur": 282550,
        "typeLocal": "Maison",
        "surfaceM2": 88,
        "isVefa": false
      }
    ]
  },
  "bde7d1725042": {
    "id": "bde7d1725042",
    "label": "2 MTE DE L'ARCHE, Castries",
    "lat": 43.677023,
    "lng": 3.986279,
    "transactions": [
      {
        "date": "2023-12-20",
        "priceEur": 310250,
        "typeLocal": "Maison",
        "surfaceM2": 85,
        "isVefa": false
      }
    ]
  },
  "a255870783d9": {
    "id": "a255870783d9",
    "label": "17B RUE DU CANTONNAT, Castries",
    "lat": 43.677923,
    "lng": 3.986897,
    "transactions": [
      {
        "date": "2023-12-18",
        "priceEur": 285300,
        "typeLocal": "Appartement",
        "surfaceM2": 80,
        "isVefa": false
      }
    ]
  },
  "62a7cd362bc0": {
    "id": "62a7cd362bc0",
    "label": "114 RUE HENRI MATISSE, Castries",
    "lat": 43.676117,
    "lng": 3.979051,
    "transactions": [
      {
        "date": "2024-02-09",
        "priceEur": 439700,
        "typeLocal": "Maison",
        "surfaceM2": 118,
        "isVefa": false
      }
    ]
  },
  "a8e43402e254": {
    "id": "a8e43402e254",
    "label": "2 IMP DU SQUARE, Castries",
    "lat": 43.677748,
    "lng": 3.986686,
    "transactions": [
      {
        "date": "2024-02-27",
        "priceEur": 140000,
        "typeLocal": "Maison",
        "surfaceM2": 70,
        "isVefa": false
      }
    ]
  },
  "68c08d1b5c2b": {
    "id": "68c08d1b5c2b",
    "label": "3 IMP DU BELVEDERE, Castries",
    "lat": 43.678493,
    "lng": 3.985705,
    "transactions": [
      {
        "date": "2024-03-07",
        "priceEur": 133300,
        "typeLocal": "Maison",
        "surfaceM2": 62,
        "isVefa": false
      }
    ]
  },
  "3951ccdfc87a": {
    "id": "3951ccdfc87a",
    "label": "23 RUE DU LIEUTENANT PAUL CALS, Castries",
    "lat": 43.676878,
    "lng": 3.987858,
    "transactions": [
      {
        "date": "2024-03-26",
        "priceEur": 385000,
        "typeLocal": "Appartement",
        "surfaceM2": 68,
        "isVefa": false
      },
      {
        "date": "2024-03-26",
        "priceEur": 385000,
        "typeLocal": "Appartement",
        "surfaceM2": 65,
        "isVefa": false
      }
    ]
  },
  "1e5fe20e1d14": {
    "id": "1e5fe20e1d14",
    "label": "2 MTE DU MICOCOULIER, Castries",
    "lat": 43.678095,
    "lng": 3.985051,
    "transactions": [
      {
        "date": "2024-04-09",
        "priceEur": 190200,
        "typeLocal": "Maison",
        "surfaceM2": 60,
        "isVefa": false
      }
    ]
  },
  "c69b9181a6f6": {
    "id": "c69b9181a6f6",
    "label": "6 IMP DES ROMARINS, Castries",
    "lat": 43.683715,
    "lng": 3.984708,
    "transactions": [
      {
        "date": "2024-04-04",
        "priceEur": 638000,
        "typeLocal": "Maison",
        "surfaceM2": 152,
        "isVefa": false
      }
    ]
  },
  "8a8fa1d4fae1": {
    "id": "8a8fa1d4fae1",
    "label": "10B AV DE LA RIVIERE, Castries",
    "lat": 43.676667,
    "lng": 3.980351,
    "transactions": [
      {
        "date": "2024-05-17",
        "priceEur": 305000,
        "typeLocal": "Appartement",
        "surfaceM2": 150,
        "isVefa": false
      }
    ]
  },
  "cd290b4cb7f6": {
    "id": "cd290b4cb7f6",
    "label": "10 RUE DES ALIZES, Castries",
    "lat": 43.678989,
    "lng": 3.978912,
    "transactions": [
      {
        "date": "2024-06-21",
        "priceEur": 433500,
        "typeLocal": "Maison",
        "surfaceM2": 84,
        "isVefa": false
      }
    ]
  },
  "feef6861d567": {
    "id": "feef6861d567",
    "label": "3B RUE DU CANTONNAT, Castries",
    "lat": 43.677842,
    "lng": 3.986969,
    "transactions": [
      {
        "date": "2024-07-10",
        "priceEur": 110000,
        "typeLocal": "Appartement",
        "surfaceM2": 38,
        "isVefa": false
      }
    ]
  },
  "9856b8de518d": {
    "id": "9856b8de518d",
    "label": "4 RUE DE LA GARRIGUE, Castries",
    "lat": 43.682052,
    "lng": 3.980206,
    "transactions": [
      {
        "date": "2024-07-16",
        "priceEur": 620600,
        "typeLocal": "Maison",
        "surfaceM2": 175,
        "isVefa": false
      }
    ]
  },
  "286385bdfd7e": {
    "id": "286385bdfd7e",
    "label": "24 AV DU 11 NOVEMBRE, Castries",
    "lat": 43.683012,
    "lng": 3.983882,
    "transactions": [
      {
        "date": "2024-06-27",
        "priceEur": 460200,
        "typeLocal": "Maison",
        "surfaceM2": 83,
        "isVefa": false
      }
    ]
  },
  "e34d1c3cfc54": {
    "id": "e34d1c3cfc54",
    "label": "125 IMP VINCENT VAN GOGH, Castries",
    "lat": 43.676783,
    "lng": 3.978338,
    "transactions": [
      {
        "date": "2024-07-18",
        "priceEur": 372000,
        "typeLocal": "Maison",
        "surfaceM2": 79,
        "isVefa": false
      }
    ]
  },
  "b147a0d4ad26": {
    "id": "b147a0d4ad26",
    "label": "14 AV DU PIC ST LOUP, Castries",
    "lat": 43.682257,
    "lng": 3.979076,
    "transactions": [
      {
        "date": "2024-07-05",
        "priceEur": 510100,
        "typeLocal": "Maison",
        "surfaceM2": 111,
        "isVefa": false
      }
    ]
  },
  "9b84a2e92880": {
    "id": "9b84a2e92880",
    "label": "24 RUE DES ALIZES, Castries",
    "lat": 43.679694,
    "lng": 3.978401,
    "transactions": [
      {
        "date": "2024-08-08",
        "priceEur": 327500,
        "typeLocal": "Maison",
        "surfaceM2": 93,
        "isVefa": false
      }
    ]
  },
  "8c6fadb03d08": {
    "id": "8c6fadb03d08",
    "label": "11 AV DE LA CADOULE, Castries",
    "lat": 43.67606,
    "lng": 3.977521,
    "transactions": [
      {
        "date": "2024-10-23",
        "priceEur": 370000,
        "typeLocal": "Maison",
        "surfaceM2": 82,
        "isVefa": false
      }
    ]
  },
  "0d2898b9c05b": {
    "id": "0d2898b9c05b",
    "label": "6 AV DU PIC ST LOUP, Castries",
    "lat": 43.681716,
    "lng": 3.980383,
    "transactions": [
      {
        "date": "2024-11-13",
        "priceEur": 350000,
        "typeLocal": "Maison",
        "surfaceM2": 63,
        "isVefa": false
      }
    ]
  },
  "e91ba562f089": {
    "id": "e91ba562f089",
    "label": "14 RUE DU CHATEAU, Castries",
    "lat": 43.676981,
    "lng": 3.986674,
    "transactions": [
      {
        "date": "2024-11-29",
        "priceEur": 275000,
        "typeLocal": "Appartement",
        "surfaceM2": 80,
        "isVefa": false
      }
    ]
  },
  "b633a9f6afa0": {
    "id": "b633a9f6afa0",
    "label": "29 RUE DES ALIZES, Castries",
    "lat": 43.680267,
    "lng": 3.978248,
    "transactions": [
      {
        "date": "2024-12-11",
        "priceEur": 444350,
        "typeLocal": "Maison",
        "surfaceM2": 84,
        "isVefa": false
      }
    ]
  },
  "2ad55c639142": {
    "id": "2ad55c639142",
    "label": "11 RUE DE LA GARRIGUE, Castries",
    "lat": 43.683058,
    "lng": 3.981087,
    "transactions": [
      {
        "date": "2024-12-23",
        "priceEur": 340291,
        "typeLocal": "Maison",
        "surfaceM2": 107,
        "isVefa": false
      }
    ]
  },
  "f1faf8cdb085": {
    "id": "f1faf8cdb085",
    "label": "12 RUE CLOS DE L AQUEDUC, Castries",
    "lat": 43.682751,
    "lng": 3.982003,
    "transactions": [
      {
        "date": "2024-12-20",
        "priceEur": 500000,
        "typeLocal": "Maison",
        "surfaceM2": 180,
        "isVefa": false
      }
    ]
  },
  "f8680649ab22": {
    "id": "f8680649ab22",
    "label": "10 RUE DU QUARTIER BAS, Castries",
    "lat": 43.676757,
    "lng": 3.987734,
    "transactions": [
      {
        "date": "2025-02-07",
        "priceEur": 139175,
        "typeLocal": "Appartement",
        "surfaceM2": 45,
        "isVefa": false
      }
    ]
  },
  "93fd5f02f675": {
    "id": "93fd5f02f675",
    "label": "27 RUE HAUTE DE LA COLLINE, Castries",
    "lat": 43.681484,
    "lng": 3.977163,
    "transactions": [
      {
        "date": "2025-02-28",
        "priceEur": 446000,
        "typeLocal": "Maison",
        "surfaceM2": 125,
        "isVefa": false
      }
    ]
  },
  "65f77f39871c": {
    "id": "65f77f39871c",
    "label": "3 RUE DE L ARGENTERIE, Castries",
    "lat": 43.677739,
    "lng": 3.984598,
    "transactions": [
      {
        "date": "2025-03-28",
        "priceEur": 197745,
        "typeLocal": "Maison",
        "surfaceM2": 69,
        "isVefa": false
      }
    ]
  },
  "61913c31ddd2": {
    "id": "61913c31ddd2",
    "label": "1B AV DE SOMMIERES, Castries",
    "lat": 43.678778,
    "lng": 3.983547,
    "transactions": [
      {
        "date": "2025-03-31",
        "priceEur": 700000,
        "typeLocal": "Maison",
        "surfaceM2": 203,
        "isVefa": false
      }
    ]
  },
  "eaa5feb5337d": {
    "id": "eaa5feb5337d",
    "label": "33 RUE HAUTE DE LA COLLINE, Castries",
    "lat": 43.681418,
    "lng": 3.978182,
    "transactions": [
      {
        "date": "2025-04-28",
        "priceEur": 545000,
        "typeLocal": "Maison",
        "surfaceM2": 93,
        "isVefa": false
      }
    ]
  },
  "2ed87c43cbf0": {
    "id": "2ed87c43cbf0",
    "label": "6 RUE DU GILET ROUGE, Castries",
    "lat": 43.677563,
    "lng": 3.982407,
    "transactions": [
      {
        "date": "2025-05-06",
        "priceEur": 578155,
        "typeLocal": "Maison",
        "surfaceM2": 120,
        "isVefa": false
      }
    ]
  },
  "8f8b33c95e5f": {
    "id": "8f8b33c95e5f",
    "label": "2 RUE DE L ARGENTERIE, Castries",
    "lat": 43.677878,
    "lng": 3.985176,
    "transactions": [
      {
        "date": "2025-05-28",
        "priceEur": 305000,
        "typeLocal": "Maison",
        "surfaceM2": 82,
        "isVefa": false
      }
    ]
  },
  "5baa207aaf05": {
    "id": "5baa207aaf05",
    "label": "42 RUE DU SIMOUN, Castries",
    "lat": 43.679751,
    "lng": 3.977504,
    "transactions": [
      {
        "date": "2025-06-17",
        "priceEur": 364010,
        "typeLocal": "Maison",
        "surfaceM2": 84,
        "isVefa": false
      }
    ]
  }
}