{
  "916ca60c20e0": {
    "id": "916ca60c20e0",
    "label": "5121 BEAUFLAMEL, Saint-Ouen-du-Breuil",
    "lat": 49.622333,
    "lng": 1.044637,
    "transactions": [
      {
        "date": "2020-09-25",
        "priceEur": 157000,
        "typeLocal": "Maison",
        "surfaceM2": 68,
        "isVefa": false
      }
    ]
  },
  "a95980059e22": {
    "id": "a95980059e22",
    "label": "5126 VALMARTIN, Saint-Ouen-du-Breuil",
    "lat": 49.62014,
    "lng": 1.047862,
    "transactions": [
      {
        "date": "2021-03-08",
        "priceEur": 187000,
        "typeLocal": "Maison",
        "surfaceM2": 150,
        "isVefa": false
      }
    ]
  },
  "3e317f3dca45": {
    "id": "3e317f3dca45",
    "label": "5122 BEAUFLAMEL, Saint-Ouen-du-Breuil",
    "lat": 49.622162,
    "lng": 1.044937,
    "transactions": [
      {
        "date": "2021-10-07",
        "priceEur": 165000,
        "typeLocal": "Maison",
        "surfaceM2": 138,
        "isVefa": false
      }
    ]
  },
  "d0189656ad1d": {
    "id": "d0189656ad1d",
    "label": "366 RTE DE DIEPPE, Le Bocasse",
    "lat": 49.620169,
    "lng": 1.048533,
    "transactions": [
      {
        "date": "2022-06-30",
        "priceEur": 142500,
        "typeLocal": "Maison",
        "surfaceM2": 90,
        "isVefa": false
      }
    ]
  },
  "4228a3c96fd2": {
    "id": "4228a3c96fd2",
    "label": "163 RTE DE DIEPPE, Le Bocasse",
    "lat": 49.618204,
    "lng": 1.048302,
    "transactions": [
      {
        "date": "2022-06-09",
        "priceEur": 117000,
        "typeLocal": "Maison",
        "surfaceM2": 75,
        "isVefa": false
      }
    ]
  },
  "4cc2e56016ba": {
    "id": "4cc2e56016ba",
    "label": "5078 LE VAL MARTIN, Le Bocasse",
    "lat": 49.618256,
    "lng": 1.04826,
    "transactions": [
      {
        "date": "2022-06-09",
        "priceEur": 117000,
        "typeLocal": "Maison",
        "surfaceM2": 50,
        "isVefa": false
      }
    ]
  },
  "189c9bff8c80": {
    "id": "189c9bff8c80",
    "label": "189 RTE DE DIEPPE, Le Bocasse",
    "lat": 49.618455,
    "lng": 1.048187,
    "transactions": [
      {
        "date": "2022-10-26",
        "priceEur": 248000,
        "typeLocal": "Appartement",
        "surfaceM2": 45,
        "isVefa": false
      },
      {
        "date": "2022-10-26",
        "priceEur": 248000,
        "typeLocal": "Maison",
        "surfaceM2": 100,
        "isVefa": false
      },
      {
        "date": "2022-10-26",
        "priceEur": 248000,
        "typeLocal": "Appartement",
        "surfaceM2": 47,
        "isVefa": false
      },
      {
        "date": "2022-10-26",
        "priceEur": 248000,
        "typeLocal": "Appartement",
        "surfaceM2": 41,
        "isVefa": false
      },
      {
        "date": "2022-10-26",
        "priceEur": 248000,
        "typeLocal": "Appartement",
        "surfaceM2": 50,
        "isVefa": false
      },
      {
        "date": "2022-10-26",
        "priceEur": 248000,
        "typeLocal": "Appartement",
        "surfaceM2": 74,
        "isVefa": false
      }
    ]
  },
  "7611eb10b2a2": {
    "id": "7611eb10b2a2",
    "label": "61 ALL DE VALMARTIN, Saint-Ouen-du-Breuil",
    "lat": 49.619,
    "lng": 1.047534,
    "transactions": [
      {
        "date": "2024-04-19",
        "priceEur": 90000,
        "typeLocal": "Maison",
        "surfaceM2": 88,
        "isVefa": false
      }
    ]
  }
}