{
  "838939c18862": {
    "id": "838939c18862",
    "label": "15 RUE DU LOUP, Rouen",
    "lat": 49.454397,
    "lng": 1.054192,
    "transactions": [
      {
        "date": "2021-06-29",
        "priceEur": 60000,
        "typeLocal": "Appartement",
        "surfaceM2": 48,
        "isVefa": false
      },
      {
        "date": "2020-11-04",
        "priceEur": 74000,
        "typeLocal": "Appartement",
        "surfaceM2": 54,
        "isVefa": false
      },
      {
        "date": "2020-07-03",
        "priceEur": 75000,
        "typeLocal": "Appartement",
        "surfaceM2": 54,
        "isVefa": false
      }
    ]
  },
  "d57f80d04cd8": {
    "id": "d57f80d04cd8",
    "label": "7 RUE DU LOUP, Rouen",
    "lat": 49.454397,
    "lng": 1.054192,
    "transactions": [
      {
        "date": "2025-03-25",
        "priceEur": 64500,
        "typeLocal": "Appartement",
        "surfaceM2": 61,
        "isVefa": false
      },
      {
        "date": "2022-06-30",
        "priceEur": 62000,
        "typeLocal": "Appartement",
        "surfaceM2": 49,
        "isVefa": false
      },
      {
        "date": "2021-04-26",
        "priceEur": 75000,
        "typeLocal": "Appartement",
        "surfaceM2": 48,
        "isVefa": false
      },
      {
        "date": "2021-04-21",
        "priceEur": 93000,
        "typeLocal": "Appartement",
        "surfaceM2": 59,
        "isVefa": false
      },
      {
        "date": "2020-11-19",
        "priceEur": 95000,
        "typeLocal": "Appartement",
        "surfaceM2": 54,
        "isVefa": false
      }
    ]
  },
  "581ca7cfef99": {
    "id": "581ca7cfef99",
    "label": "53 RUE GASTON BOULET, Canteleu",
    "lat": 49.454737,
    "lng": 1.0486,
    "transactions": [
      {
        "date": "2024-06-27",
        "priceEur": 142500,
        "typeLocal": "Appartement",
        "surfaceM2": 62,
        "isVefa": false
      },
      {
        "date": "2023-05-22",
        "priceEur": 139000,
        "typeLocal": "Appartement",
        "surfaceM2": 62,
        "isVefa": false
      },
      {
        "date": "2023-02-15",
        "priceEur": 82000,
        "typeLocal": "Appartement",
        "surfaceM2": 41,
        "isVefa": false
      },
      {
        "date": "2023-02-02",
        "priceEur": 137000,
        "typeLocal": "Appartement",
        "surfaceM2": 59,
        "isVefa": false
      },
      {
        "date": "2023-01-11",
        "priceEur": 105000,
        "typeLocal": "Appartement",
        "surfaceM2": 41,
        "isVefa": false
      },
      {
        "date": "2023-01-11",
        "priceEur": 97000,
        "typeLocal": "Appartement",
        "surfaceM2": 41,
        "isVefa": false
      },
      {
        "date": "2023-01-11",
        "priceEur": 89000,
        "typeLocal": "Appartement",
        "surfaceM2": 41,
        "isVefa": false
      },
      {
        "date": "2023-01-11",
        "priceEur": 96500,
        "typeLocal": "Appartement",
        "surfaceM2": 44,
        "isVefa": false
      },
      {
        "date": "2023-01-05",
        "priceEur": 126000,
        "typeLocal": "Appartement",
        "surfaceM2": 59,
        "isVefa": false
      },
      {
        "date": "2022-12-26",
        "priceEur": 84000,
        "typeLocal": "Appartement",
        "surfaceM2": 41,
        "isVefa": false
      },
      {
        "date": "2022-12-13",
        "priceEur": 111630,
        "typeLocal": "Appartement",
        "surfaceM2": 59,
        "isVefa": false
      },
      {
        "date": "2022-10-24",
        "priceEur": 115000,
        "typeLocal": "Appartement",
        "surfaceM2": 59,
        "isVefa": false
      },
      {
        "date": "2022-09-28",
        "priceEur": 91000,
        "typeLocal": "Appartement",
        "surfaceM2": 41,
        "isVefa": false
      },
      {
        "date": "2022-09-21",
        "priceEur": 93000,
        "typeLocal": "Appartement",
        "surfaceM2": 41,
        "isVefa": false
      },
      {
        "date": "2022-09-14",
        "priceEur": 107000,
        "typeLocal": "Appartement",
        "surfaceM2": 41,
        "isVefa": false
      },
      {
        "date": "2022-07-22",
        "priceEur": 106000,
        "typeLocal": "Appartement",
        "surfaceM2": 48,
        "isVefa": false
      },
      {
        "date": "2022-07-11",
        "priceEur": 97000,
        "typeLocal": "Appartement",
        "surfaceM2": 41,
        "isVefa": false
      },
      {
        "date": "2022-05-12",
        "priceEur": 420000,
        "typeLocal": "Maison",
        "surfaceM2": 190,
        "isVefa": false
      },
      {
        "date": "2022-01-26",
        "priceEur": 129820,
        "typeLocal": "Appartement",
        "surfaceM2": 62,
        "isVefa": false
      },
      {
        "date": "2021-09-07",
        "priceEur": 92000,
        "typeLocal": "Appartement",
        "surfaceM2": 41,
        "isVefa": false
      },
      {
        "date": "2021-06-04",
        "priceEur": 139000,
        "typeLocal": "Appartement",
        "surfaceM2": 59,
        "isVefa": false
      },
      {
        "date": "2021-06-01",
        "priceEur": 142000,
        "typeLocal": "Appartement",
        "surfaceM2": 91,
        "isVefa": false
      },
      {
        "date": "2021-01-25",
        "priceEur": 104384,
        "typeLocal": "Appartement",
        "surfaceM2": 62,
        "isVefa": false
      },
      {
        "date": "2021-01-22",
        "priceEur": 87000,
        "typeLocal": "Appartement",
        "surfaceM2": 42,
        "isVefa": false
      },
      {
        "date": "2021-01-12",
        "priceEur": 109000,
        "typeLocal": "Appartement",
        "surfaceM2": 41,
        "isVefa": false
      },
      {
        "date": "2020-09-25",
        "priceEur": 85000,
        "typeLocal": "Appartement",
        "surfaceM2": 44,
        "isVefa": false
      },
      {
        "date": "2020-09-09",
        "priceEur": 90500,
        "typeLocal": "Appartement",
        "surfaceM2": 45,
        "isVefa": false
      },
      {
        "date": "2020-08-05",
        "priceEur": 52500,
        "typeLocal": "Appartement",
        "surfaceM2": 34,
        "isVefa": false
      },
      {
        "date": "2020-07-15",
        "priceEur": 133500,
        "typeLocal": "Appartement",
        "surfaceM2": 62,
        "isVefa": false
      },
      {
        "date": "2020-07-15",
        "priceEur": 116000,
        "typeLocal": "Appartement",
        "surfaceM2": 62,
        "isVefa": false
      },
      {
        "date": "2020-07-09",
        "priceEur": 115000,
        "typeLocal": "Appartement",
        "surfaceM2": 64,
        "isVefa": false
      }
    ]
  },
  "d7660ce730df": {
    "id": "d7660ce730df",
    "label": "20A RUE CARPENTIER, Déville-lès-Rouen",
    "lat": 49.460768,
    "lng": 1.052355,
    "transactions": [
      {
        "date": "2020-08-19",
        "priceEur": 73000,
        "typeLocal": "Maison",
        "surfaceM2": 52,
        "isVefa": false
      }
    ]
  },
  "fe62009b3f18": {
    "id": "fe62009b3f18",
    "label": "71 RUE GEORGES HEBERT, Déville-lès-Rouen",
    "lat": 49.45915,
    "lng": 1.051863,
    "transactions": [
      {
        "date": "2025-04-29",
        "priceEur": 105000,
        "typeLocal": "Appartement",
        "surfaceM2": 70,
        "isVefa": false
      },
      {
        "date": "2024-01-17",
        "priceEur": 113000,
        "typeLocal": "Appartement",
        "surfaceM2": 52,
        "isVefa": false
      },
      {
        "date": "2023-09-04",
        "priceEur": 95500,
        "typeLocal": "Appartement",
        "surfaceM2": 52,
        "isVefa": false
      },
      {
        "date": "2023-07-13",
        "priceEur": 151000,
        "typeLocal": "Appartement",
        "surfaceM2": 80,
        "isVefa": false
      },
      {
        "date": "2023-06-07",
        "priceEur": 75000,
        "typeLocal": "Appartement",
        "surfaceM2": 52,
        "isVefa": false
      },
      {
        "date": "2023-05-04",
        "priceEur": 152000,
        "typeLocal": "Appartement",
        "surfaceM2": 80,
        "isVefa": false
      },
      {
        "date": "2022-12-19",
        "priceEur": 93210,
        "typeLocal": "Appartement",
        "surfaceM2": 52,
        "isVefa": false
      },
      {
        "date": "2022-09-19",
        "priceEur": 100500,
        "typeLocal": "Appartement",
        "surfaceM2": 70,
        "isVefa": false
      },
      {
        "date": "2022-04-21",
        "priceEur": 96000,
        "typeLocal": "Appartement",
        "surfaceM2": 70,
        "isVefa": false
      },
      {
        "date": "2021-04-13",
        "priceEur": 126500,
        "typeLocal": "Appartement",
        "surfaceM2": 80,
        "isVefa": false
      },
      {
        "date": "2020-12-07",
        "priceEur": 139000,
        "typeLocal": "Appartement",
        "surfaceM2": 70,
        "isVefa": false
      },
      {
        "date": "2020-09-14",
        "priceEur": 83000,
        "typeLocal": "Appartement",
        "surfaceM2": 70,
        "isVefa": false
      }
    ]
  },
  "5efe30c1e086": {
    "id": "5efe30c1e086",
    "label": "26 RUE DU CANAL, Canteleu",
    "lat": 49.456102,
    "lng": 1.044449,
    "transactions": [
      {
        "date": "2020-09-29",
        "priceEur": 270000,
        "typeLocal": "Maison",
        "surfaceM2": 112,
        "isVefa": false
      }
    ]
  },
  "54b3ac91edfd": {
    "id": "54b3ac91edfd",
    "label": "15 RUE SAINT FILLEUL, Canteleu",
    "lat": 49.455625,
    "lng": 1.049786,
    "transactions": [
      {
        "date": "2020-10-09",
        "priceEur": 153000,
        "typeLocal": "Maison",
        "surfaceM2": 123,
        "isVefa": false
      }
    ]
  },
  "5150e0a5bfff": {
    "id": "5150e0a5bfff",
    "label": "11 RUE GEORGES HEBERT, Déville-lès-Rouen",
    "lat": 49.454979,
    "lng": 1.054668,
    "transactions": [
      {
        "date": "2020-10-12",
        "priceEur": 107000,
        "typeLocal": "Maison",
        "surfaceM2": 58,
        "isVefa": false
      }
    ]
  },
  "e62e7271aa68": {
    "id": "e62e7271aa68",
    "label": "26 RUE GEORGES HEBERT, Déville-lès-Rouen",
    "lat": 49.45977,
    "lng": 1.052581,
    "transactions": [
      {
        "date": "2020-11-12",
        "priceEur": 224000,
        "typeLocal": "Maison",
        "surfaceM2": 91,
        "isVefa": false
      }
    ]
  },
  "0c3200fd23c8": {
    "id": "0c3200fd23c8",
    "label": "37 RUE GEORGES HEBERT, Déville-lès-Rouen",
    "lat": 49.456184,
    "lng": 1.053871,
    "transactions": [
      {
        "date": "2020-11-06",
        "priceEur": 268000,
        "typeLocal": "Maison",
        "surfaceM2": 132,
        "isVefa": false
      }
    ]
  },
  "478f6734ed9f": {
    "id": "478f6734ed9f",
    "label": "7 RUE SAINT PIERRE, Canteleu",
    "lat": 49.45478,
    "lng": 1.049188,
    "transactions": [
      {
        "date": "2020-10-30",
        "priceEur": 208000,
        "typeLocal": "Maison",
        "surfaceM2": 88,
        "isVefa": false
      }
    ]
  },
  "03d9bf8c3c56": {
    "id": "03d9bf8c3c56",
    "label": "19 RUE GAMBETTA, Déville-lès-Rouen",
    "lat": 49.460064,
    "lng": 1.053826,
    "transactions": [
      {
        "date": "2024-07-05",
        "priceEur": 131000,
        "typeLocal": "Appartement",
        "surfaceM2": 54,
        "isVefa": false
      },
      {
        "date": "2024-05-27",
        "priceEur": 203500,
        "typeLocal": "Appartement",
        "surfaceM2": 96,
        "isVefa": false
      },
      {
        "date": "2020-11-06",
        "priceEur": 170000,
        "typeLocal": "Appartement",
        "surfaceM2": 78,
        "isVefa": false
      }
    ]
  },
  "d10d1e1d9aaf": {
    "id": "d10d1e1d9aaf",
    "label": "10 RUE ROBERT GALLARD, Déville-lès-Rouen",
    "lat": 49.455121,
    "lng": 1.053946,
    "transactions": [
      {
        "date": "2025-01-24",
        "priceEur": 318900,
        "typeLocal": "Maison",
        "surfaceM2": 75,
        "isVefa": false
      },
      {
        "date": "2020-12-07",
        "priceEur": 170000,
        "typeLocal": "Maison",
        "surfaceM2": 75,
        "isVefa": false
      }
    ]
  },
  "0af31ff7426f": {
    "id": "0af31ff7426f",
    "label": "23A RUE DU CANAL, Canteleu",
    "lat": 49.455851,
    "lng": 1.0441,
    "transactions": [
      {
        "date": "2020-11-30",
        "priceEur": 256000,
        "typeLocal": "Maison",
        "surfaceM2": 82,
        "isVefa": false
      }
    ]
  },
  "7c361c176d71": {
    "id": "7c361c176d71",
    "label": "23 RTE DE DIEPPE, Déville-lès-Rouen",
    "lat": 49.459888,
    "lng": 1.054589,
    "transactions": [
      {
        "date": "2020-12-30",
        "priceEur": 135000,
        "typeLocal": "Maison",
        "surfaceM2": 141,
        "isVefa": false
      }
    ]
  },
  "7bfdc54d9e6f": {
    "id": "7bfdc54d9e6f",
    "label": "11 RUE DU LOUP, Rouen",
    "lat": 49.454397,
    "lng": 1.054192,
    "transactions": [
      {
        "date": "2023-12-27",
        "priceEur": 87000,
        "typeLocal": "Appartement",
        "surfaceM2": 44,
        "isVefa": false
      },
      {
        "date": "2023-06-17",
        "priceEur": 93000,
        "typeLocal": "Appartement",
        "surfaceM2": 54,
        "isVefa": false
      },
      {
        "date": "2021-03-15",
        "priceEur": 88100,
        "typeLocal": "Appartement",
        "surfaceM2": 56,
        "isVefa": false
      }
    ]
  },
  "0ed7c26d70dd": {
    "id": "0ed7c26d70dd",
    "label": "13 RUE DU LOUP, Rouen",
    "lat": 49.454397,
    "lng": 1.054192,
    "transactions": [
      {
        "date": "2022-07-29",
        "priceEur": 88670,
        "typeLocal": "Appartement",
        "surfaceM2": 50,
        "isVefa": false
      },
      {
        "date": "2021-10-29",
        "priceEur": 70000,
        "typeLocal": "Appartement",
        "surfaceM2": 59,
        "isVefa": false
      },
      {
        "date": "2021-09-15",
        "priceEur": 54000,
        "typeLocal": "Appartement",
        "surfaceM2": 58,
        "isVefa": false
      },
      {
        "date": "2021-04-27",
        "priceEur": 82000,
        "typeLocal": "Appartement",
        "surfaceM2": 48,
        "isVefa": false
      }
    ]
  },
  "5461488e286f": {
    "id": "5461488e286f",
    "label": "6 IMP DE LA GRANDE CARUE, Déville-lès-Rouen",
    "lat": 49.459348,
    "lng": 1.051842,
    "transactions": [
      {
        "date": "2021-10-21",
        "priceEur": 144000,
        "typeLocal": "Maison",
        "surfaceM2": 98,
        "isVefa": false
      }
    ]
  },
  "5c667b13d971": {
    "id": "5c667b13d971",
    "label": "73 RUE GEORGES HEBERT, Déville-lès-Rouen",
    "lat": 49.45915,
    "lng": 1.051863,
    "transactions": [
      {
        "date": "2025-01-08",
        "priceEur": 83500,
        "typeLocal": "Appartement",
        "surfaceM2": 42,
        "isVefa": false
      },
      {
        "date": "2024-12-30",
        "priceEur": 58000,
        "typeLocal": "Appartement",
        "surfaceM2": 27,
        "isVefa": false
      },
      {
        "date": "2024-11-08",
        "priceEur": 104000,
        "typeLocal": "Appartement",
        "surfaceM2": 42,
        "isVefa": false
      },
      {
        "date": "2024-09-12",
        "priceEur": 91000,
        "typeLocal": "Appartement",
        "surfaceM2": 52,
        "isVefa": false
      },
      {
        "date": "2024-06-27",
        "priceEur": 74000,
        "typeLocal": "Appartement",
        "surfaceM2": 52,
        "isVefa": false
      },
      {
        "date": "2024-06-05",
        "priceEur": 42000,
        "typeLocal": "Appartement",
        "surfaceM2": 27,
        "isVefa": false
      },
      {
        "date": "2024-03-18",
        "priceEur": 75100,
        "typeLocal": "Appartement",
        "surfaceM2": 70,
        "isVefa": false
      },
      {
        "date": "2024-02-22",
        "priceEur": 89000,
        "typeLocal": "Appartement",
        "surfaceM2": 70,
        "isVefa": false
      },
      {
        "date": "2024-01-05",
        "priceEur": 122500,
        "typeLocal": "Appartement",
        "surfaceM2": 70,
        "isVefa": false
      },
      {
        "date": "2023-12-22",
        "priceEur": 115000,
        "typeLocal": "Appartement",
        "surfaceM2": 80,
        "isVefa": false
      },
      {
        "date": "2023-11-22",
        "priceEur": 106000,
        "typeLocal": "Appartement",
        "surfaceM2": 80,
        "isVefa": false
      },
      {
        "date": "2023-11-17",
        "priceEur": 90000,
        "typeLocal": "Appartement",
        "surfaceM2": 70,
        "isVefa": false
      },
      {
        "date": "2023-10-30",
        "priceEur": 128000,
        "typeLocal": "Appartement",
        "surfaceM2": 70,
        "isVefa": false
      },
      {
        "date": "2023-10-18",
        "priceEur": 76000,
        "typeLocal": "Appartement",
        "surfaceM2": 52,
        "isVefa": false
      },
      {
        "date": "2023-01-13",
        "priceEur": 110500,
        "typeLocal": "Appartement",
        "surfaceM2": 80,
        "isVefa": false
      },
      {
        "date": "2023-01-04",
        "priceEur": 47500,
        "typeLocal": "Appartement",
        "surfaceM2": 27,
        "isVefa": false
      },
      {
        "date": "2022-12-16",
        "priceEur": 99500,
        "typeLocal": "Appartement",
        "surfaceM2": 42,
        "isVefa": false
      },
      {
        "date": "2022-10-12",
        "priceEur": 70000,
        "typeLocal": "Appartement",
        "surfaceM2": 42,
        "isVefa": false
      },
      {
        "date": "2022-06-24",
        "priceEur": 118000,
        "typeLocal": "Appartement",
        "surfaceM2": 52,
        "isVefa": false
      },
      {
        "date": "2022-03-08",
        "priceEur": 120000,
        "typeLocal": "Appartement",
        "surfaceM2": 70,
        "isVefa": false
      },
      {
        "date": "2022-01-19",
        "priceEur": 96700,
        "typeLocal": "Appartement",
        "surfaceM2": 52,
        "isVefa": false
      },
      {
        "date": "2021-11-02",
        "priceEur": 70000,
        "typeLocal": "Appartement",
        "surfaceM2": 70,
        "isVefa": false
      },
      {
        "date": "2021-09-13",
        "priceEur": 69500,
        "typeLocal": "Appartement",
        "surfaceM2": 27,
        "isVefa": false
      },
      {
        "date": "2021-05-05",
        "priceEur": 118000,
        "typeLocal": "Appartement",
        "surfaceM2": 70,
        "isVefa": false
      },
      {
        "date": "2021-04-27",
        "priceEur": 75000,
        "typeLocal": "Appartement",
        "surfaceM2": 42,
        "isVefa": false
      },
      {
        "date": "2021-01-27",
        "priceEur": 83000,
        "typeLocal": "Appartement",
        "surfaceM2": 52,
        "isVefa": false
      },
      {
        "date": "2021-01-11",
        "priceEur": 70000,
        "typeLocal": "Appartement",
        "surfaceM2": 70,
        "isVefa": false
      }
    ]
  },
  "4da3a15021af": {
    "id": "4da3a15021af",
    "label": "56 RUE GEORGES HEBERT, Déville-lès-Rouen",
    "lat": 49.460682,
    "lng": 1.051887,
    "transactions": [
      {
        "date": "2021-11-15",
        "priceEur": 181970,
        "typeLocal": "Maison",
        "surfaceM2": 72,
        "isVefa": false
      }
    ]
  },
  "0c1e28e816fa": {
    "id": "0c1e28e816fa",
    "label": "9 RUE DE LA PLAINE, Canteleu",
    "lat": 49.454292,
    "lng": 1.046158,
    "transactions": [
      {
        "date": "2021-11-30",
        "priceEur": 180000,
        "typeLocal": "Maison",
        "surfaceM2": 100,
        "isVefa": false
      }
    ]
  },
  "5427acd8cb67": {
    "id": "5427acd8cb67",
    "label": "21 RUE GAMBETTA, Déville-lès-Rouen",
    "lat": 49.460218,
    "lng": 1.054004,
    "transactions": [
      {
        "date": "2021-01-04",
        "priceEur": 203400,
        "typeLocal": "Maison",
        "surfaceM2": 110,
        "isVefa": false
      }
    ]
  },
  "10cf32f1fdbd": {
    "id": "10cf32f1fdbd",
    "label": "39 RUE GASTON BOULET, Canteleu",
    "lat": 49.454271,
    "lng": 1.048426,
    "transactions": [
      {
        "date": "2023-10-31",
        "priceEur": 100000,
        "typeLocal": "Maison",
        "surfaceM2": 45,
        "isVefa": false
      },
      {
        "date": "2021-01-22",
        "priceEur": 92300,
        "typeLocal": "Maison",
        "surfaceM2": 45,
        "isVefa": false
      }
    ]
  },
  "f85e57ec9557": {
    "id": "f85e57ec9557",
    "label": "69 RUE GEORGES HEBERT, Déville-lès-Rouen",
    "lat": 49.458036,
    "lng": 1.053234,
    "transactions": [
      {
        "date": "2021-04-02",
        "priceEur": 214000,
        "typeLocal": "Maison",
        "surfaceM2": 92,
        "isVefa": false
      }
    ]
  },
  "2562a4237eb3": {
    "id": "2562a4237eb3",
    "label": "33 RTE DE DIEPPE, Déville-lès-Rouen",
    "lat": 49.460282,
    "lng": 1.054364,
    "transactions": [
      {
        "date": "2021-04-23",
        "priceEur": 187000,
        "typeLocal": "Maison",
        "surfaceM2": 85,
        "isVefa": false
      }
    ]
  },
  "68810b9d62c2": {
    "id": "68810b9d62c2",
    "label": "28 RUE SIMONE VEIL, Déville-lès-Rouen",
    "lat": 49.460071,
    "lng": 1.050187,
    "transactions": [
      {
        "date": "2021-05-03",
        "priceEur": 213000,
        "typeLocal": "Maison",
        "surfaceM2": 107,
        "isVefa": false
      }
    ]
  },
  "41409c3bbd95": {
    "id": "41409c3bbd95",
    "label": "53B RUE GASTON BOULET, Canteleu",
    "lat": 49.454737,
    "lng": 1.0486,
    "transactions": [
      {
        "date": "2024-10-10",
        "priceEur": 89500,
        "typeLocal": "Appartement",
        "surfaceM2": 41,
        "isVefa": false
      },
      {
        "date": "2024-08-06",
        "priceEur": 145470,
        "typeLocal": "Appartement",
        "surfaceM2": 59,
        "isVefa": false
      },
      {
        "date": "2024-04-03",
        "priceEur": 97000,
        "typeLocal": "Appartement",
        "surfaceM2": 41,
        "isVefa": false
      },
      {
        "date": "2024-03-25",
        "priceEur": 92350,
        "typeLocal": "Appartement",
        "surfaceM2": 40,
        "isVefa": false
      },
      {
        "date": "2023-10-04",
        "priceEur": 108000,
        "typeLocal": "Appartement",
        "surfaceM2": 41,
        "isVefa": false
      },
      {
        "date": "2023-04-19",
        "priceEur": 92500,
        "typeLocal": "Appartement",
        "surfaceM2": 41,
        "isVefa": false
      },
      {
        "date": "2022-10-26",
        "priceEur": 126000,
        "typeLocal": "Appartement",
        "surfaceM2": 59,
        "isVefa": false
      },
      {
        "date": "2022-04-20",
        "priceEur": 100000,
        "typeLocal": "Appartement",
        "surfaceM2": 41,
        "isVefa": false
      },
      {
        "date": "2021-06-07",
        "priceEur": 135000,
        "typeLocal": "Appartement",
        "surfaceM2": 59,
        "isVefa": false
      }
    ]
  },
  "f0e50f045f55": {
    "id": "f0e50f045f55",
    "label": "6 RUE GAMBETTA, Déville-lès-Rouen",
    "lat": 49.460056,
    "lng": 1.054432,
    "transactions": [
      {
        "date": "2021-06-02",
        "priceEur": 165000,
        "typeLocal": "Maison",
        "surfaceM2": 94,
        "isVefa": false
      }
    ]
  },
  "ec643b5ae9b3": {
    "id": "ec643b5ae9b3",
    "label": "1C RUE SIMONE VEIL, Déville-lès-Rouen",
    "lat": 49.460099,
    "lng": 1.049535,
    "transactions": [
      {
        "date": "2021-09-01",
        "priceEur": 132500,
        "typeLocal": "Appartement",
        "surfaceM2": 41,
        "isVefa": true
      },
      {
        "date": "2021-07-01",
        "priceEur": 186500,
        "typeLocal": "Appartement",
        "surfaceM2": 60,
        "isVefa": true
      }
    ]
  },
  "3ed47e4c1ca1": {
    "id": "3ed47e4c1ca1",
    "label": "47 RTE DE DIEPPE, Déville-lès-Rouen",
    "lat": 49.46068,
    "lng": 1.05431,
    "transactions": [
      {
        "date": "2021-07-01",
        "priceEur": 346400,
        "typeLocal": "Maison",
        "surfaceM2": 98,
        "isVefa": false
      },
      {
        "date": "2021-07-01",
        "priceEur": 346400,
        "typeLocal": "Maison",
        "surfaceM2": 26,
        "isVefa": false
      }
    ]
  },
  "cd835fa7f680": {
    "id": "cd835fa7f680",
    "label": "41 RUE GEORGES HEBERT, Déville-lès-Rouen",
    "lat": 49.456331,
    "lng": 1.053533,
    "transactions": [
      {
        "date": "2021-08-11",
        "priceEur": 170000,
        "typeLocal": "Maison",
        "surfaceM2": 99,
        "isVefa": false
      }
    ]
  },
  "c0edd263cec9": {
    "id": "c0edd263cec9",
    "label": "45 RUE GAMBETTA, Déville-lès-Rouen",
    "lat": 49.460766,
    "lng": 1.053696,
    "transactions": [
      {
        "date": "2021-08-26",
        "priceEur": 140000,
        "typeLocal": "Maison",
        "surfaceM2": 70,
        "isVefa": false
      }
    ]
  },
  "354e0cfc8a49": {
    "id": "354e0cfc8a49",
    "label": "3 RUE SAINT PIERRE, Canteleu",
    "lat": 49.454348,
    "lng": 1.04931,
    "transactions": [
      {
        "date": "2021-09-01",
        "priceEur": 300000,
        "typeLocal": "Maison",
        "surfaceM2": 140,
        "isVefa": false
      }
    ]
  },
  "a0e1a68ea86f": {
    "id": "a0e1a68ea86f",
    "label": "34 RUE GASTON BOULET, Canteleu",
    "lat": 49.453871,
    "lng": 1.049479,
    "transactions": [
      {
        "date": "2021-09-13",
        "priceEur": 128000,
        "typeLocal": "Maison",
        "surfaceM2": 83,
        "isVefa": false
      }
    ]
  },
  "b63ff8bea2a9": {
    "id": "b63ff8bea2a9",
    "label": "19 RUE SAINT FILLEUL, Canteleu",
    "lat": 49.455653,
    "lng": 1.049986,
    "transactions": [
      {
        "date": "2021-10-13",
        "priceEur": 130000,
        "typeLocal": "Maison",
        "surfaceM2": 85,
        "isVefa": false
      }
    ]
  },
  "9e505a980169": {
    "id": "9e505a980169",
    "label": "17 RUE GEORGES HEBERT, Déville-lès-Rouen",
    "lat": 49.45516,
    "lng": 1.054581,
    "transactions": [
      {
        "date": "2022-01-05",
        "priceEur": 280000,
        "typeLocal": "Maison",
        "surfaceM2": 130,
        "isVefa": false
      }
    ]
  },
  "b0cb672572b9": {
    "id": "b0cb672572b9",
    "label": "7 RUE GAMBETTA, Déville-lès-Rouen",
    "lat": 49.459117,
    "lng": 1.054459,
    "transactions": [
      {
        "date": "2025-02-10",
        "priceEur": 85000,
        "typeLocal": "Appartement",
        "surfaceM2": 57,
        "isVefa": false
      },
      {
        "date": "2022-09-30",
        "priceEur": 190000,
        "typeLocal": "Appartement",
        "surfaceM2": 70,
        "isVefa": false
      },
      {
        "date": "2022-02-08",
        "priceEur": 172600,
        "typeLocal": "Appartement",
        "surfaceM2": 70,
        "isVefa": false
      }
    ]
  },
  "61c0a2129c13": {
    "id": "61c0a2129c13",
    "label": "6 RUE PASTEUR, Déville-lès-Rouen",
    "lat": 49.45979,
    "lng": 1.053152,
    "transactions": [
      {
        "date": "2022-02-28",
        "priceEur": 186000,
        "typeLocal": "Maison",
        "surfaceM2": 62,
        "isVefa": false
      }
    ]
  },
  "caafca47b025": {
    "id": "caafca47b025",
    "label": "2T RUE DE L EGLISE, Déville-lès-Rouen",
    "lat": 49.460064,
    "lng": 1.053826,
    "transactions": [
      {
        "date": "2022-04-08",
        "priceEur": 169000,
        "typeLocal": "Maison",
        "surfaceM2": 68,
        "isVefa": false
      }
    ]
  },
  "31dc081ad693": {
    "id": "31dc081ad693",
    "label": "6 RUE SAINT PIERRE, Canteleu",
    "lat": 49.45534,
    "lng": 1.049415,
    "transactions": [
      {
        "date": "2022-05-03",
        "priceEur": 129800,
        "typeLocal": "Maison",
        "surfaceM2": 28,
        "isVefa": false
      }
    ]
  },
  "245320a27528": {
    "id": "245320a27528",
    "label": "4 RUE MARCEL CAVE, Canteleu",
    "lat": 49.455405,
    "lng": 1.050428,
    "transactions": [
      {
        "date": "2022-06-27",
        "priceEur": 151000,
        "typeLocal": "Maison",
        "surfaceM2": 75,
        "isVefa": false
      }
    ]
  },
  "8dd77583de55": {
    "id": "8dd77583de55",
    "label": "35 RTE DE DIEPPE, Déville-lès-Rouen",
    "lat": 49.460321,
    "lng": 1.054388,
    "transactions": [
      {
        "date": "2022-07-06",
        "priceEur": 142000,
        "typeLocal": "Maison",
        "surfaceM2": 49,
        "isVefa": false
      }
    ]
  },
  "6bfcf69e4d5e": {
    "id": "6bfcf69e4d5e",
    "label": "8 RUE DU CANAL, Canteleu",
    "lat": 49.454336,
    "lng": 1.046309,
    "transactions": [
      {
        "date": "2022-07-19",
        "priceEur": 153000,
        "typeLocal": "Maison",
        "surfaceM2": 124,
        "isVefa": false
      }
    ]
  },
  "b8d3fc47525d": {
    "id": "b8d3fc47525d",
    "label": "12 RUE DU MANOIR RIGAULT, Déville-lès-Rouen",
    "lat": 49.458254,
    "lng": 1.054213,
    "transactions": [
      {
        "date": "2022-08-24",
        "priceEur": 258100,
        "typeLocal": "Maison",
        "surfaceM2": 102,
        "isVefa": false
      }
    ]
  },
  "86cf753b86d5": {
    "id": "86cf753b86d5",
    "label": "15 RUE DE L EGLISE, Déville-lès-Rouen",
    "lat": 49.460392,
    "lng": 1.053059,
    "transactions": [
      {
        "date": "2022-08-18",
        "priceEur": 130000,
        "typeLocal": "Maison",
        "surfaceM2": 70,
        "isVefa": false
      }
    ]
  },
  "a21265227919": {
    "id": "a21265227919",
    "label": "10 ALL DES FRERES MONET, Déville-lès-Rouen",
    "lat": 49.458774,
    "lng": 1.050832,
    "transactions": [
      {
        "date": "2022-08-22",
        "priceEur": 193000,
        "typeLocal": "Maison",
        "surfaceM2": 83,
        "isVefa": false
      }
    ]
  },
  "3d2ad5847c24": {
    "id": "3d2ad5847c24",
    "label": "4 ALL DES FRERES MONET, Déville-lès-Rouen",
    "lat": 49.459006,
    "lng": 1.050614,
    "transactions": [
      {
        "date": "2022-09-14",
        "priceEur": 193000,
        "typeLocal": "Maison",
        "surfaceM2": 83,
        "isVefa": false
      }
    ]
  },
  "61f45c549edc": {
    "id": "61f45c549edc",
    "label": "47 RUE GASTON BOULET, Canteleu",
    "lat": 49.454424,
    "lng": 1.048378,
    "transactions": [
      {
        "date": "2022-09-19",
        "priceEur": 125500,
        "typeLocal": "Maison",
        "surfaceM2": 42,
        "isVefa": false
      }
    ]
  },
  "6efe51117055": {
    "id": "6efe51117055",
    "label": "37 RUE GAMBETTA, Déville-lès-Rouen",
    "lat": 49.460588,
    "lng": 1.053824,
    "transactions": [
      {
        "date": "2022-10-06",
        "priceEur": 217550,
        "typeLocal": "Maison",
        "surfaceM2": 100,
        "isVefa": false
      }
    ]
  },
  "2fc1a18f2180": {
    "id": "2fc1a18f2180",
    "label": "39 RUE GAMBETTA, Déville-lès-Rouen",
    "lat": 49.46058,
    "lng": 1.053692,
    "transactions": [
      {
        "date": "2022-10-06",
        "priceEur": 217550,
        "typeLocal": "Maison",
        "surfaceM2": 35,
        "isVefa": false
      }
    ]
  },
  "a80bdf4c60fd": {
    "id": "a80bdf4c60fd",
    "label": "15 RUE GEORGES HEBERT, Déville-lès-Rouen",
    "lat": 49.455055,
    "lng": 1.054626,
    "transactions": [
      {
        "date": "2022-10-03",
        "priceEur": 158400,
        "typeLocal": "Maison",
        "surfaceM2": 38,
        "isVefa": false
      }
    ]
  },
  "517af6a300ca": {
    "id": "517af6a300ca",
    "label": "9 RUE DU LOUP, Rouen",
    "lat": 49.454397,
    "lng": 1.054192,
    "transactions": [
      {
        "date": "2025-03-28",
        "priceEur": 70000,
        "typeLocal": "Appartement",
        "surfaceM2": 48,
        "isVefa": false
      },
      {
        "date": "2022-10-22",
        "priceEur": 98270,
        "typeLocal": "Appartement",
        "surfaceM2": 73,
        "isVefa": false
      }
    ]
  },
  "0cd1fa25ee68": {
    "id": "0cd1fa25ee68",
    "label": "8 ALL DES FRERES MONET, Déville-lès-Rouen",
    "lat": 49.458857,
    "lng": 1.050738,
    "transactions": [
      {
        "date": "2024-02-23",
        "priceEur": 211650,
        "typeLocal": "Maison",
        "surfaceM2": 85,
        "isVefa": false
      },
      {
        "date": "2022-11-04",
        "priceEur": 195030,
        "typeLocal": "Maison",
        "surfaceM2": 85,
        "isVefa": false
      }
    ]
  },
  "005d9e79bee8": {
    "id": "005d9e79bee8",
    "label": "7 RUE DE L EGLISE, Déville-lès-Rouen",
    "lat": 49.460159,
    "lng": 1.052992,
    "transactions": [
      {
        "date": "2022-11-23",
        "priceEur": 260000,
        "typeLocal": "Maison",
        "surfaceM2": 118,
        "isVefa": false
      }
    ]
  },
  "0a6de8eea1c2": {
    "id": "0a6de8eea1c2",
    "label": "51 RUE GEORGES HEBERT, Déville-lès-Rouen",
    "lat": 49.456995,
    "lng": 1.053612,
    "transactions": [
      {
        "date": "2023-03-03",
        "priceEur": 171000,
        "typeLocal": "Maison",
        "surfaceM2": 69,
        "isVefa": false
      }
    ]
  },
  "436a00f72a4f": {
    "id": "436a00f72a4f",
    "label": "8 RUE GEORGES HEBERT, Déville-lès-Rouen",
    "lat": 49.458479,
    "lng": 1.053589,
    "transactions": [
      {
        "date": "2023-03-10",
        "priceEur": 170000,
        "typeLocal": "Maison",
        "surfaceM2": 62,
        "isVefa": false
      }
    ]
  },
  "5cef5fe99271": {
    "id": "5cef5fe99271",
    "label": "45 RUE GASTON BOULET, Canteleu",
    "lat": 49.454385,
    "lng": 1.048395,
    "transactions": [
      {
        "date": "2023-03-09",
        "priceEur": 143000,
        "typeLocal": "Maison",
        "surfaceM2": 68,
        "isVefa": false
      }
    ]
  },
  "cb08fde67163": {
    "id": "cb08fde67163",
    "label": "13 RUE DU CANAL, Canteleu",
    "lat": 49.455135,
    "lng": 1.044202,
    "transactions": [
      {
        "date": "2023-04-04",
        "priceEur": 110000,
        "typeLocal": "Maison",
        "surfaceM2": 65,
        "isVefa": false
      }
    ]
  },
  "bdcaace9519c": {
    "id": "bdcaace9519c",
    "label": "6 ALL DES FRERES MONET, Déville-lès-Rouen",
    "lat": 49.458926,
    "lng": 1.050657,
    "transactions": [
      {
        "date": "2023-04-05",
        "priceEur": 191070,
        "typeLocal": "Maison",
        "surfaceM2": 83,
        "isVefa": false
      }
    ]
  },
  "27c3b155b220": {
    "id": "27c3b155b220",
    "label": "23 RUE GEORGES HEBERT, Déville-lès-Rouen",
    "lat": 49.455496,
    "lng": 1.054276,
    "transactions": [
      {
        "date": "2023-03-30",
        "priceEur": 130000,
        "typeLocal": "Maison",
        "surfaceM2": 78,
        "isVefa": false
      }
    ]
  },
  "8c7fa6346e1a": {
    "id": "8c7fa6346e1a",
    "label": "67 RUE GEORGES HEBERT, Déville-lès-Rouen",
    "lat": 49.457859,
    "lng": 1.053181,
    "transactions": [
      {
        "date": "2023-03-20",
        "priceEur": 206500,
        "typeLocal": "Maison",
        "surfaceM2": 84,
        "isVefa": false
      }
    ]
  },
  "7bb790910b51": {
    "id": "7bb790910b51",
    "label": "11 ALL DES FRERES MONET, Déville-lès-Rouen",
    "lat": 49.458606,
    "lng": 1.050426,
    "transactions": [
      {
        "date": "2023-04-21",
        "priceEur": 195030,
        "typeLocal": "Maison",
        "surfaceM2": 85,
        "isVefa": false
      }
    ]
  },
  "f3573ca05e7b": {
    "id": "f3573ca05e7b",
    "label": "65 RUE GEORGES HEBERT, Déville-lès-Rouen",
    "lat": 49.457782,
    "lng": 1.053323,
    "transactions": [
      {
        "date": "2023-05-25",
        "priceEur": 175000,
        "typeLocal": "Maison",
        "surfaceM2": 100,
        "isVefa": false
      }
    ]
  },
  "4f4ce6806d96": {
    "id": "4f4ce6806d96",
    "label": "62 RUE GEORGES HEBERT, Déville-lès-Rouen",
    "lat": 49.460796,
    "lng": 1.051834,
    "transactions": [
      {
        "date": "2023-05-25",
        "priceEur": 260000,
        "typeLocal": "Maison",
        "surfaceM2": 128,
        "isVefa": false
      }
    ]
  },
  "3480d13c23a9": {
    "id": "3480d13c23a9",
    "label": "49 RUE GASTON BOULET, Canteleu",
    "lat": 49.454462,
    "lng": 1.048362,
    "transactions": [
      {
        "date": "2023-06-06",
        "priceEur": 167500,
        "typeLocal": "Maison",
        "surfaceM2": 82,
        "isVefa": false
      }
    ]
  },
  "033e34e310d4": {
    "id": "033e34e310d4",
    "label": "76 RTE DE DIEPPE, Déville-lès-Rouen",
    "lat": 49.460975,
    "lng": 1.054643,
    "transactions": [
      {
        "date": "2025-03-07",
        "priceEur": 46500,
        "typeLocal": "Appartement",
        "surfaceM2": 20,
        "isVefa": false
      },
      {
        "date": "2023-06-30",
        "priceEur": 57000,
        "typeLocal": "Appartement",
        "surfaceM2": 20,
        "isVefa": false
      }
    ]
  },
  "472723dcf19b": {
    "id": "472723dcf19b",
    "label": "21 ALL DES FRERES MONET, Déville-lès-Rouen",
    "lat": 49.458288,
    "lng": 1.050865,
    "transactions": [
      {
        "date": "2023-06-29",
        "priceEur": 185130,
        "typeLocal": "Maison",
        "surfaceM2": 81,
        "isVefa": false
      }
    ]
  },
  "eb7ccfcba67c": {
    "id": "eb7ccfcba67c",
    "label": "16 ALL DES FRERES MONET, Déville-lès-Rouen",
    "lat": 49.45853,
    "lng": 1.051133,
    "transactions": [
      {
        "date": "2023-07-03",
        "priceEur": 195030,
        "typeLocal": "Maison",
        "surfaceM2": 85,
        "isVefa": false
      }
    ]
  },
  "5de15c51265b": {
    "id": "5de15c51265b",
    "label": "12 RUE PASTEUR, Déville-lès-Rouen",
    "lat": 49.459657,
    "lng": 1.052685,
    "transactions": [
      {
        "date": "2023-07-28",
        "priceEur": 160000,
        "typeLocal": "Maison",
        "surfaceM2": 85,
        "isVefa": false
      }
    ]
  },
  "2f7df2b73559": {
    "id": "2f7df2b73559",
    "label": "9 RUE CARPENTIER, Déville-lès-Rouen",
    "lat": 49.460088,
    "lng": 1.052443,
    "transactions": [
      {
        "date": "2023-09-15",
        "priceEur": 296500,
        "typeLocal": "Maison",
        "surfaceM2": 120,
        "isVefa": false
      }
    ]
  },
  "fbcfe3fc64af": {
    "id": "fbcfe3fc64af",
    "label": "16 RUE GEORGES HEBERT, Déville-lès-Rouen",
    "lat": 49.459105,
    "lng": 1.053113,
    "transactions": [
      {
        "date": "2023-09-28",
        "priceEur": 225000,
        "typeLocal": "Maison",
        "surfaceM2": 91,
        "isVefa": false
      }
    ]
  },
  "a6e8704c8600": {
    "id": "a6e8704c8600",
    "label": "30 RUE SIMONE VEIL, Déville-lès-Rouen",
    "lat": 49.460145,
    "lng": 1.05008,
    "transactions": [
      {
        "date": "2023-10-23",
        "priceEur": 228500,
        "typeLocal": "Maison",
        "surfaceM2": 80,
        "isVefa": false
      }
    ]
  },
  "b0d291d16a27": {
    "id": "b0d291d16a27",
    "label": "19 ALL DES FRERES MONET, Déville-lès-Rouen",
    "lat": 49.458362,
    "lng": 1.050763,
    "transactions": [
      {
        "date": "2023-12-01",
        "priceEur": 193060,
        "typeLocal": "Maison",
        "surfaceM2": 85,
        "isVefa": false
      }
    ]
  },
  "4f04b5ca2a5a": {
    "id": "4f04b5ca2a5a",
    "label": "40 RUE GEORGES HEBERT, Déville-lès-Rouen",
    "lat": 49.460332,
    "lng": 1.052208,
    "transactions": [
      {
        "date": "2024-02-20",
        "priceEur": 187000,
        "typeLocal": "Maison",
        "surfaceM2": 60,
        "isVefa": false
      }
    ]
  },
  "f4d5ab6f2b44": {
    "id": "f4d5ab6f2b44",
    "label": "23B RUE DE L EGLISE, Déville-lès-Rouen",
    "lat": 49.460958,
    "lng": 1.051857,
    "transactions": [
      {
        "date": "2024-03-22",
        "priceEur": 188000,
        "typeLocal": "Maison",
        "surfaceM2": 146,
        "isVefa": false
      }
    ]
  },
  "e342f7b459d4": {
    "id": "e342f7b459d4",
    "label": "58 RUE GEORGES HEBERT, Déville-lès-Rouen",
    "lat": 49.460717,
    "lng": 1.051861,
    "transactions": [
      {
        "date": "2024-05-14",
        "priceEur": 138500,
        "typeLocal": "Maison",
        "surfaceM2": 65,
        "isVefa": false
      }
    ]
  },
  "7df1e24c1297": {
    "id": "7df1e24c1297",
    "label": "9 ALL DES FRERES MONET, Déville-lès-Rouen",
    "lat": 49.458696,
    "lng": 1.050382,
    "transactions": [
      {
        "date": "2024-07-02",
        "priceEur": 189140,
        "typeLocal": "Maison",
        "surfaceM2": 83,
        "isVefa": false
      }
    ]
  },
  "ab0923d5bce3": {
    "id": "ab0923d5bce3",
    "label": "24 RUE GEORGES HEBERT, Déville-lès-Rouen",
    "lat": 49.459598,
    "lng": 1.052509,
    "transactions": [
      {
        "date": "2024-09-09",
        "priceEur": 142860,
        "typeLocal": "Maison",
        "surfaceM2": 61,
        "isVefa": false
      }
    ]
  },
  "af4649bfa92f": {
    "id": "af4649bfa92f",
    "label": "51 RTE DE DIEPPE, Déville-lès-Rouen",
    "lat": 49.460902,
    "lng": 1.05414,
    "transactions": [
      {
        "date": "2024-09-16",
        "priceEur": 73000,
        "typeLocal": "Appartement",
        "surfaceM2": 48,
        "isVefa": false
      }
    ]
  },
  "4b81721dc98d": {
    "id": "4b81721dc98d",
    "label": "42 RUE DE LA PETITE RIVIERE, Canteleu",
    "lat": 49.457998,
    "lng": 1.044137,
    "transactions": [
      {
        "date": "2024-10-22",
        "priceEur": 134000,
        "typeLocal": "Maison",
        "surfaceM2": 49,
        "isVefa": false
      }
    ]
  },
  "8261edf5f72f": {
    "id": "8261edf5f72f",
    "label": "10 RUE PASTEUR, Déville-lès-Rouen",
    "lat": 49.459625,
    "lng": 1.052757,
    "transactions": [
      {
        "date": "2024-11-21",
        "priceEur": 126000,
        "typeLocal": "Maison",
        "surfaceM2": 58,
        "isVefa": false
      }
    ]
  },
  "2c4703275906": {
    "id": "2c4703275906",
    "label": "21 RUE SAINT FILLEUL, Canteleu",
    "lat": 49.455655,
    "lng": 1.050097,
    "transactions": [
      {
        "date": "2024-12-18",
        "priceEur": 92000,
        "typeLocal": "Maison",
        "surfaceM2": 82,
        "isVefa": false
      }
    ]
  },
  "069e38034bd2": {
    "id": "069e38034bd2",
    "label": "14 IMP DE LA GRANDE CARUE, Déville-lès-Rouen",
    "lat": 49.459074,
    "lng": 1.051039,
    "transactions": [
      {
        "date": "2024-12-16",
        "priceEur": 155000,
        "typeLocal": "Maison",
        "surfaceM2": 65,
        "isVefa": false
      }
    ]
  },
  "e865f1328346": {
    "id": "e865f1328346",
    "label": "2 RUE PASTEUR, Déville-lès-Rouen",
    "lat": 49.459883,
    "lng": 1.053515,
    "transactions": [
      {
        "date": "2025-01-16",
        "priceEur": 120000,
        "typeLocal": "Maison",
        "surfaceM2": 49,
        "isVefa": false
      }
    ]
  },
  "a032adf38b58": {
    "id": "a032adf38b58",
    "label": "5B RUE PASTEUR, Déville-lès-Rouen",
    "lat": 49.459435,
    "lng": 1.053445,
    "transactions": [
      {
        "date": "2025-01-31",
        "priceEur": 150000,
        "typeLocal": "Maison",
        "surfaceM2": 82,
        "isVefa": false
      }
    ]
  },
  "b29b79649163": {
    "id": "b29b79649163",
    "label": "85 RUE GEORGES HEBERT, Déville-lès-Rouen",
    "lat": 49.460773,
    "lng": 1.050923,
    "transactions": [
      {
        "date": "2025-02-26",
        "priceEur": 1394627,
        "typeLocal": "Maison",
        "surfaceM2": 119,
        "isVefa": false
      }
    ]
  },
  "7cb335767da5": {
    "id": "7cb335767da5",
    "label": "18 RUE GEORGES HEBERT, Déville-lès-Rouen",
    "lat": 49.459237,
    "lng": 1.053054,
    "transactions": [
      {
        "date": "2025-03-19",
        "priceEur": 265000,
        "typeLocal": "Maison",
        "surfaceM2": 149,
        "isVefa": false
      }
    ]
  },
  "c577310fb24a": {
    "id": "c577310fb24a",
    "label": "54 RUE GEORGES HEBERT, Déville-lès-Rouen",
    "lat": 49.460647,
    "lng": 1.051913,
    "transactions": [
      {
        "date": "2025-04-07",
        "priceEur": 119000,
        "typeLocal": "Maison",
        "surfaceM2": 88,
        "isVefa": false
      }
    ]
  },
  "887618ee2e34": {
    "id": "887618ee2e34",
    "label": "25 RUE GAMBETTA, Déville-lès-Rouen",
    "lat": 49.460333,
    "lng": 1.053845,
    "transactions": [
      {
        "date": "2025-04-10",
        "priceEur": 152000,
        "typeLocal": "Maison",
        "surfaceM2": 68,
        "isVefa": false
      }
    ]
  },
  "6bef632e6f39": {
    "id": "6bef632e6f39",
    "label": "15 ALL DES FRERES MONET, Déville-lès-Rouen",
    "lat": 49.458484,
    "lng": 1.050594,
    "transactions": [
      {
        "date": "2025-04-23",
        "priceEur": 197000,
        "typeLocal": "Maison",
        "surfaceM2": 85,
        "isVefa": false
      }
    ]
  },
  "0c47a4926637": {
    "id": "0c47a4926637",
    "label": "41 RUE GASTON BOULET, Canteleu",
    "lat": 49.454302,
    "lng": 1.048411,
    "transactions": [
      {
        "date": "2025-05-07",
        "priceEur": 127950,
        "typeLocal": "Maison",
        "surfaceM2": 68,
        "isVefa": false
      }
    ]
  }
}