{
  "012b1f8d4130": {
    "id": "012b1f8d4130",
    "label": "10 RUE DU BOURG JOLY, Reuville",
    "lat": 49.752121,
    "lng": 0.864943,
    "transactions": [
      {
        "date": "2020-07-06",
        "priceEur": 90000,
        "typeLocal": "Maison",
        "surfaceM2": 52,
        "isVefa": false
      }
    ]
  },
  "74f708941b00": {
    "id": "74f708941b00",
    "label": "13 RTE DU MOULIN, Reuville",
    "lat": 49.747289,
    "lng": 0.866057,
    "transactions": [
      {
        "date": "2020-07-24",
        "priceEur": 60000,
        "typeLocal": "Maison",
        "surfaceM2": 140,
        "isVefa": false
      }
    ]
  },
  "73e24b69237b": {
    "id": "73e24b69237b",
    "label": "6 RTE DE DOUDEVILLE, Reuville",
    "lat": 49.746695,
    "lng": 0.863343,
    "transactions": [
      {
        "date": "2020-09-25",
        "priceEur": 108000,
        "typeLocal": "Maison",
        "surfaceM2": 61,
        "isVefa": false
      }
    ]
  },
  "3f4caf6e9d4b": {
    "id": "3f4caf6e9d4b",
    "label": "2 RTE DE SABOUTOT, Reuville",
    "lat": 49.751254,
    "lng": 0.865904,
    "transactions": [
      {
        "date": "2022-02-01",
        "priceEur": 121900,
        "typeLocal": "Maison",
        "surfaceM2": 75,
        "isVefa": false
      }
    ]
  },
  "aca5a59d4097": {
    "id": "aca5a59d4097",
    "label": "9Q RUE DU BOURG JOLY, Reuville",
    "lat": 49.752025,
    "lng": 0.86131,
    "transactions": [
      {
        "date": "2022-05-05",
        "priceEur": 209500,
        "typeLocal": "Maison",
        "surfaceM2": 98,
        "isVefa": false
      }
    ]
  },
  "2076a87650f4": {
    "id": "2076a87650f4",
    "label": "6 RUE DU BOURG JOLY, Reuville",
    "lat": 49.751572,
    "lng": 0.86712,
    "transactions": [
      {
        "date": "2023-06-26",
        "priceEur": 108500,
        "typeLocal": "Maison",
        "surfaceM2": 62,
        "isVefa": false
      }
    ]
  },
  "abc36a8fc26b": {
    "id": "abc36a8fc26b",
    "label": "2 RTE DU COLOMBIER, Reuville",
    "lat": 49.751598,
    "lng": 0.866625,
    "transactions": [
      {
        "date": "2023-10-10",
        "priceEur": 179500,
        "typeLocal": "Maison",
        "surfaceM2": 150,
        "isVefa": false
      }
    ]
  },
  "b39dd991d0dc": {
    "id": "b39dd991d0dc",
    "label": "4 RTE DU COLOMBIER, Reuville",
    "lat": 49.751797,
    "lng": 0.867583,
    "transactions": [
      {
        "date": "2023-11-20",
        "priceEur": 130000,
        "typeLocal": "Maison",
        "surfaceM2": 130,
        "isVefa": false
      }
    ]
  },
  "99e3831bb240": {
    "id": "99e3831bb240",
    "label": "14 RUE DU BOURG JOLY, Reuville",
    "lat": 49.752591,
    "lng": 0.864628,
    "transactions": [
      {
        "date": "2025-06-18",
        "priceEur": 98000,
        "typeLocal": "Maison",
        "surfaceM2": 79,
        "isVefa": false
      }
    ]
  }
}