{
  "719ea3fb77df": {
    "id": "719ea3fb77df",
    "label": "10 RUE MARCEL GROMAIRE, Barentin",
    "lat": 49.530858,
    "lng": 0.959008,
    "transactions": [
      {
        "date": "2020-07-10",
        "priceEur": 162000,
        "typeLocal": "Maison",
        "surfaceM2": 88,
        "isVefa": false
      }
    ]
  },
  "a3de5be8056a": {
    "id": "a3de5be8056a",
    "label": "3 RUE GABRIEL REUILLARD, Barentin",
    "lat": 49.531276,
    "lng": 0.96058,
    "transactions": [
      {
        "date": "2020-08-13",
        "priceEur": 182300,
        "typeLocal": "Maison",
        "surfaceM2": 99,
        "isVefa": false
      }
    ]
  },
  "dceb1401b0f1": {
    "id": "dceb1401b0f1",
    "label": "4 RUE AUGUSTE DETOEUF, Barentin",
    "lat": 49.531238,
    "lng": 0.959719,
    "transactions": [
      {
        "date": "2020-11-12",
        "priceEur": 183500,
        "typeLocal": "Maison",
        "surfaceM2": 99,
        "isVefa": false
      }
    ]
  },
  "814f76c9a9d7": {
    "id": "814f76c9a9d7",
    "label": "12 RUE MARCEL GROMAIRE, Barentin",
    "lat": 49.530821,
    "lng": 0.958885,
    "transactions": [
      {
        "date": "2020-11-27",
        "priceEur": 155100,
        "typeLocal": "Maison",
        "surfaceM2": 88,
        "isVefa": false
      }
    ]
  },
  "c3cb1c2a9720": {
    "id": "c3cb1c2a9720",
    "label": "11 RUE GUILLOUX, Barentin",
    "lat": 49.531734,
    "lng": 0.959692,
    "transactions": [
      {
        "date": "2020-11-27",
        "priceEur": 171000,
        "typeLocal": "Maison",
        "surfaceM2": 99,
        "isVefa": false
      }
    ]
  },
  "9314622e1008": {
    "id": "9314622e1008",
    "label": "8 RUE ROBERT DELANDRE, Barentin",
    "lat": 49.530643,
    "lng": 0.957548,
    "transactions": [
      {
        "date": "2020-12-29",
        "priceEur": 80000,
        "typeLocal": "Maison",
        "surfaceM2": 99,
        "isVefa": false
      }
    ]
  },
  "8f116fe95756": {
    "id": "8f116fe95756",
    "label": "6 RUE LEOPOLD BERNSTAMM, Barentin",
    "lat": 49.531826,
    "lng": 0.960066,
    "transactions": [
      {
        "date": "2021-12-01",
        "priceEur": 169500,
        "typeLocal": "Maison",
        "surfaceM2": 88,
        "isVefa": false
      }
    ]
  },
  "d84338e680bd": {
    "id": "d84338e680bd",
    "label": "8 RUE DESCAVES, Barentin",
    "lat": 49.529713,
    "lng": 0.956439,
    "transactions": [
      {
        "date": "2021-10-29",
        "priceEur": 180000,
        "typeLocal": "Maison",
        "surfaceM2": 88,
        "isVefa": false
      }
    ]
  },
  "0421916efae2": {
    "id": "0421916efae2",
    "label": "9 RUE FREDERIC BARTHOLDI, Barentin",
    "lat": 49.531926,
    "lng": 0.957962,
    "transactions": [
      {
        "date": "2021-12-03",
        "priceEur": 172500,
        "typeLocal": "Maison",
        "surfaceM2": 92,
        "isVefa": false
      }
    ]
  },
  "dfa7d70b54d0": {
    "id": "dfa7d70b54d0",
    "label": "10 RUE HENRI SAVALE, Barentin",
    "lat": 49.530432,
    "lng": 0.958367,
    "transactions": [
      {
        "date": "2021-05-26",
        "priceEur": 183700,
        "typeLocal": "Maison",
        "surfaceM2": 88,
        "isVefa": false
      }
    ]
  },
  "756238c6c8cc": {
    "id": "756238c6c8cc",
    "label": "5 RUE HENRI SAVALE, Barentin",
    "lat": 49.531273,
    "lng": 0.958476,
    "transactions": [
      {
        "date": "2021-08-17",
        "priceEur": 184850,
        "typeLocal": "Maison",
        "surfaceM2": 88,
        "isVefa": false
      }
    ]
  },
  "4730454440de": {
    "id": "4730454440de",
    "label": "1 RUE JULES ROMAINS, Barentin",
    "lat": 49.529647,
    "lng": 0.957565,
    "transactions": [
      {
        "date": "2021-09-13",
        "priceEur": 209100,
        "typeLocal": "Maison",
        "surfaceM2": 162,
        "isVefa": false
      }
    ]
  },
  "92672a09fc84": {
    "id": "92672a09fc84",
    "label": "1 RUE LUCIE DELARUE MARDRUS, Barentin",
    "lat": 49.531537,
    "lng": 0.960244,
    "transactions": [
      {
        "date": "2021-09-13",
        "priceEur": 184000,
        "typeLocal": "Maison",
        "surfaceM2": 100,
        "isVefa": false
      }
    ]
  },
  "aefbd740142d": {
    "id": "aefbd740142d",
    "label": "3 RUE LUCIE DELARUE MARDRUS, Barentin",
    "lat": 49.531488,
    "lng": 0.960429,
    "transactions": [
      {
        "date": "2022-04-27",
        "priceEur": 179000,
        "typeLocal": "Maison",
        "surfaceM2": 88,
        "isVefa": false
      }
    ]
  },
  "70a910952a26": {
    "id": "70a910952a26",
    "label": "24 RUE HENRI SAVALE, Barentin",
    "lat": 49.529919,
    "lng": 0.957593,
    "transactions": [
      {
        "date": "2022-05-09",
        "priceEur": 185000,
        "typeLocal": "Maison",
        "surfaceM2": 88,
        "isVefa": false
      }
    ]
  },
  "a708b4ed4441": {
    "id": "a708b4ed4441",
    "label": "8 RUE GERARD BAUER, Barentin",
    "lat": 49.530022,
    "lng": 0.956724,
    "transactions": [
      {
        "date": "2022-08-31",
        "priceEur": 220000,
        "typeLocal": "Maison",
        "surfaceM2": 99,
        "isVefa": false
      }
    ]
  },
  "51bf13678577": {
    "id": "51bf13678577",
    "label": "1 RUE JACQUELINE MORANE, Barentin",
    "lat": 49.53208,
    "lng": 0.956811,
    "transactions": [
      {
        "date": "2022-09-27",
        "priceEur": 255000,
        "typeLocal": "Maison",
        "surfaceM2": 111,
        "isVefa": false
      }
    ]
  },
  "292cf704e16d": {
    "id": "292cf704e16d",
    "label": "1 RUE FREDERIC BARTHOLDI, Barentin",
    "lat": 49.53197,
    "lng": 0.957385,
    "transactions": [
      {
        "date": "2023-12-13",
        "priceEur": 150000,
        "typeLocal": "Maison",
        "surfaceM2": 99,
        "isVefa": false
      }
    ]
  },
  "00e0c6811b2b": {
    "id": "00e0c6811b2b",
    "label": "10 RUE AUGUSTE DETOEUF, Barentin",
    "lat": 49.531366,
    "lng": 0.958019,
    "transactions": [
      {
        "date": "2024-01-30",
        "priceEur": 226050,
        "typeLocal": "Maison",
        "surfaceM2": 88,
        "isVefa": false
      }
    ]
  },
  "07b312a0fc6e": {
    "id": "07b312a0fc6e",
    "label": "10 RUE GERARD BAUER, Barentin",
    "lat": 49.530083,
    "lng": 0.956614,
    "transactions": [
      {
        "date": "2024-09-11",
        "priceEur": 148500,
        "typeLocal": "Maison",
        "surfaceM2": 99,
        "isVefa": false
      }
    ]
  },
  "6de29d3cf2e1": {
    "id": "6de29d3cf2e1",
    "label": "10 RUE LEVY DHURMER, Barentin",
    "lat": 49.530854,
    "lng": 0.959866,
    "transactions": [
      {
        "date": "2025-02-03",
        "priceEur": 191200,
        "typeLocal": "Maison",
        "surfaceM2": 99,
        "isVefa": false
      }
    ]
  }
}