{
  "99f59e76958c": {
    "id": "99f59e76958c",
    "label": "823 RUE DES CATILLONS, Barentin",
    "lat": 49.559566,
    "lng": 0.961224,
    "transactions": [
      {
        "date": "2020-07-15",
        "priceEur": 144000,
        "typeLocal": "Maison",
        "surfaceM2": 104,
        "isVefa": false
      }
    ]
  },
  "f6efb071194b": {
    "id": "f6efb071194b",
    "label": "301 RUE DU DOCTEUR SALLES, Barentin",
    "lat": 49.557832,
    "lng": 0.960979,
    "transactions": [
      {
        "date": "2020-07-29",
        "priceEur": 97500,
        "typeLocal": "Maison",
        "surfaceM2": 112,
        "isVefa": false
      }
    ]
  },
  "5e9a8303a020": {
    "id": "5e9a8303a020",
    "label": "6 IMP J.B.DESHAYES DE COLLEVILLE, Barentin",
    "lat": 49.55496,
    "lng": 0.960849,
    "transactions": [
      {
        "date": "2020-07-31",
        "priceEur": 200000,
        "typeLocal": "Maison",
        "surfaceM2": 73,
        "isVefa": false
      }
    ]
  },
  "9c14d4b960db": {
    "id": "9c14d4b960db",
    "label": "2B RUE EUGENE BOUDIN, Barentin",
    "lat": 49.553878,
    "lng": 0.9569,
    "transactions": [
      {
        "date": "2021-10-19",
        "priceEur": 211500,
        "typeLocal": "Maison",
        "surfaceM2": 123,
        "isVefa": false
      }
    ]
  },
  "01d7a7ca028d": {
    "id": "01d7a7ca028d",
    "label": "38 RUE DES PRES, Barentin",
    "lat": 49.560215,
    "lng": 0.959148,
    "transactions": [
      {
        "date": "2021-02-02",
        "priceEur": 244800,
        "typeLocal": "Maison",
        "surfaceM2": 106,
        "isVefa": false
      }
    ]
  },
  "222b341897aa": {
    "id": "222b341897aa",
    "label": "2 RUE EUGENE BOUDIN, Barentin",
    "lat": 49.553745,
    "lng": 0.95734,
    "transactions": [
      {
        "date": "2022-03-09",
        "priceEur": 211200,
        "typeLocal": "Maison",
        "surfaceM2": 85,
        "isVefa": false
      }
    ]
  },
  "7f61b54ee90b": {
    "id": "7f61b54ee90b",
    "label": "14 RUE RAOUL DUFY, Barentin",
    "lat": 49.55416,
    "lng": 0.959668,
    "transactions": [
      {
        "date": "2022-05-20",
        "priceEur": 97000,
        "typeLocal": "Maison",
        "surfaceM2": 70,
        "isVefa": false
      }
    ]
  },
  "f71e41c9ba10": {
    "id": "f71e41c9ba10",
    "label": "1028 RUE DES CATILLONS, Barentin",
    "lat": 49.558307,
    "lng": 0.963567,
    "transactions": [
      {
        "date": "2024-05-07",
        "priceEur": 272974,
        "typeLocal": "Maison",
        "surfaceM2": 151,
        "isVefa": false
      },
      {
        "date": "2022-07-25",
        "priceEur": 252000,
        "typeLocal": "Maison",
        "surfaceM2": 151,
        "isVefa": false
      }
    ]
  },
  "50d9e186330c": {
    "id": "50d9e186330c",
    "label": "111 RUE SIMONE VEIL, Barentin",
    "lat": 49.558473,
    "lng": 0.961915,
    "transactions": [
      {
        "date": "2022-08-22",
        "priceEur": 275000,
        "typeLocal": "Maison",
        "surfaceM2": 105,
        "isVefa": false
      }
    ]
  },
  "bbd76931e186": {
    "id": "bbd76931e186",
    "label": "735 RUE DES CATILLONS, Barentin",
    "lat": 49.56021,
    "lng": 0.960507,
    "transactions": [
      {
        "date": "2022-10-26",
        "priceEur": 252000,
        "typeLocal": "Maison",
        "surfaceM2": 96,
        "isVefa": false
      }
    ]
  },
  "f02b5b385bf3": {
    "id": "f02b5b385bf3",
    "label": "201 RUE JULES FERRY, Barentin",
    "lat": 49.55972,
    "lng": 0.956738,
    "transactions": [
      {
        "date": "2022-12-23",
        "priceEur": 172000,
        "typeLocal": "Maison",
        "surfaceM2": 81,
        "isVefa": false
      }
    ]
  },
  "b092ef55ce30": {
    "id": "b092ef55ce30",
    "label": "428 RUE DU COTEAU, Barentin",
    "lat": 49.55398,
    "lng": 0.960928,
    "transactions": [
      {
        "date": "2023-01-19",
        "priceEur": 215000,
        "typeLocal": "Maison",
        "surfaceM2": 88,
        "isVefa": false
      }
    ]
  },
  "06727182c14a": {
    "id": "06727182c14a",
    "label": "1 RUE DES PRES, Barentin",
    "lat": 49.557747,
    "lng": 0.960561,
    "transactions": [
      {
        "date": "2023-07-12",
        "priceEur": 202700,
        "typeLocal": "Maison",
        "surfaceM2": 108,
        "isVefa": false
      }
    ]
  },
  "75700208600a": {
    "id": "75700208600a",
    "label": "18 RUE DES PRES, Barentin",
    "lat": 49.55839,
    "lng": 0.959159,
    "transactions": [
      {
        "date": "2023-08-21",
        "priceEur": 203000,
        "typeLocal": "Maison",
        "surfaceM2": 87,
        "isVefa": false
      }
    ]
  },
  "a043a4062b8a": {
    "id": "a043a4062b8a",
    "label": "11 RUE DES PRES, Barentin",
    "lat": 49.558286,
    "lng": 0.959898,
    "transactions": [
      {
        "date": "2024-02-02",
        "priceEur": 161000,
        "typeLocal": "Maison",
        "surfaceM2": 83,
        "isVefa": false
      }
    ]
  },
  "66bf14263717": {
    "id": "66bf14263717",
    "label": "17 RUE DES PRES, Barentin",
    "lat": 49.559262,
    "lng": 0.959757,
    "transactions": [
      {
        "date": "2024-02-28",
        "priceEur": 240000,
        "typeLocal": "Maison",
        "surfaceM2": 63,
        "isVefa": false
      }
    ]
  },
  "7fa0c1dcda73": {
    "id": "7fa0c1dcda73",
    "label": "450 RUE DU COTEAU, Barentin",
    "lat": 49.554241,
    "lng": 0.961023,
    "transactions": [
      {
        "date": "2024-04-19",
        "priceEur": 200000,
        "typeLocal": "Maison",
        "surfaceM2": 110,
        "isVefa": false
      }
    ]
  },
  "787a5eafc49c": {
    "id": "787a5eafc49c",
    "label": "45 RUE THEODORE GERICAULT, Barentin",
    "lat": 49.554719,
    "lng": 0.959939,
    "transactions": [
      {
        "date": "2024-05-16",
        "priceEur": 167000,
        "typeLocal": "Maison",
        "surfaceM2": 63,
        "isVefa": false
      }
    ]
  },
  "8ddfc74069d9": {
    "id": "8ddfc74069d9",
    "label": "25 RUE JEAN BAPTISTE JOUVENET, Barentin",
    "lat": 49.553933,
    "lng": 0.960625,
    "transactions": [
      {
        "date": "2024-07-31",
        "priceEur": 133000,
        "typeLocal": "Maison",
        "surfaceM2": 80,
        "isVefa": false
      }
    ]
  },
  "79f2b1268f1e": {
    "id": "79f2b1268f1e",
    "label": "896 RUE DES CATILLONS, Barentin",
    "lat": 49.559212,
    "lng": 0.962423,
    "transactions": [
      {
        "date": "2024-10-03",
        "priceEur": 111200,
        "typeLocal": "Maison",
        "surfaceM2": 100,
        "isVefa": false
      }
    ]
  },
  "83e5d1605f24": {
    "id": "83e5d1605f24",
    "label": "31 RUE KATHERINE JOHNSON, Barentin",
    "lat": 49.557639,
    "lng": 0.962022,
    "transactions": [
      {
        "date": "2024-10-03",
        "priceEur": 306000,
        "typeLocal": "Maison",
        "surfaceM2": 105,
        "isVefa": false
      }
    ]
  },
  "9831fe0a2f41": {
    "id": "9831fe0a2f41",
    "label": "20 RUE RAOUL DUFY, Barentin",
    "lat": 49.554428,
    "lng": 0.960086,
    "transactions": [
      {
        "date": "2024-10-25",
        "priceEur": 143000,
        "typeLocal": "Maison",
        "surfaceM2": 70,
        "isVefa": false
      }
    ]
  },
  "5749692f20c0": {
    "id": "5749692f20c0",
    "label": "26 RUE RAOUL DUFY, Barentin",
    "lat": 49.55468,
    "lng": 0.960435,
    "transactions": [
      {
        "date": "2024-11-21",
        "priceEur": 134900,
        "typeLocal": "Maison",
        "surfaceM2": 70,
        "isVefa": false
      }
    ]
  },
  "f87160a711a6": {
    "id": "f87160a711a6",
    "label": "199 RUE JULES FERRY, Barentin",
    "lat": 49.559435,
    "lng": 0.956584,
    "transactions": [
      {
        "date": "2024-12-04",
        "priceEur": 207500,
        "typeLocal": "Maison",
        "surfaceM2": 60,
        "isVefa": false
      }
    ]
  },
  "a5e0ad69f6e5": {
    "id": "a5e0ad69f6e5",
    "label": "7 RUE RAOUL DUFY, Barentin",
    "lat": 49.554452,
    "lng": 0.960877,
    "transactions": [
      {
        "date": "2025-03-19",
        "priceEur": 158000,
        "typeLocal": "Maison",
        "surfaceM2": 70,
        "isVefa": false
      }
    ]
  },
  "1f565f6e0a87": {
    "id": "1f565f6e0a87",
    "label": "230 RUE ROSA BONHEUR, Barentin",
    "lat": 49.557078,
    "lng": 0.963813,
    "transactions": [
      {
        "date": "2025-06-16",
        "priceEur": 321400,
        "typeLocal": "Maison",
        "surfaceM2": 121,
        "isVefa": false
      }
    ]
  }
}