{
  "b5b06c05c29e": {
    "id": "b5b06c05c29e",
    "label": "9 RUE DU LEVANT, Baillargues",
    "lat": 43.66069,
    "lng": 4.019051,
    "transactions": [
      {
        "date": "2024-09-17",
        "priceEur": 255800,
        "typeLocal": "Appartement",
        "surfaceM2": 66,
        "isVefa": false
      },
      {
        "date": "2024-09-06",
        "priceEur": 514000,
        "typeLocal": "Appartement",
        "surfaceM2": 100,
        "isVefa": false
      },
      {
        "date": "2023-09-29",
        "priceEur": 188500,
        "typeLocal": "Appartement",
        "surfaceM2": 47,
        "isVefa": false
      },
      {
        "date": "2023-07-24",
        "priceEur": 190040,
        "typeLocal": "Appartement",
        "surfaceM2": 47,
        "isVefa": false
      },
      {
        "date": "2022-07-01",
        "priceEur": 325000,
        "typeLocal": "Appartement",
        "surfaceM2": 89,
        "isVefa": false
      },
      {
        "date": "2020-08-17",
        "priceEur": 283300,
        "typeLocal": "Appartement",
        "surfaceM2": 89,
        "isVefa": false
      }
    ]
  },
  "70741f7a0951": {
    "id": "70741f7a0951",
    "label": "4 RUE DU LEVANT, Baillargues",
    "lat": 43.661209,
    "lng": 4.017736,
    "transactions": [
      {
        "date": "2020-08-19",
        "priceEur": 310000,
        "typeLocal": "Appartement",
        "surfaceM2": 90,
        "isVefa": false
      }
    ]
  },
  "ee4e8f0882d0": {
    "id": "ee4e8f0882d0",
    "label": "32 ALL DU GARDIAN, Baillargues",
    "lat": 43.661609,
    "lng": 4.020017,
    "transactions": [
      {
        "date": "2022-05-20",
        "priceEur": 317000,
        "typeLocal": "Maison",
        "surfaceM2": 70,
        "isVefa": false
      },
      {
        "date": "2020-08-07",
        "priceEur": 256750,
        "typeLocal": "Maison",
        "surfaceM2": 70,
        "isVefa": false
      }
    ]
  },
  "760acb5cf97f": {
    "id": "760acb5cf97f",
    "label": "3 AV DE LA CAMARGUE, Baillargues",
    "lat": 43.661063,
    "lng": 4.020244,
    "transactions": [
      {
        "date": "2023-01-20",
        "priceEur": 338500,
        "typeLocal": "Appartement",
        "surfaceM2": 72,
        "isVefa": false
      },
      {
        "date": "2022-12-22",
        "priceEur": 207000,
        "typeLocal": "Appartement",
        "surfaceM2": 44,
        "isVefa": false
      },
      {
        "date": "2022-08-03",
        "priceEur": 213975,
        "typeLocal": "Appartement",
        "surfaceM2": 48,
        "isVefa": false
      },
      {
        "date": "2022-03-21",
        "priceEur": 192130,
        "typeLocal": "Appartement",
        "surfaceM2": 48,
        "isVefa": false
      },
      {
        "date": "2022-02-01",
        "priceEur": 207700,
        "typeLocal": "Appartement",
        "surfaceM2": 51,
        "isVefa": false
      },
      {
        "date": "2021-11-05",
        "priceEur": 379900,
        "typeLocal": "Appartement",
        "surfaceM2": 87,
        "isVefa": false
      },
      {
        "date": "2021-07-23",
        "priceEur": 232259,
        "typeLocal": "Appartement",
        "surfaceM2": 68,
        "isVefa": false
      },
      {
        "date": "2020-08-20",
        "priceEur": 181500,
        "typeLocal": "Appartement",
        "surfaceM2": 47,
        "isVefa": false
      }
    ]
  },
  "dfcd2e3b248b": {
    "id": "dfcd2e3b248b",
    "label": "41 RUE DU CONTROLE, Baillargues",
    "lat": 43.661304,
    "lng": 4.015489,
    "transactions": [
      {
        "date": "2022-10-11",
        "priceEur": 1139680,
        "typeLocal": "Maison",
        "surfaceM2": 260,
        "isVefa": false
      },
      {
        "date": "2020-08-25",
        "priceEur": 967310,
        "typeLocal": "Maison",
        "surfaceM2": 260,
        "isVefa": false
      }
    ]
  },
  "2685cdb14c33": {
    "id": "2685cdb14c33",
    "label": "6 RUE DE LA PILE, Baillargues",
    "lat": 43.66264,
    "lng": 4.0127,
    "transactions": [
      {
        "date": "2020-08-27",
        "priceEur": 220000,
        "typeLocal": "Maison",
        "surfaceM2": 50,
        "isVefa": false
      }
    ]
  },
  "cee5ee175589": {
    "id": "cee5ee175589",
    "label": "1B RUE DES AMOUREUX, Baillargues",
    "lat": 43.661018,
    "lng": 4.013252,
    "transactions": [
      {
        "date": "2024-10-08",
        "priceEur": 109420,
        "typeLocal": "Maison",
        "surfaceM2": 50,
        "isVefa": false
      },
      {
        "date": "2020-09-08",
        "priceEur": 75000,
        "typeLocal": "Maison",
        "surfaceM2": 50,
        "isVefa": false
      }
    ]
  },
  "fab3f1cbb08a": {
    "id": "fab3f1cbb08a",
    "label": "1 PLAN DES TAUREAUX, Baillargues",
    "lat": 43.661673,
    "lng": 4.014391,
    "transactions": [
      {
        "date": "2025-04-30",
        "priceEur": 159800,
        "typeLocal": "Appartement",
        "surfaceM2": 52,
        "isVefa": false
      },
      {
        "date": "2023-05-12",
        "priceEur": 214800,
        "typeLocal": "Appartement",
        "surfaceM2": 92,
        "isVefa": false
      },
      {
        "date": "2022-09-05",
        "priceEur": 157300,
        "typeLocal": "Appartement",
        "surfaceM2": 52,
        "isVefa": false
      },
      {
        "date": "2022-05-06",
        "priceEur": 252000,
        "typeLocal": "Appartement",
        "surfaceM2": 92,
        "isVefa": false
      },
      {
        "date": "2021-12-08",
        "priceEur": 208930,
        "typeLocal": "Appartement",
        "surfaceM2": 92,
        "isVefa": false
      },
      {
        "date": "2021-10-28",
        "priceEur": 200000,
        "typeLocal": "Appartement",
        "surfaceM2": 107,
        "isVefa": false
      },
      {
        "date": "2021-08-30",
        "priceEur": 199000,
        "typeLocal": "Appartement",
        "surfaceM2": 92,
        "isVefa": false
      },
      {
        "date": "2020-09-17",
        "priceEur": 126700,
        "typeLocal": "Appartement",
        "surfaceM2": 52,
        "isVefa": false
      }
    ]
  },
  "1072c171da00": {
    "id": "1072c171da00",
    "label": "12 RUE DU BOIS DE ROUE, Baillargues",
    "lat": 43.666003,
    "lng": 4.013182,
    "transactions": [
      {
        "date": "2020-09-17",
        "priceEur": 270000,
        "typeLocal": "Maison",
        "surfaceM2": 95,
        "isVefa": false
      }
    ]
  },
  "b44005a80970": {
    "id": "b44005a80970",
    "label": "245 RTE IMPERIALE, Baillargues",
    "lat": 43.661063,
    "lng": 4.020244,
    "transactions": [
      {
        "date": "2025-06-16",
        "priceEur": 299300,
        "typeLocal": "Appartement",
        "surfaceM2": 76,
        "isVefa": false
      },
      {
        "date": "2022-02-28",
        "priceEur": 218200,
        "typeLocal": "Appartement",
        "surfaceM2": 62,
        "isVefa": false
      },
      {
        "date": "2020-09-29",
        "priceEur": 241000,
        "typeLocal": "Appartement",
        "surfaceM2": 76,
        "isVefa": true
      }
    ]
  },
  "e1ceb1764305": {
    "id": "e1ceb1764305",
    "label": "4 AV DE LA CAMARGUE, Baillargues",
    "lat": 43.661602,
    "lng": 4.019896,
    "transactions": [
      {
        "date": "2025-03-26",
        "priceEur": 173000,
        "typeLocal": "Appartement",
        "surfaceM2": 45,
        "isVefa": false
      },
      {
        "date": "2024-12-23",
        "priceEur": 175000,
        "typeLocal": "Appartement",
        "surfaceM2": 45,
        "isVefa": false
      },
      {
        "date": "2020-09-29",
        "priceEur": 14000,
        "typeLocal": "Appartement",
        "surfaceM2": 67,
        "isVefa": false
      }
    ]
  },
  "3eea9dd623a5": {
    "id": "3eea9dd623a5",
    "label": "12 RUE DES MULTIPLIANTS, Baillargues",
    "lat": 43.660507,
    "lng": 4.013869,
    "transactions": [
      {
        "date": "2022-07-25",
        "priceEur": 190000,
        "typeLocal": "Maison",
        "surfaceM2": 30,
        "isVefa": false
      },
      {
        "date": "2020-09-17",
        "priceEur": 141120,
        "typeLocal": "Maison",
        "surfaceM2": 30,
        "isVefa": false
      }
    ]
  },
  "e18706b05578": {
    "id": "e18706b05578",
    "label": "229 RTE IMPERIALE, Baillargues",
    "lat": 43.661063,
    "lng": 4.020244,
    "transactions": [
      {
        "date": "2023-02-16",
        "priceEur": 181930,
        "typeLocal": "Appartement",
        "surfaceM2": 42,
        "isVefa": false
      },
      {
        "date": "2022-04-22",
        "priceEur": 249750,
        "typeLocal": "Appartement",
        "surfaceM2": 65,
        "isVefa": false
      },
      {
        "date": "2022-04-08",
        "priceEur": 248260,
        "typeLocal": "Appartement",
        "surfaceM2": 61,
        "isVefa": false
      },
      {
        "date": "2022-03-22",
        "priceEur": 226400,
        "typeLocal": "Appartement",
        "surfaceM2": 67,
        "isVefa": false
      },
      {
        "date": "2020-10-02",
        "priceEur": 182720,
        "typeLocal": "Appartement",
        "surfaceM2": 41,
        "isVefa": false
      }
    ]
  },
  "15bf1fb6d905": {
    "id": "15bf1fb6d905",
    "label": "109 RUE DU MAS DE ROUE, Baillargues",
    "lat": 43.662968,
    "lng": 4.012994,
    "transactions": [
      {
        "date": "2020-09-25",
        "priceEur": 318000,
        "typeLocal": "Maison",
        "surfaceM2": 78,
        "isVefa": false
      },
      {
        "date": "2020-09-25",
        "priceEur": 318000,
        "typeLocal": "Appartement",
        "surfaceM2": 12,
        "isVefa": false
      }
    ]
  },
  "cf3e90ae26c7": {
    "id": "cf3e90ae26c7",
    "label": "1 ALL DES TAMBOURINAIRES, Baillargues",
    "lat": 43.661602,
    "lng": 4.019896,
    "transactions": [
      {
        "date": "2020-10-22",
        "priceEur": 306650,
        "typeLocal": "Maison",
        "surfaceM2": 89,
        "isVefa": false
      }
    ]
  },
  "436345b570e5": {
    "id": "436345b570e5",
    "label": "1 RUE DE LA TRAMONTANE, Baillargues",
    "lat": 43.66069,
    "lng": 4.019051,
    "transactions": [
      {
        "date": "2024-08-06",
        "priceEur": 276000,
        "typeLocal": "Appartement",
        "surfaceM2": 70,
        "isVefa": false
      },
      {
        "date": "2023-08-31",
        "priceEur": 247000,
        "typeLocal": "Appartement",
        "surfaceM2": 64,
        "isVefa": false
      },
      {
        "date": "2020-11-13",
        "priceEur": 241550,
        "typeLocal": "Appartement",
        "surfaceM2": 70,
        "isVefa": false
      },
      {
        "date": "2020-11-02",
        "priceEur": 267000,
        "typeLocal": "Appartement",
        "surfaceM2": 70,
        "isVefa": false
      }
    ]
  },
  "4d28b9b8fc29": {
    "id": "4d28b9b8fc29",
    "label": "1 RUE DE LA POSTE, Baillargues",
    "lat": 43.66117,
    "lng": 4.01303,
    "transactions": [
      {
        "date": "2020-11-26",
        "priceEur": 208000,
        "typeLocal": "Maison",
        "surfaceM2": 63,
        "isVefa": false
      }
    ]
  },
  "0568238b61a4": {
    "id": "0568238b61a4",
    "label": "5 RUE ALBERTINE SARRAZIN, Baillargues",
    "lat": 43.665314,
    "lng": 4.020527,
    "transactions": [
      {
        "date": "2020-12-21",
        "priceEur": 300000,
        "typeLocal": "Maison",
        "surfaceM2": 101,
        "isVefa": false
      }
    ]
  },
  "6b892c5d855f": {
    "id": "6b892c5d855f",
    "label": "315 RUE DU CONTROLE, Baillargues",
    "lat": 43.662,
    "lng": 4.018867,
    "transactions": [
      {
        "date": "2020-12-23",
        "priceEur": 322750,
        "typeLocal": "Maison",
        "surfaceM2": 84,
        "isVefa": false
      }
    ]
  },
  "f1df5a79654c": {
    "id": "f1df5a79654c",
    "label": "293 RUE DU CONTROLE, Baillargues",
    "lat": 43.662073,
    "lng": 4.018522,
    "transactions": [
      {
        "date": "2021-06-24",
        "priceEur": 338000,
        "typeLocal": "Maison",
        "surfaceM2": 110,
        "isVefa": false
      },
      {
        "date": "2020-12-30",
        "priceEur": 371000,
        "typeLocal": "Maison",
        "surfaceM2": 110,
        "isVefa": false
      }
    ]
  },
  "1daeae53b80c": {
    "id": "1daeae53b80c",
    "label": "311 RUE DU CONTROLE, Baillargues",
    "lat": 43.661951,
    "lng": 4.018746,
    "transactions": [
      {
        "date": "2021-01-07",
        "priceEur": 320090,
        "typeLocal": "Maison",
        "surfaceM2": 83,
        "isVefa": false
      }
    ]
  },
  "3cf55514155e": {
    "id": "3cf55514155e",
    "label": "11 IMP DES TERRASSES ENSOLEILLEES, Baillargues",
    "lat": 43.6658,
    "lng": 4.013041,
    "transactions": [
      {
        "date": "2021-01-06",
        "priceEur": 380000,
        "typeLocal": "Maison",
        "surfaceM2": 91,
        "isVefa": false
      }
    ]
  },
  "af3fb26da129": {
    "id": "af3fb26da129",
    "label": "202 RTE IMPERIALE, Baillargues",
    "lat": 43.660269,
    "lng": 4.020818,
    "transactions": [
      {
        "date": "2025-03-05",
        "priceEur": 266000,
        "typeLocal": "Appartement",
        "surfaceM2": 73,
        "isVefa": false
      },
      {
        "date": "2024-10-22",
        "priceEur": 233000,
        "typeLocal": "Appartement",
        "surfaceM2": 70,
        "isVefa": false
      },
      {
        "date": "2024-08-06",
        "priceEur": 184455,
        "typeLocal": "Appartement",
        "surfaceM2": 57,
        "isVefa": false
      },
      {
        "date": "2024-07-08",
        "priceEur": 231710,
        "typeLocal": "Appartement",
        "surfaceM2": 72,
        "isVefa": false
      },
      {
        "date": "2023-03-22",
        "priceEur": 241800,
        "typeLocal": "Appartement",
        "surfaceM2": 64,
        "isVefa": false
      },
      {
        "date": "2023-03-15",
        "priceEur": 180050,
        "typeLocal": "Appartement",
        "surfaceM2": 44,
        "isVefa": false
      },
      {
        "date": "2022-12-14",
        "priceEur": 302081,
        "typeLocal": "Appartement",
        "surfaceM2": 86,
        "isVefa": false
      },
      {
        "date": "2022-09-12",
        "priceEur": 259700,
        "typeLocal": "Appartement",
        "surfaceM2": 83,
        "isVefa": false
      },
      {
        "date": "2022-09-06",
        "priceEur": 273500,
        "typeLocal": "Appartement",
        "surfaceM2": 75,
        "isVefa": false
      },
      {
        "date": "2022-03-08",
        "priceEur": 166700,
        "typeLocal": "Appartement",
        "surfaceM2": 46,
        "isVefa": false
      },
      {
        "date": "2021-07-20",
        "priceEur": 170350,
        "typeLocal": "Appartement",
        "surfaceM2": 45,
        "isVefa": false
      },
      {
        "date": "2021-01-18",
        "priceEur": 232500,
        "typeLocal": "Appartement",
        "surfaceM2": 64,
        "isVefa": false
      }
    ]
  },
  "095717207546": {
    "id": "095717207546",
    "label": "7 IMP DES CHENES, Baillargues",
    "lat": 43.664699,
    "lng": 4.010511,
    "transactions": [
      {
        "date": "2022-12-01",
        "priceEur": 356300,
        "typeLocal": "Appartement",
        "surfaceM2": 80,
        "isVefa": false
      },
      {
        "date": "2021-01-29",
        "priceEur": 370500,
        "typeLocal": "Maison",
        "surfaceM2": 84,
        "isVefa": false
      }
    ]
  },
  "349178280b3a": {
    "id": "349178280b3a",
    "label": "6 RUE JEANNE GALZY, Baillargues",
    "lat": 43.664059,
    "lng": 4.012825,
    "transactions": [
      {
        "date": "2021-01-29",
        "priceEur": 381480,
        "typeLocal": "Maison",
        "surfaceM2": 144,
        "isVefa": false
      }
    ]
  },
  "4f107affb69a": {
    "id": "4f107affb69a",
    "label": "19 RUE FREDERIC MISTRAL, Baillargues",
    "lat": 43.665692,
    "lng": 4.017344,
    "transactions": [
      {
        "date": "2021-02-10",
        "priceEur": 335000,
        "typeLocal": "Maison",
        "surfaceM2": 75,
        "isVefa": false
      }
    ]
  },
  "d7e409db582a": {
    "id": "d7e409db582a",
    "label": "9 RUE DES MULTIPLIANTS, Baillargues",
    "lat": 43.660665,
    "lng": 4.013734,
    "transactions": [
      {
        "date": "2021-02-01",
        "priceEur": 185000,
        "typeLocal": "Maison",
        "surfaceM2": 53,
        "isVefa": false
      }
    ]
  },
  "58b08fd45711": {
    "id": "58b08fd45711",
    "label": "11 RUE DU JEU DE BALLON, Baillargues",
    "lat": 43.660512,
    "lng": 4.01399,
    "transactions": [
      {
        "date": "2021-02-12",
        "priceEur": 178000,
        "typeLocal": "Appartement",
        "surfaceM2": 130,
        "isVefa": false
      }
    ]
  },
  "24809db13cac": {
    "id": "24809db13cac",
    "label": "1 RUE DU TELEGRAPHE, Baillargues",
    "lat": 43.660694,
    "lng": 4.014074,
    "transactions": [
      {
        "date": "2021-03-05",
        "priceEur": 136200,
        "typeLocal": "Maison",
        "surfaceM2": 105,
        "isVefa": false
      }
    ]
  },
  "d2ded0681a1d": {
    "id": "d2ded0681a1d",
    "label": "22 RUE DU BOIS DE ROUE, Baillargues",
    "lat": 43.666552,
    "lng": 4.014377,
    "transactions": [
      {
        "date": "2021-03-25",
        "priceEur": 320000,
        "typeLocal": "Maison",
        "surfaceM2": 88,
        "isVefa": false
      }
    ]
  },
  "99a202d2a883": {
    "id": "99a202d2a883",
    "label": "8 RUE GASTON BONHEUR, Baillargues",
    "lat": 43.662914,
    "lng": 4.017511,
    "transactions": [
      {
        "date": "2021-09-03",
        "priceEur": 500000,
        "typeLocal": "Maison",
        "surfaceM2": 165,
        "isVefa": false
      },
      {
        "date": "2021-03-31",
        "priceEur": 478000,
        "typeLocal": "Maison",
        "surfaceM2": 165,
        "isVefa": false
      }
    ]
  },
  "58c1f10cc80a": {
    "id": "58c1f10cc80a",
    "label": "4B IMP DES OLIVIERS, Baillargues",
    "lat": 43.662812,
    "lng": 4.016012,
    "transactions": [
      {
        "date": "2021-04-22",
        "priceEur": 380300,
        "typeLocal": "Maison",
        "surfaceM2": 125,
        "isVefa": false
      }
    ]
  },
  "0896d5b8f0ad": {
    "id": "0896d5b8f0ad",
    "label": "26 RUE ALBERTINE SARRAZIN, Baillargues",
    "lat": 43.665472,
    "lng": 4.01986,
    "transactions": [
      {
        "date": "2021-05-03",
        "priceEur": 373060,
        "typeLocal": "Maison",
        "surfaceM2": 87,
        "isVefa": false
      }
    ]
  },
  "2f618b3b7499": {
    "id": "2f618b3b7499",
    "label": "7 IMP MAURICE CLAVEL, Baillargues",
    "lat": 43.666388,
    "lng": 4.015727,
    "transactions": [
      {
        "date": "2021-05-31",
        "priceEur": 354340,
        "typeLocal": "Maison",
        "surfaceM2": 120,
        "isVefa": false
      }
    ]
  },
  "bac29898ba8d": {
    "id": "bac29898ba8d",
    "label": "3 RUE THEODORE AUBANEL, Baillargues",
    "lat": 43.664263,
    "lng": 4.017738,
    "transactions": [
      {
        "date": "2021-07-01",
        "priceEur": 472600,
        "typeLocal": "Maison",
        "surfaceM2": 119,
        "isVefa": false
      }
    ]
  },
  "3c629a4590a7": {
    "id": "3c629a4590a7",
    "label": "8 RUE DU CONTROLE, Baillargues",
    "lat": 43.661489,
    "lng": 4.017424,
    "transactions": [
      {
        "date": "2023-05-10",
        "priceEur": 250000,
        "typeLocal": "Appartement",
        "surfaceM2": 106,
        "isVefa": false
      },
      {
        "date": "2021-07-29",
        "priceEur": 300000,
        "typeLocal": "Appartement",
        "surfaceM2": 106,
        "isVefa": false
      },
      {
        "date": "2021-07-29",
        "priceEur": 300000,
        "typeLocal": "Appartement",
        "surfaceM2": 96,
        "isVefa": false
      }
    ]
  },
  "ad2011ddc35f": {
    "id": "ad2011ddc35f",
    "label": "5 RUE BASSE, Baillargues",
    "lat": 43.661208,
    "lng": 4.013912,
    "transactions": [
      {
        "date": "2021-07-30",
        "priceEur": 277500,
        "typeLocal": "Maison",
        "surfaceM2": 160,
        "isVefa": false
      }
    ]
  },
  "fe97b0980b48": {
    "id": "fe97b0980b48",
    "label": "16 RUE FREDERIC MISTRAL, Baillargues",
    "lat": 43.665311,
    "lng": 4.017018,
    "transactions": [
      {
        "date": "2021-08-27",
        "priceEur": 426127,
        "typeLocal": "Maison",
        "surfaceM2": 118,
        "isVefa": false
      }
    ]
  },
  "2e74c4413e6b": {
    "id": "2e74c4413e6b",
    "label": "17 RUE THEODORE AUBANEL, Baillargues",
    "lat": 43.665005,
    "lng": 4.018434,
    "transactions": [
      {
        "date": "2021-09-09",
        "priceEur": 387950,
        "typeLocal": "Maison",
        "surfaceM2": 126,
        "isVefa": false
      }
    ]
  },
  "a5bfc1d4de8c": {
    "id": "a5bfc1d4de8c",
    "label": "13 RUE JEAN MOULIN, Baillargues",
    "lat": 43.666683,
    "lng": 4.020151,
    "transactions": [
      {
        "date": "2021-08-18",
        "priceEur": 481120,
        "typeLocal": "Maison",
        "surfaceM2": 137,
        "isVefa": false
      }
    ]
  },
  "060a1f68369a": {
    "id": "060a1f68369a",
    "label": "10 ALL DU GARDIAN, Baillargues",
    "lat": 43.661609,
    "lng": 4.020017,
    "transactions": [
      {
        "date": "2023-02-28",
        "priceEur": 311100,
        "typeLocal": "Maison",
        "surfaceM2": 70,
        "isVefa": false
      },
      {
        "date": "2021-09-29",
        "priceEur": 271620,
        "typeLocal": "Maison",
        "surfaceM2": 70,
        "isVefa": false
      }
    ]
  },
  "dc5867bbb254": {
    "id": "dc5867bbb254",
    "label": "134 CHE DES LIGNIERES, Baillargues",
    "lat": 43.664986,
    "lng": 4.011864,
    "transactions": [
      {
        "date": "2024-08-30",
        "priceEur": 270450,
        "typeLocal": "Appartement",
        "surfaceM2": 65,
        "isVefa": false
      },
      {
        "date": "2021-09-28",
        "priceEur": 425900,
        "typeLocal": "Appartement",
        "surfaceM2": 101,
        "isVefa": true
      }
    ]
  },
  "d21f2c2ea92a": {
    "id": "d21f2c2ea92a",
    "label": "1B RUE DE LA CROIX D AVIGNON, Baillargues",
    "lat": 43.664112,
    "lng": 4.010493,
    "transactions": [
      {
        "date": "2021-10-05",
        "priceEur": 449350,
        "typeLocal": "Maison",
        "surfaceM2": 125,
        "isVefa": false
      }
    ]
  },
  "e999c91f379f": {
    "id": "e999c91f379f",
    "label": "529 RUE DU CONTROLE, Baillargues",
    "lat": 43.6637,
    "lng": 4.020678,
    "transactions": [
      {
        "date": "2021-10-07",
        "priceEur": 480000,
        "typeLocal": "Appartement",
        "surfaceM2": 42,
        "isVefa": false
      },
      {
        "date": "2021-10-07",
        "priceEur": 480000,
        "typeLocal": "Appartement",
        "surfaceM2": 93,
        "isVefa": false
      },
      {
        "date": "2021-10-07",
        "priceEur": 480000,
        "typeLocal": "Appartement",
        "surfaceM2": 71,
        "isVefa": false
      }
    ]
  },
  "bf39a48cb7c0": {
    "id": "bf39a48cb7c0",
    "label": "3 RUE DES AMOUREUX, Baillargues",
    "lat": 43.661026,
    "lng": 4.013375,
    "transactions": [
      {
        "date": "2021-10-21",
        "priceEur": 108000,
        "typeLocal": "Appartement",
        "surfaceM2": 50,
        "isVefa": false
      }
    ]
  },
  "f94b47b4dd81": {
    "id": "f94b47b4dd81",
    "label": "1A RUE DES MULTIPLIANTS, Baillargues",
    "lat": 43.660653,
    "lng": 4.013439,
    "transactions": [
      {
        "date": "2021-10-13",
        "priceEur": 168000,
        "typeLocal": "Appartement",
        "surfaceM2": 46,
        "isVefa": false
      },
      {
        "date": "2021-10-13",
        "priceEur": 168000,
        "typeLocal": "Appartement",
        "surfaceM2": 46,
        "isVefa": false
      }
    ]
  },
  "f07aeb94988c": {
    "id": "f07aeb94988c",
    "label": "1 RUE FABRE DIT DE L HERAULT, Baillargues",
    "lat": 43.667062,
    "lng": 4.020796,
    "transactions": [
      {
        "date": "2021-11-12",
        "priceEur": 385000,
        "typeLocal": "Maison",
        "surfaceM2": 105,
        "isVefa": false
      }
    ]
  },
  "556a11440c5d": {
    "id": "556a11440c5d",
    "label": "5 ALL DES TAMBOURINAIRES, Baillargues",
    "lat": 43.661602,
    "lng": 4.019896,
    "transactions": [
      {
        "date": "2021-12-01",
        "priceEur": 332000,
        "typeLocal": "Maison",
        "surfaceM2": 90,
        "isVefa": false
      }
    ]
  },
  "0a82100ff3cf": {
    "id": "0a82100ff3cf",
    "label": "3 PL MICHEL COLUCCI DIT COLUCHE, Baillargues",
    "lat": 43.667034,
    "lng": 4.017779,
    "transactions": [
      {
        "date": "2021-12-29",
        "priceEur": 300000,
        "typeLocal": "Maison",
        "surfaceM2": 88,
        "isVefa": false
      }
    ]
  },
  "5246d15694ed": {
    "id": "5246d15694ed",
    "label": "2 RUE DES CROCUS, Baillargues",
    "lat": 43.662579,
    "lng": 4.010549,
    "transactions": [
      {
        "date": "2022-01-19",
        "priceEur": 507330,
        "typeLocal": "Maison",
        "surfaceM2": 127,
        "isVefa": false
      }
    ]
  },
  "0b1e2d9e49cb": {
    "id": "0b1e2d9e49cb",
    "label": "10 IMP MAURICE CLAVEL, Baillargues",
    "lat": 43.666486,
    "lng": 4.015149,
    "transactions": [
      {
        "date": "2022-01-10",
        "priceEur": 364150,
        "typeLocal": "Maison",
        "surfaceM2": 92,
        "isVefa": false
      }
    ]
  },
  "96930049c453": {
    "id": "96930049c453",
    "label": "7 ALL DES ARLESIENNES, Baillargues",
    "lat": 43.661602,
    "lng": 4.019896,
    "transactions": [
      {
        "date": "2022-01-27",
        "priceEur": 342913,
        "typeLocal": "Maison",
        "surfaceM2": 83,
        "isVefa": false
      }
    ]
  },
  "13d4c8b8ecdc": {
    "id": "13d4c8b8ecdc",
    "label": "18 RUE ALBERTINE SARRAZIN, Baillargues",
    "lat": 43.665622,
    "lng": 4.020657,
    "transactions": [
      {
        "date": "2022-02-18",
        "priceEur": 405000,
        "typeLocal": "Maison",
        "surfaceM2": 114,
        "isVefa": false
      }
    ]
  },
  "70471751a14e": {
    "id": "70471751a14e",
    "label": "14 RUE JEANNE GALZY, Baillargues",
    "lat": 43.664642,
    "lng": 4.012338,
    "transactions": [
      {
        "date": "2022-02-25",
        "priceEur": 375000,
        "typeLocal": "Maison",
        "surfaceM2": 92,
        "isVefa": false
      }
    ]
  },
  "cf3c866fc822": {
    "id": "cf3c866fc822",
    "label": "7B RUE BASSE, Baillargues",
    "lat": 43.661292,
    "lng": 4.013924,
    "transactions": [
      {
        "date": "2025-03-14",
        "priceEur": 118000,
        "typeLocal": "Maison",
        "surfaceM2": 54,
        "isVefa": false
      },
      {
        "date": "2022-03-11",
        "priceEur": 101100,
        "typeLocal": "Maison",
        "surfaceM2": 54,
        "isVefa": false
      }
    ]
  },
  "0335664917c4": {
    "id": "0335664917c4",
    "label": "18 RUE THYDE MONNIER, Baillargues",
    "lat": 43.66477,
    "lng": 4.016741,
    "transactions": [
      {
        "date": "2024-01-16",
        "priceEur": 408768,
        "typeLocal": "Maison",
        "surfaceM2": 75,
        "isVefa": false
      },
      {
        "date": "2022-03-09",
        "priceEur": 297000,
        "typeLocal": "Maison",
        "surfaceM2": 75,
        "isVefa": false
      }
    ]
  },
  "52870cc98a63": {
    "id": "52870cc98a63",
    "label": "11 RUE JEAN MOULIN, Baillargues",
    "lat": 43.666523,
    "lng": 4.02036,
    "transactions": [
      {
        "date": "2022-03-08",
        "priceEur": 439650,
        "typeLocal": "Maison",
        "surfaceM2": 96,
        "isVefa": false
      }
    ]
  },
  "dfc883566fde": {
    "id": "dfc883566fde",
    "label": "3 IMP DES TERRASSES ENSOLEILLEES, Baillargues",
    "lat": 43.665868,
    "lng": 4.014146,
    "transactions": [
      {
        "date": "2022-05-06",
        "priceEur": 356000,
        "typeLocal": "Maison",
        "surfaceM2": 74,
        "isVefa": false
      }
    ]
  },
  "012c4993cce2": {
    "id": "012c4993cce2",
    "label": "5 ALL DES ARLESIENNES, Baillargues",
    "lat": 43.661602,
    "lng": 4.019896,
    "transactions": [
      {
        "date": "2022-04-22",
        "priceEur": 365900,
        "typeLocal": "Maison",
        "surfaceM2": 92,
        "isVefa": false
      }
    ]
  },
  "c37b242058fd": {
    "id": "c37b242058fd",
    "label": "51 RUE DU CONTROLE, Baillargues",
    "lat": 43.661294,
    "lng": 4.015722,
    "transactions": [
      {
        "date": "2022-04-29",
        "priceEur": 346000,
        "typeLocal": "Maison",
        "surfaceM2": 108,
        "isVefa": false
      }
    ]
  },
  "c256d69ed884": {
    "id": "c256d69ed884",
    "label": "4 IMP FRANCOIS DESNOYERS, Baillargues",
    "lat": 43.664418,
    "lng": 4.016772,
    "transactions": [
      {
        "date": "2022-05-06",
        "priceEur": 350000,
        "typeLocal": "Maison",
        "surfaceM2": 68,
        "isVefa": false
      }
    ]
  },
  "9f2de5cc6e06": {
    "id": "9f2de5cc6e06",
    "label": "11 IMP MAURICE CLAVEL, Baillargues",
    "lat": 43.666372,
    "lng": 4.015476,
    "transactions": [
      {
        "date": "2022-05-25",
        "priceEur": 372880,
        "typeLocal": "Maison",
        "surfaceM2": 85,
        "isVefa": false
      }
    ]
  },
  "01a9d2cb0562": {
    "id": "01a9d2cb0562",
    "label": "2 ALL LEON CORDES, Baillargues",
    "lat": 43.665846,
    "lng": 4.018809,
    "transactions": [
      {
        "date": "2022-06-18",
        "priceEur": 271000,
        "typeLocal": "Appartement",
        "surfaceM2": 70,
        "isVefa": false
      }
    ]
  },
  "7bd654c3e67f": {
    "id": "7bd654c3e67f",
    "label": "4 RUE DES PREVOYANTS, Baillargues",
    "lat": 43.661413,
    "lng": 4.013166,
    "transactions": [
      {
        "date": "2022-06-29",
        "priceEur": 250000,
        "typeLocal": "Maison",
        "surfaceM2": 32,
        "isVefa": false
      }
    ]
  },
  "31bdab8a2685": {
    "id": "31bdab8a2685",
    "label": "16 RUE DES ENTREPOTS, Baillargues",
    "lat": 43.662211,
    "lng": 4.018813,
    "transactions": [
      {
        "date": "2022-07-25",
        "priceEur": 382228.2,
        "typeLocal": "Maison",
        "surfaceM2": 84,
        "isVefa": false
      }
    ]
  },
  "fdb50cddf586": {
    "id": "fdb50cddf586",
    "label": "4 RUE DES CROCUS, Baillargues",
    "lat": 43.662758,
    "lng": 4.010735,
    "transactions": [
      {
        "date": "2022-07-28",
        "priceEur": 470210,
        "typeLocal": "Maison",
        "surfaceM2": 100,
        "isVefa": false
      }
    ]
  },
  "ead3e9c83ba4": {
    "id": "ead3e9c83ba4",
    "label": "1 RUE JEAN GIONO, Baillargues",
    "lat": 43.663503,
    "lng": 4.017896,
    "transactions": [
      {
        "date": "2022-07-26",
        "priceEur": 688000,
        "typeLocal": "Maison",
        "surfaceM2": 164,
        "isVefa": false
      }
    ]
  },
  "ffccd7af03ef": {
    "id": "ffccd7af03ef",
    "label": "14 RUE DE LA PILE, Baillargues",
    "lat": 43.663087,
    "lng": 4.012612,
    "transactions": [
      {
        "date": "2022-08-19",
        "priceEur": 265000,
        "typeLocal": "Maison",
        "surfaceM2": 90,
        "isVefa": false
      }
    ]
  },
  "d3fedfef2d23": {
    "id": "d3fedfef2d23",
    "label": "260 RUE DU CONTROLE, Baillargues",
    "lat": 43.661486,
    "lng": 4.018404,
    "transactions": [
      {
        "date": "2022-09-09",
        "priceEur": 267662.53,
        "typeLocal": "Appartement",
        "surfaceM2": 64,
        "isVefa": false
      }
    ]
  },
  "898ff5b948cf": {
    "id": "898ff5b948cf",
    "label": "20 RUE DE LA BOHEME, Baillargues",
    "lat": 43.66774,
    "lng": 4.016978,
    "transactions": [
      {
        "date": "2022-09-26",
        "priceEur": 511006,
        "typeLocal": "Maison",
        "surfaceM2": 122,
        "isVefa": false
      }
    ]
  },
  "3db5f39e1fed": {
    "id": "3db5f39e1fed",
    "label": "23 IMP DES TERRASSES ENSOLEILLEES, Baillargues",
    "lat": 43.665263,
    "lng": 4.014123,
    "transactions": [
      {
        "date": "2022-09-27",
        "priceEur": 730000,
        "typeLocal": "Maison",
        "surfaceM2": 169,
        "isVefa": false
      }
    ]
  },
  "06adcd8d3fce": {
    "id": "06adcd8d3fce",
    "label": "70 RUE DU CONTROLE, Baillargues",
    "lat": 43.661033,
    "lng": 4.016078,
    "transactions": [
      {
        "date": "2022-09-30",
        "priceEur": 300000,
        "typeLocal": "Maison",
        "surfaceM2": 90,
        "isVefa": false
      }
    ]
  },
  "268b9dba20ed": {
    "id": "268b9dba20ed",
    "label": "11 RUE JEAN GIONO, Baillargues",
    "lat": 43.662919,
    "lng": 4.018921,
    "transactions": [
      {
        "date": "2022-10-21",
        "priceEur": 490000,
        "typeLocal": "Maison",
        "surfaceM2": 115,
        "isVefa": false
      }
    ]
  },
  "0751efd9030f": {
    "id": "0751efd9030f",
    "label": "11 RUE DE LA CHICANE, Baillargues",
    "lat": 43.660259,
    "lng": 4.011259,
    "transactions": [
      {
        "date": "2022-10-17",
        "priceEur": 900000,
        "typeLocal": "Maison",
        "surfaceM2": 212,
        "isVefa": false
      },
      {
        "date": "2022-10-17",
        "priceEur": 900000,
        "typeLocal": "Maison",
        "surfaceM2": 212,
        "isVefa": false
      }
    ]
  },
  "98ca049303c6": {
    "id": "98ca049303c6",
    "label": "4 RUE DE LA LIBERATION, Baillargues",
    "lat": 43.660591,
    "lng": 4.012227,
    "transactions": [
      {
        "date": "2024-07-31",
        "priceEur": 1350000,
        "typeLocal": "Maison",
        "surfaceM2": 264,
        "isVefa": false
      },
      {
        "date": "2024-07-31",
        "priceEur": 1350000,
        "typeLocal": "Maison",
        "surfaceM2": 264,
        "isVefa": false
      },
      {
        "date": "2022-10-28",
        "priceEur": 1120000,
        "typeLocal": "Maison",
        "surfaceM2": 264,
        "isVefa": false
      },
      {
        "date": "2022-10-28",
        "priceEur": 1120000,
        "typeLocal": "Maison",
        "surfaceM2": 264,
        "isVefa": false
      }
    ]
  },
  "0f99343ef3f4": {
    "id": "0f99343ef3f4",
    "label": "60 RUE DU MAS DE ROUE, Baillargues",
    "lat": 43.662616,
    "lng": 4.013496,
    "transactions": [
      {
        "date": "2023-05-17",
        "priceEur": 215000,
        "typeLocal": "Maison",
        "surfaceM2": 93,
        "isVefa": false
      },
      {
        "date": "2022-10-25",
        "priceEur": 397000,
        "typeLocal": "Maison",
        "surfaceM2": 93,
        "isVefa": false
      }
    ]
  },
  "7eddaff0e97a": {
    "id": "7eddaff0e97a",
    "label": "10 RUE BASSE, Baillargues",
    "lat": 43.66095,
    "lng": 4.014774,
    "transactions": [
      {
        "date": "2022-11-14",
        "priceEur": 182000,
        "typeLocal": "Maison",
        "surfaceM2": 68,
        "isVefa": false
      }
    ]
  },
  "6f25b5b30589": {
    "id": "6f25b5b30589",
    "label": "4 RUE DE LA CROIX D AVIGNON, Baillargues",
    "lat": 43.664405,
    "lng": 4.010666,
    "transactions": [
      {
        "date": "2022-12-29",
        "priceEur": 415000,
        "typeLocal": "Maison",
        "surfaceM2": 67,
        "isVefa": false
      }
    ]
  },
  "ab06937089da": {
    "id": "ab06937089da",
    "label": "10A RUE BASSE, Baillargues",
    "lat": 43.660787,
    "lng": 4.014809,
    "transactions": [
      {
        "date": "2023-01-05",
        "priceEur": 216000,
        "typeLocal": "Appartement",
        "surfaceM2": 19,
        "isVefa": false
      },
      {
        "date": "2023-01-05",
        "priceEur": 216000,
        "typeLocal": "Appartement",
        "surfaceM2": 24,
        "isVefa": false
      }
    ]
  },
  "c166da910676": {
    "id": "c166da910676",
    "label": "10 RUE DE LA BOHEME, Baillargues",
    "lat": 43.667469,
    "lng": 4.015788,
    "transactions": [
      {
        "date": "2023-03-24",
        "priceEur": 755800,
        "typeLocal": "Maison",
        "surfaceM2": 140,
        "isVefa": false
      }
    ]
  },
  "7acc7f700f42": {
    "id": "7acc7f700f42",
    "label": "146 CHE DES LIGNIERES, Baillargues",
    "lat": 43.664986,
    "lng": 4.011864,
    "transactions": [
      {
        "date": "2024-07-01",
        "priceEur": 446600,
        "typeLocal": "Appartement",
        "surfaceM2": 88,
        "isVefa": false
      },
      {
        "date": "2023-03-31",
        "priceEur": 264000,
        "typeLocal": "Appartement",
        "surfaceM2": 69,
        "isVefa": false
      }
    ]
  },
  "71754a599308": {
    "id": "71754a599308",
    "label": "1 IMP DE LA GARDE MONTANTE, Baillargues",
    "lat": 43.667635,
    "lng": 4.015956,
    "transactions": [
      {
        "date": "2023-04-11",
        "priceEur": 478500,
        "typeLocal": "Maison",
        "surfaceM2": 127,
        "isVefa": false
      }
    ]
  },
  "acbcbd0d9d5c": {
    "id": "acbcbd0d9d5c",
    "label": "15 RUE DU PARADIS, Baillargues",
    "lat": 43.664433,
    "lng": 4.013905,
    "transactions": [
      {
        "date": "2023-04-12",
        "priceEur": 452900,
        "typeLocal": "Maison",
        "surfaceM2": 132,
        "isVefa": false
      }
    ]
  },
  "063147494121": {
    "id": "063147494121",
    "label": "8 RUE DE LA CROIX DE JALLE, Baillargues",
    "lat": 43.660132,
    "lng": 4.016124,
    "transactions": [
      {
        "date": "2023-03-20",
        "priceEur": 354450,
        "typeLocal": "Maison",
        "surfaceM2": 96,
        "isVefa": false
      }
    ]
  },
  "0dd68ede43b7": {
    "id": "0dd68ede43b7",
    "label": "1 RUE BASSE, Baillargues",
    "lat": 43.661221,
    "lng": 4.013728,
    "transactions": [
      {
        "date": "2023-04-24",
        "priceEur": 280200,
        "typeLocal": "Maison",
        "surfaceM2": 110,
        "isVefa": false
      }
    ]
  },
  "dd7a37f8d046": {
    "id": "dd7a37f8d046",
    "label": "6 ALL DU GARDIAN, Baillargues",
    "lat": 43.661609,
    "lng": 4.020017,
    "transactions": [
      {
        "date": "2023-05-02",
        "priceEur": 313364,
        "typeLocal": "Maison",
        "surfaceM2": 70,
        "isVefa": false
      }
    ]
  },
  "72c7f079e5fe": {
    "id": "72c7f079e5fe",
    "label": "12 RUE DE LA BOHEME, Baillargues",
    "lat": 43.667578,
    "lng": 4.016249,
    "transactions": [
      {
        "date": "2023-06-26",
        "priceEur": 604120,
        "typeLocal": "Maison",
        "surfaceM2": 119,
        "isVefa": false
      }
    ]
  },
  "e91f1d7a6d7b": {
    "id": "e91f1d7a6d7b",
    "label": "6 RUE FREDERIC MISTRAL, Baillargues",
    "lat": 43.665933,
    "lng": 4.01633,
    "transactions": [
      {
        "date": "2023-07-05",
        "priceEur": 518730,
        "typeLocal": "Maison",
        "surfaceM2": 104,
        "isVefa": false
      }
    ]
  },
  "4f8f7896912c": {
    "id": "4f8f7896912c",
    "label": "14 ALL DU GARDIAN, Baillargues",
    "lat": 43.661609,
    "lng": 4.020017,
    "transactions": [
      {
        "date": "2023-08-29",
        "priceEur": 296450,
        "typeLocal": "Maison",
        "surfaceM2": 70,
        "isVefa": false
      }
    ]
  },
  "4f4f54cddadf": {
    "id": "4f4f54cddadf",
    "label": "11 ALL DES TAMBOURINAIRES, Baillargues",
    "lat": 43.661602,
    "lng": 4.019896,
    "transactions": [
      {
        "date": "2023-11-07",
        "priceEur": 332000,
        "typeLocal": "Maison",
        "surfaceM2": 83,
        "isVefa": false
      }
    ]
  },
  "2de05de639fb": {
    "id": "2de05de639fb",
    "label": "1A RUE DE LA PILE, Baillargues",
    "lat": 43.662669,
    "lng": 4.01236,
    "transactions": [
      {
        "date": "2023-11-28",
        "priceEur": 207600,
        "typeLocal": "Appartement",
        "surfaceM2": 61,
        "isVefa": false
      }
    ]
  },
  "69c41550148c": {
    "id": "69c41550148c",
    "label": "24 RUE JOE BOUSQUET, Baillargues",
    "lat": 43.664515,
    "lng": 4.020178,
    "transactions": [
      {
        "date": "2023-12-01",
        "priceEur": 240000,
        "typeLocal": "Maison",
        "surfaceM2": 72,
        "isVefa": false
      }
    ]
  },
  "131c52965e85": {
    "id": "131c52965e85",
    "label": "5 RUE DES COMMERCANTS, Baillargues",
    "lat": 43.661848,
    "lng": 4.013046,
    "transactions": [
      {
        "date": "2023-12-18",
        "priceEur": 893500,
        "typeLocal": "Maison",
        "surfaceM2": 170,
        "isVefa": false
      }
    ]
  },
  "1589e39f5526": {
    "id": "1589e39f5526",
    "label": "16 RUE JEANNE GALZY, Baillargues",
    "lat": 43.664746,
    "lng": 4.012015,
    "transactions": [
      {
        "date": "2024-03-27",
        "priceEur": 391330,
        "typeLocal": "Maison",
        "surfaceM2": 91,
        "isVefa": false
      }
    ]
  },
  "35ed26ef8369": {
    "id": "35ed26ef8369",
    "label": "1 PL ALPHONSE DAUDET, Baillargues",
    "lat": 43.665708,
    "lng": 4.015762,
    "transactions": [
      {
        "date": "2024-06-10",
        "priceEur": 475450,
        "typeLocal": "Maison",
        "surfaceM2": 97,
        "isVefa": false
      }
    ]
  },
  "b833ab8ed07f": {
    "id": "b833ab8ed07f",
    "label": "46 RTE DE CASTRIES, Baillargues",
    "lat": 43.662339,
    "lng": 4.011338,
    "transactions": [
      {
        "date": "2024-06-05",
        "priceEur": 750520,
        "typeLocal": "Maison",
        "surfaceM2": 170,
        "isVefa": false
      }
    ]
  },
  "a74f7896dcd2": {
    "id": "a74f7896dcd2",
    "label": "144 RUE DU CONTROLE, Baillargues",
    "lat": 43.660498,
    "lng": 4.016982,
    "transactions": [
      {
        "date": "2025-05-06",
        "priceEur": 475000,
        "typeLocal": "Appartement",
        "surfaceM2": 84,
        "isVefa": true
      },
      {
        "date": "2025-03-24",
        "priceEur": 285000,
        "typeLocal": "Appartement",
        "surfaceM2": 66,
        "isVefa": true
      },
      {
        "date": "2024-07-19",
        "priceEur": 230000,
        "typeLocal": "Appartement",
        "surfaceM2": 62,
        "isVefa": true
      },
      {
        "date": "2024-06-25",
        "priceEur": 352000,
        "typeLocal": "Appartement",
        "surfaceM2": 68,
        "isVefa": true
      },
      {
        "date": "2024-06-24",
        "priceEur": 345000,
        "typeLocal": "Appartement",
        "surfaceM2": 68,
        "isVefa": true
      },
      {
        "date": "2024-06-14",
        "priceEur": 335000,
        "typeLocal": "Appartement",
        "surfaceM2": 68,
        "isVefa": true
      }
    ]
  },
  "45f4833a6eec": {
    "id": "45f4833a6eec",
    "label": "358 RUE DU CONTROLE, Baillargues",
    "lat": 43.661602,
    "lng": 4.019896,
    "transactions": [
      {
        "date": "2024-07-15",
        "priceEur": 253080,
        "typeLocal": "Appartement",
        "surfaceM2": 52,
        "isVefa": false
      }
    ]
  },
  "bf8d37c2e016": {
    "id": "bf8d37c2e016",
    "label": "384 RUE DES LIGNIERES, Baillargues",
    "lat": 43.666957,
    "lng": 4.013562,
    "transactions": [
      {
        "date": "2024-07-24",
        "priceEur": 395050,
        "typeLocal": "Maison",
        "surfaceM2": 88,
        "isVefa": false
      }
    ]
  },
  "5d4a952dd73a": {
    "id": "5d4a952dd73a",
    "label": "7 RUE DU LEVANT, Baillargues",
    "lat": 43.660925,
    "lng": 4.018877,
    "transactions": [
      {
        "date": "2025-03-31",
        "priceEur": 430000,
        "typeLocal": "Maison",
        "surfaceM2": 127,
        "isVefa": false
      },
      {
        "date": "2024-07-19",
        "priceEur": 300000,
        "typeLocal": "Maison",
        "surfaceM2": 127,
        "isVefa": false
      }
    ]
  },
  "32288af3aa8c": {
    "id": "32288af3aa8c",
    "label": "20 IMP DES TERRASSES ENSOLEILLEES, Baillargues",
    "lat": 43.664821,
    "lng": 4.013629,
    "transactions": [
      {
        "date": "2024-12-17",
        "priceEur": 370000,
        "typeLocal": "Maison",
        "surfaceM2": 87,
        "isVefa": false
      },
      {
        "date": "2024-06-19",
        "priceEur": 285000,
        "typeLocal": "Maison",
        "surfaceM2": 87,
        "isVefa": false
      }
    ]
  },
  "3d76d897f75f": {
    "id": "3d76d897f75f",
    "label": "6 RUE DE LA LIBERATION, Baillargues",
    "lat": 43.660511,
    "lng": 4.011734,
    "transactions": [
      {
        "date": "2024-08-12",
        "priceEur": 175000,
        "typeLocal": "Appartement",
        "surfaceM2": 107,
        "isVefa": false
      }
    ]
  },
  "010024bcb256": {
    "id": "010024bcb256",
    "label": "330 RUE DU CONTROLE, Baillargues",
    "lat": 43.661602,
    "lng": 4.019896,
    "transactions": [
      {
        "date": "2024-09-06",
        "priceEur": 275000,
        "typeLocal": "Maison",
        "surfaceM2": 73,
        "isVefa": false
      }
    ]
  },
  "1f33f194e830": {
    "id": "1f33f194e830",
    "label": "317 CHE DES LIGNIERES, Baillargues",
    "lat": 43.666717,
    "lng": 4.011897,
    "transactions": [
      {
        "date": "2024-09-26",
        "priceEur": 810000,
        "typeLocal": "Maison",
        "surfaceM2": 100,
        "isVefa": false
      }
    ]
  },
  "834158826831": {
    "id": "834158826831",
    "label": "334 RUE DU CONTROLE, Baillargues",
    "lat": 43.661602,
    "lng": 4.019896,
    "transactions": [
      {
        "date": "2024-10-09",
        "priceEur": 260000,
        "typeLocal": "Maison",
        "surfaceM2": 74,
        "isVefa": false
      }
    ]
  },
  "395c05372f47": {
    "id": "395c05372f47",
    "label": "17 RUE DES ENTREPOTS, Baillargues",
    "lat": 43.662454,
    "lng": 4.0185,
    "transactions": [
      {
        "date": "2024-11-08",
        "priceEur": 490000,
        "typeLocal": "Maison",
        "surfaceM2": 140,
        "isVefa": false
      },
      {
        "date": "2024-11-08",
        "priceEur": 490000,
        "typeLocal": "Maison",
        "surfaceM2": 140,
        "isVefa": false
      }
    ]
  },
  "2040077ada6c": {
    "id": "2040077ada6c",
    "label": "4 RUE FREDERIC MISTRAL, Baillargues",
    "lat": 43.665684,
    "lng": 4.016255,
    "transactions": [
      {
        "date": "2024-11-18",
        "priceEur": 315000,
        "typeLocal": "Maison",
        "surfaceM2": 130,
        "isVefa": false
      }
    ]
  },
  "b4b5267ddedc": {
    "id": "b4b5267ddedc",
    "label": "8 RUE JOSEPH DELTHEIL, Baillargues",
    "lat": 43.664837,
    "lng": 4.020746,
    "transactions": [
      {
        "date": "2024-12-10",
        "priceEur": 390500,
        "typeLocal": "Maison",
        "surfaceM2": 105,
        "isVefa": false
      }
    ]
  },
  "79b4d563266d": {
    "id": "79b4d563266d",
    "label": "3 RUE FABRE DIT DE L HERAULT, Baillargues",
    "lat": 43.66714,
    "lng": 4.020709,
    "transactions": [
      {
        "date": "2024-12-17",
        "priceEur": 496140,
        "typeLocal": "Maison",
        "surfaceM2": 127,
        "isVefa": false
      }
    ]
  },
  "3e03bcb2142a": {
    "id": "3e03bcb2142a",
    "label": "36 RUE JEAN MOULIN, Baillargues",
    "lat": 43.667233,
    "lng": 4.017946,
    "transactions": [
      {
        "date": "2024-12-20",
        "priceEur": 403150,
        "typeLocal": "Maison",
        "surfaceM2": 133,
        "isVefa": false
      }
    ]
  },
  "7a3d3dec39bc": {
    "id": "7a3d3dec39bc",
    "label": "36 RUE DE LA REPUBLIQUE, Baillargues",
    "lat": 43.661238,
    "lng": 4.012985,
    "transactions": [
      {
        "date": "2024-12-27",
        "priceEur": 205000,
        "typeLocal": "Maison",
        "surfaceM2": 80,
        "isVefa": false
      }
    ]
  },
  "2cf681ed7bb3": {
    "id": "2cf681ed7bb3",
    "label": "9 RUE DU PICACHOU, Baillargues",
    "lat": 43.661709,
    "lng": 4.013228,
    "transactions": [
      {
        "date": "2025-01-15",
        "priceEur": 945000,
        "typeLocal": "Maison",
        "surfaceM2": 212,
        "isVefa": false
      }
    ]
  },
  "442609b1a87f": {
    "id": "442609b1a87f",
    "label": "419 RUE DU CONTROLE, Baillargues",
    "lat": 43.662436,
    "lng": 4.019996,
    "transactions": [
      {
        "date": "2025-02-04",
        "priceEur": 464970,
        "typeLocal": "Maison",
        "surfaceM2": 80,
        "isVefa": false
      }
    ]
  },
  "c41e26d68594": {
    "id": "c41e26d68594",
    "label": "23 RUE FREDERIC MISTRAL, Baillargues",
    "lat": 43.665484,
    "lng": 4.017455,
    "transactions": [
      {
        "date": "2025-01-24",
        "priceEur": 282700,
        "typeLocal": "Maison",
        "surfaceM2": 123,
        "isVefa": false
      }
    ]
  },
  "5e9204c4d557": {
    "id": "5e9204c4d557",
    "label": "13 RUE JEANNE GALZY, Baillargues",
    "lat": 43.663938,
    "lng": 4.01236,
    "transactions": [
      {
        "date": "2025-02-11",
        "priceEur": 770900,
        "typeLocal": "Maison",
        "surfaceM2": 200,
        "isVefa": false
      }
    ]
  },
  "a8f3f59c49d2": {
    "id": "a8f3f59c49d2",
    "label": "12 ALL LEON CORDES, Baillargues",
    "lat": 43.666046,
    "lng": 4.018279,
    "transactions": [
      {
        "date": "2025-03-10",
        "priceEur": 309890,
        "typeLocal": "Maison",
        "surfaceM2": 94,
        "isVefa": false
      }
    ]
  },
  "80052e797bec": {
    "id": "80052e797bec",
    "label": "2 IMP DES OLIVIERS, Baillargues",
    "lat": 43.662736,
    "lng": 4.016341,
    "transactions": [
      {
        "date": "2025-02-26",
        "priceEur": 160000,
        "typeLocal": "Maison",
        "surfaceM2": 98,
        "isVefa": false
      }
    ]
  },
  "5c5bec1be8ce": {
    "id": "5c5bec1be8ce",
    "label": "18 RUE JEANNE GALZY, Baillargues",
    "lat": 43.664717,
    "lng": 4.011628,
    "transactions": [
      {
        "date": "2025-04-10",
        "priceEur": 345000,
        "typeLocal": "Maison",
        "surfaceM2": 93,
        "isVefa": false
      }
    ]
  },
  "b8c4821e61bc": {
    "id": "b8c4821e61bc",
    "label": "7 ALL DU GARDIAN, Baillargues",
    "lat": 43.661609,
    "lng": 4.020017,
    "transactions": [
      {
        "date": "2025-04-23",
        "priceEur": 340380,
        "typeLocal": "Maison",
        "surfaceM2": 96,
        "isVefa": false
      }
    ]
  },
  "2932d2d66699": {
    "id": "2932d2d66699",
    "label": "26 IMP DES TERRASSES ENSOLEILLEES, Baillargues",
    "lat": 43.664911,
    "lng": 4.014412,
    "transactions": [
      {
        "date": "2025-05-02",
        "priceEur": 458750,
        "typeLocal": "Maison",
        "surfaceM2": 80,
        "isVefa": false
      }
    ]
  },
  "5d2bae7019b0": {
    "id": "5d2bae7019b0",
    "label": "1 RUE DES REMPARTS, Baillargues",
    "lat": 43.66095,
    "lng": 4.014193,
    "transactions": [
      {
        "date": "2025-05-21",
        "priceEur": 363100,
        "typeLocal": "Maison",
        "surfaceM2": 145,
        "isVefa": false
      }
    ]
  },
  "5938c72fd8bf": {
    "id": "5938c72fd8bf",
    "label": "22 RUE ALBERTINE SARRAZIN, Baillargues",
    "lat": 43.665552,
    "lng": 4.020104,
    "transactions": [
      {
        "date": "2025-05-27",
        "priceEur": 350000,
        "typeLocal": "Maison",
        "surfaceM2": 106,
        "isVefa": false
      }
    ]
  }
}