{
  "421926220e8c": {
    "id": "421926220e8c",
    "label": "282R RUE MERLOT, Mauguio",
    "lat": 43.62505,
    "lng": 4.014318,
    "transactions": [
      {
        "date": "2020-07-31",
        "priceEur": 750000,
        "typeLocal": "Appartement",
        "surfaceM2": 65,
        "isVefa": false
      },
      {
        "date": "2020-07-31",
        "priceEur": 750000,
        "typeLocal": "Appartement",
        "surfaceM2": 65,
        "isVefa": false
      }
    ]
  },
  "3b3d95321d6a": {
    "id": "3b3d95321d6a",
    "label": "57 RUE JEAN COCTEAU, Mauguio",
    "lat": 43.620805,
    "lng": 4.018505,
    "transactions": [
      {
        "date": "2020-09-28",
        "priceEur": 437000,
        "typeLocal": "Maison",
        "surfaceM2": 150,
        "isVefa": false
      }
    ]
  },
  "589ec126430c": {
    "id": "589ec126430c",
    "label": "238 RUE ANDRE MAUROIS, Mauguio",
    "lat": 43.621191,
    "lng": 4.016048,
    "transactions": [
      {
        "date": "2020-09-22",
        "priceEur": 515000,
        "typeLocal": "Maison",
        "surfaceM2": 139,
        "isVefa": false
      }
    ]
  },
  "b66c874e4a24": {
    "id": "b66c874e4a24",
    "label": "53 RUE JEAN VILAR, Mauguio",
    "lat": 43.620715,
    "lng": 4.010537,
    "transactions": [
      {
        "date": "2020-10-29",
        "priceEur": 275000,
        "typeLocal": "Maison",
        "surfaceM2": 92,
        "isVefa": false
      }
    ]
  },
  "50473b4e56ce": {
    "id": "50473b4e56ce",
    "label": "571 AV JEAN BAPTISTE CLEMENT, Mauguio",
    "lat": 43.621727,
    "lng": 4.01076,
    "transactions": [
      {
        "date": "2020-11-16",
        "priceEur": 151200,
        "typeLocal": "Maison",
        "surfaceM2": 129,
        "isVefa": false
      }
    ]
  },
  "60ee8e2cbcb2": {
    "id": "60ee8e2cbcb2",
    "label": "571C AV JEAN BAPTISTE CLEMENT, Mauguio",
    "lat": 43.621822,
    "lng": 4.010989,
    "transactions": [
      {
        "date": "2020-12-17",
        "priceEur": 702700,
        "typeLocal": "Maison",
        "surfaceM2": 168,
        "isVefa": false
      }
    ]
  },
  "012a3e0bf8a7": {
    "id": "012a3e0bf8a7",
    "label": "99 RUE CANTAGRILS, Mauguio",
    "lat": 43.622513,
    "lng": 4.010026,
    "transactions": [
      {
        "date": "2021-01-13",
        "priceEur": 340000,
        "typeLocal": "Maison",
        "surfaceM2": 88,
        "isVefa": false
      }
    ]
  },
  "b1cc07d96df1": {
    "id": "b1cc07d96df1",
    "label": "178 RUE FRANCOIS RABELAIS, Mauguio",
    "lat": 43.62047,
    "lng": 4.016273,
    "transactions": [
      {
        "date": "2021-01-21",
        "priceEur": 280000,
        "typeLocal": "Maison",
        "surfaceM2": 88,
        "isVefa": false
      }
    ]
  },
  "0d8b28db2c62": {
    "id": "0d8b28db2c62",
    "label": "200 RUE GERARD PHILIPPE, Mauguio",
    "lat": 43.620715,
    "lng": 4.010537,
    "transactions": [
      {
        "date": "2021-02-23",
        "priceEur": 355800,
        "typeLocal": "Maison",
        "surfaceM2": 75,
        "isVefa": false
      }
    ]
  },
  "3af8dd81a79a": {
    "id": "3af8dd81a79a",
    "label": "121 RUE BEETHOVEN, Mauguio",
    "lat": 43.623702,
    "lng": 4.01016,
    "transactions": [
      {
        "date": "2021-03-17",
        "priceEur": 427950,
        "typeLocal": "Maison",
        "surfaceM2": 109,
        "isVefa": false
      }
    ]
  },
  "f79b33076681": {
    "id": "f79b33076681",
    "label": "27 RUE ANDRE MALRAUX, Mauguio",
    "lat": 43.62196,
    "lng": 4.011366,
    "transactions": [
      {
        "date": "2021-06-25",
        "priceEur": 501000,
        "typeLocal": "Maison",
        "surfaceM2": 137,
        "isVefa": false
      }
    ]
  },
  "621984699c17": {
    "id": "621984699c17",
    "label": "742 AV JEAN BAPTISTE CLEMENT, Mauguio",
    "lat": 43.62356,
    "lng": 4.012318,
    "transactions": [
      {
        "date": "2021-09-06",
        "priceEur": 656000,
        "typeLocal": "Maison",
        "surfaceM2": 220,
        "isVefa": false
      }
    ]
  },
  "cc3a15b4ed7b": {
    "id": "cc3a15b4ed7b",
    "label": "571T AV JEAN BAPTISTE CLEMENT, Mauguio",
    "lat": 43.621743,
    "lng": 4.010583,
    "transactions": [
      {
        "date": "2021-09-16",
        "priceEur": 763900,
        "typeLocal": "Maison",
        "surfaceM2": 201,
        "isVefa": false
      }
    ]
  },
  "db34b9e2d4df": {
    "id": "db34b9e2d4df",
    "label": "199 RUE SALVADOR ALLENDE, Mauguio",
    "lat": 43.621072,
    "lng": 4.014995,
    "transactions": [
      {
        "date": "2021-10-15",
        "priceEur": 440000,
        "typeLocal": "Maison",
        "surfaceM2": 118,
        "isVefa": false
      }
    ]
  },
  "b4b4ac3ccd5e": {
    "id": "b4b4ac3ccd5e",
    "label": "30 RUE ANDRE MALRAUX, Mauguio",
    "lat": 43.621758,
    "lng": 4.011717,
    "transactions": [
      {
        "date": "2021-10-19",
        "priceEur": 480000,
        "typeLocal": "Maison",
        "surfaceM2": 93,
        "isVefa": false
      }
    ]
  },
  "e86da09c7a8e": {
    "id": "e86da09c7a8e",
    "label": "47 RUE JEAN PAUL SARTRE, Mauguio",
    "lat": 43.621559,
    "lng": 4.011677,
    "transactions": [
      {
        "date": "2021-11-24",
        "priceEur": 460000,
        "typeLocal": "Maison",
        "surfaceM2": 91,
        "isVefa": false
      }
    ]
  },
  "aadaea39e5ff": {
    "id": "aadaea39e5ff",
    "label": "91 RUE JEAN PAUL SARTRE, Mauguio",
    "lat": 43.621737,
    "lng": 4.012087,
    "transactions": [
      {
        "date": "2021-11-29",
        "priceEur": 430900,
        "typeLocal": "Maison",
        "surfaceM2": 97,
        "isVefa": false
      }
    ]
  },
  "937c61a74a7a": {
    "id": "937c61a74a7a",
    "label": "192 RUE JEAN PAUL SARTRE, Mauguio",
    "lat": 43.621925,
    "lng": 4.013465,
    "transactions": [
      {
        "date": "2021-12-13",
        "priceEur": 335000,
        "typeLocal": "Maison",
        "surfaceM2": 91,
        "isVefa": false
      }
    ]
  },
  "9def8f4e3112": {
    "id": "9def8f4e3112",
    "label": "124 RUE GERARD PHILIPPE, Mauguio",
    "lat": 43.620715,
    "lng": 4.010537,
    "transactions": [
      {
        "date": "2022-03-17",
        "priceEur": 457000,
        "typeLocal": "Maison",
        "surfaceM2": 85,
        "isVefa": false
      }
    ]
  },
  "fb71e2021a32": {
    "id": "fb71e2021a32",
    "label": "53B RUE JEAN COCTEAU, Mauguio",
    "lat": 43.62085,
    "lng": 4.018912,
    "transactions": [
      {
        "date": "2022-04-08",
        "priceEur": 386900,
        "typeLocal": "Maison",
        "surfaceM2": 90,
        "isVefa": false
      }
    ]
  },
  "d3c5d1e8f01a": {
    "id": "d3c5d1e8f01a",
    "label": "172 RUE JEAN PAUL SARTRE, Mauguio",
    "lat": 43.621836,
    "lng": 4.013187,
    "transactions": [
      {
        "date": "2022-04-15",
        "priceEur": 478500,
        "typeLocal": "Maison",
        "surfaceM2": 113,
        "isVefa": false
      }
    ]
  },
  "b2116b8666b4": {
    "id": "b2116b8666b4",
    "label": "119 IMP FRANCOIS MAURIAC, Mauguio",
    "lat": 43.621683,
    "lng": 4.013621,
    "transactions": [
      {
        "date": "2022-05-19",
        "priceEur": 335000,
        "typeLocal": "Maison",
        "surfaceM2": 66,
        "isVefa": false
      }
    ]
  },
  "ae48b4c78aa8": {
    "id": "ae48b4c78aa8",
    "label": "9641 AV DE BAILLARGUES, Mauguio",
    "lat": 43.623434,
    "lng": 4.010629,
    "transactions": [
      {
        "date": "2022-07-22",
        "priceEur": 1565000,
        "typeLocal": "Maison",
        "surfaceM2": 217,
        "isVefa": false
      }
    ]
  },
  "1302c3181168": {
    "id": "1302c3181168",
    "label": "132 RUE JEAN VILAR, Mauguio",
    "lat": 43.620715,
    "lng": 4.010537,
    "transactions": [
      {
        "date": "2022-09-01",
        "priceEur": 300000,
        "typeLocal": "Maison",
        "surfaceM2": 75,
        "isVefa": false
      }
    ]
  },
  "8e57d6d36b2b": {
    "id": "8e57d6d36b2b",
    "label": "184 IMP FRANCOIS MAURIAC, Mauguio",
    "lat": 43.621702,
    "lng": 4.014355,
    "transactions": [
      {
        "date": "2022-09-30",
        "priceEur": 562350,
        "typeLocal": "Appartement",
        "surfaceM2": 123,
        "isVefa": false
      }
    ]
  },
  "b062c9ba6a60": {
    "id": "b062c9ba6a60",
    "label": "136 RUE MARCEL AYME, Mauguio",
    "lat": 43.623116,
    "lng": 4.013075,
    "transactions": [
      {
        "date": "2022-10-20",
        "priceEur": 414500,
        "typeLocal": "Maison",
        "surfaceM2": 67,
        "isVefa": false
      }
    ]
  },
  "47e5da09e236": {
    "id": "47e5da09e236",
    "label": "230 RUE JEAN PAUL SARTRE, Mauguio",
    "lat": 43.622111,
    "lng": 4.013923,
    "transactions": [
      {
        "date": "2022-10-04",
        "priceEur": 508880,
        "typeLocal": "Maison",
        "surfaceM2": 110,
        "isVefa": false
      }
    ]
  },
  "f2420c1e3660": {
    "id": "f2420c1e3660",
    "label": "198 RUE JEAN COCTEAU, Mauguio",
    "lat": 43.621554,
    "lng": 4.017537,
    "transactions": [
      {
        "date": "2022-12-05",
        "priceEur": 428000,
        "typeLocal": "Maison",
        "surfaceM2": 90,
        "isVefa": false
      }
    ]
  },
  "33907dc91da8": {
    "id": "33907dc91da8",
    "label": "125 RUE MARCEL AYME, Mauguio",
    "lat": 43.623298,
    "lng": 4.012769,
    "transactions": [
      {
        "date": "2022-12-14",
        "priceEur": 475500,
        "typeLocal": "Maison",
        "surfaceM2": 74,
        "isVefa": false
      }
    ]
  },
  "683899a3b993": {
    "id": "683899a3b993",
    "label": "181 RUE DES CABERNETS, Mauguio",
    "lat": 43.627969,
    "lng": 4.011378,
    "transactions": [
      {
        "date": "2023-02-13",
        "priceEur": 523700,
        "typeLocal": "Maison",
        "surfaceM2": 111,
        "isVefa": false
      }
    ]
  },
  "63d591e2a681": {
    "id": "63d591e2a681",
    "label": "182 RUE FRANCOIS RABELAIS, Mauguio",
    "lat": 43.620535,
    "lng": 4.016199,
    "transactions": [
      {
        "date": "2023-03-01",
        "priceEur": 285000,
        "typeLocal": "Maison",
        "surfaceM2": 88,
        "isVefa": false
      }
    ]
  },
  "04d93bbae5c2": {
    "id": "04d93bbae5c2",
    "label": "236 RUE ANDRE MALRAUX, Mauguio",
    "lat": 43.622922,
    "lng": 4.013654,
    "transactions": [
      {
        "date": "2023-02-27",
        "priceEur": 380000,
        "typeLocal": "Maison",
        "surfaceM2": 77,
        "isVefa": false
      }
    ]
  },
  "676b87f88958": {
    "id": "676b87f88958",
    "label": "155 RUE GERARD PHILIPPE, Mauguio",
    "lat": 43.620715,
    "lng": 4.010537,
    "transactions": [
      {
        "date": "2023-02-09",
        "priceEur": 345000,
        "typeLocal": "Maison",
        "surfaceM2": 75,
        "isVefa": false
      }
    ]
  },
  "5626d1f22d0d": {
    "id": "5626d1f22d0d",
    "label": "112 IMP FRANCOIS MAURIAC, Mauguio",
    "lat": 43.621384,
    "lng": 4.013693,
    "transactions": [
      {
        "date": "2023-04-07",
        "priceEur": 280000,
        "typeLocal": "Maison",
        "surfaceM2": 133,
        "isVefa": false
      }
    ]
  },
  "e197bec9a035": {
    "id": "e197bec9a035",
    "label": "9 RUE DES ARAMONS, Mauguio",
    "lat": 43.625488,
    "lng": 4.011378,
    "transactions": [
      {
        "date": "2023-05-30",
        "priceEur": 630000,
        "typeLocal": "Maison",
        "surfaceM2": 130,
        "isVefa": false
      }
    ]
  },
  "7ca5589e69ba": {
    "id": "7ca5589e69ba",
    "label": "81 RUE GERARD PHILIPPE, Mauguio",
    "lat": 43.620715,
    "lng": 4.010537,
    "transactions": [
      {
        "date": "2023-06-02",
        "priceEur": 345170,
        "typeLocal": "Maison",
        "surfaceM2": 85,
        "isVefa": false
      }
    ]
  },
  "c0de2e274909": {
    "id": "c0de2e274909",
    "label": "275 RUE JEAN PAUL SARTRE, Mauguio",
    "lat": 43.622607,
    "lng": 4.014309,
    "transactions": [
      {
        "date": "2023-06-30",
        "priceEur": 302000,
        "typeLocal": "Appartement",
        "surfaceM2": 70,
        "isVefa": false
      }
    ]
  },
  "e12b96d66853": {
    "id": "e12b96d66853",
    "label": "392 RUE SALVADOR ALLENDE, Mauguio",
    "lat": 43.620955,
    "lng": 4.013079,
    "transactions": [
      {
        "date": "2023-08-04",
        "priceEur": 717080,
        "typeLocal": "Maison",
        "surfaceM2": 123,
        "isVefa": false
      }
    ]
  },
  "ea8590830ab9": {
    "id": "ea8590830ab9",
    "label": "541 AV JEAN BAPTISTE CLEMENT, Mauguio",
    "lat": 43.621718,
    "lng": 4.010181,
    "transactions": [
      {
        "date": "2023-08-23",
        "priceEur": 200000,
        "typeLocal": "Maison",
        "surfaceM2": 100,
        "isVefa": false
      }
    ]
  },
  "13000d10c632": {
    "id": "13000d10c632",
    "label": "163 RUE MERLOT, Mauguio",
    "lat": 43.626281,
    "lng": 4.01528,
    "transactions": [
      {
        "date": "2023-08-09",
        "priceEur": 650000,
        "typeLocal": "Appartement",
        "surfaceM2": 42,
        "isVefa": false
      },
      {
        "date": "2023-08-09",
        "priceEur": 650000,
        "typeLocal": "Appartement",
        "surfaceM2": 42,
        "isVefa": false
      },
      {
        "date": "2023-08-09",
        "priceEur": 650000,
        "typeLocal": "Appartement",
        "surfaceM2": 42,
        "isVefa": false
      }
    ]
  },
  "2f89901aee17": {
    "id": "2f89901aee17",
    "label": "357 RUE SALVADOR ALLENDE, Mauguio",
    "lat": 43.620771,
    "lng": 4.01364,
    "transactions": [
      {
        "date": "2023-09-04",
        "priceEur": 410975,
        "typeLocal": "Maison",
        "surfaceM2": 82,
        "isVefa": false
      }
    ]
  },
  "5ec108f085a4": {
    "id": "5ec108f085a4",
    "label": "631 AV JEAN BAPTISTE CLEMENT, Mauguio",
    "lat": 43.62243,
    "lng": 4.010843,
    "transactions": [
      {
        "date": "2023-09-12",
        "priceEur": 713896,
        "typeLocal": "Maison",
        "surfaceM2": 191,
        "isVefa": false
      }
    ]
  },
  "32dea1b047e3": {
    "id": "32dea1b047e3",
    "label": "24 RUE MADELEINE BRES, Mauguio",
    "lat": 43.620894,
    "lng": 4.020222,
    "transactions": [
      {
        "date": "2023-09-20",
        "priceEur": 202195,
        "typeLocal": "Appartement",
        "surfaceM2": 40,
        "isVefa": false
      }
    ]
  },
  "f938f11dae86": {
    "id": "f938f11dae86",
    "label": "50 IMP MARIA CALLAS, Mauguio",
    "lat": 43.621518,
    "lng": 4.015862,
    "transactions": [
      {
        "date": "2023-10-06",
        "priceEur": 476500,
        "typeLocal": "Maison",
        "surfaceM2": 113,
        "isVefa": false
      }
    ]
  },
  "9440e66ebe1a": {
    "id": "9440e66ebe1a",
    "label": "50 RUE MARCEL AYME, Mauguio",
    "lat": 43.622749,
    "lng": 4.012006,
    "transactions": [
      {
        "date": "2023-11-22",
        "priceEur": 370000,
        "typeLocal": "Maison",
        "surfaceM2": 80,
        "isVefa": false
      }
    ]
  },
  "55c5a6450430": {
    "id": "55c5a6450430",
    "label": "12 PL ANCIENS COMBATTANTS AFN, Mauguio",
    "lat": 43.620715,
    "lng": 4.010537,
    "transactions": [
      {
        "date": "2024-02-19",
        "priceEur": 302170,
        "typeLocal": "Maison",
        "surfaceM2": 75,
        "isVefa": false
      }
    ]
  },
  "82c37f90feb1": {
    "id": "82c37f90feb1",
    "label": "62 PL DEBUSSY, Mauguio",
    "lat": 43.624036,
    "lng": 4.010948,
    "transactions": [
      {
        "date": "2024-05-02",
        "priceEur": 285000,
        "typeLocal": "Maison",
        "surfaceM2": 84,
        "isVefa": false
      }
    ]
  },
  "343ea256d67c": {
    "id": "343ea256d67c",
    "label": "244 RUE SALVADOR ALLENDE, Mauguio",
    "lat": 43.621499,
    "lng": 4.014743,
    "transactions": [
      {
        "date": "2024-04-30",
        "priceEur": 585000,
        "typeLocal": "Maison",
        "surfaceM2": 105,
        "isVefa": false
      }
    ]
  },
  "7cecbe7e8625": {
    "id": "7cecbe7e8625",
    "label": "33 RUE JEAN VILAR, Mauguio",
    "lat": 43.620715,
    "lng": 4.010537,
    "transactions": [
      {
        "date": "2024-06-24",
        "priceEur": 315200,
        "typeLocal": "Maison",
        "surfaceM2": 92,
        "isVefa": false
      }
    ]
  },
  "fc2bc0f11ad2": {
    "id": "fc2bc0f11ad2",
    "label": "175 RUE ANDRE MAUROIS, Mauguio",
    "lat": 43.620937,
    "lng": 4.017154,
    "transactions": [
      {
        "date": "2024-07-25",
        "priceEur": 421550,
        "typeLocal": "Maison",
        "surfaceM2": 134,
        "isVefa": false
      }
    ]
  },
  "87af5b0e677d": {
    "id": "87af5b0e677d",
    "label": "40 IMP FRANCOIS MAURIAC, Mauguio",
    "lat": 43.621381,
    "lng": 4.01257,
    "transactions": [
      {
        "date": "2024-08-05",
        "priceEur": 552750,
        "typeLocal": "Maison",
        "surfaceM2": 108,
        "isVefa": false
      }
    ]
  },
  "a57ee4e5c3ad": {
    "id": "a57ee4e5c3ad",
    "label": "8 RUE MARCEL AYME, Mauguio",
    "lat": 43.622782,
    "lng": 4.011557,
    "transactions": [
      {
        "date": "2024-08-28",
        "priceEur": 250000,
        "typeLocal": "Maison",
        "surfaceM2": 50,
        "isVefa": false
      }
    ]
  },
  "52bfe4a7783e": {
    "id": "52bfe4a7783e",
    "label": "99 RUE JEAN VILAR, Mauguio",
    "lat": 43.620715,
    "lng": 4.010537,
    "transactions": [
      {
        "date": "2024-09-24",
        "priceEur": 364000,
        "typeLocal": "Maison",
        "surfaceM2": 75,
        "isVefa": false
      }
    ]
  },
  "5d059413300e": {
    "id": "5d059413300e",
    "label": "126 RUE GERARD PHILIPPE, Mauguio",
    "lat": 43.620715,
    "lng": 4.010537,
    "transactions": [
      {
        "date": "2024-12-13",
        "priceEur": 320000,
        "typeLocal": "Maison",
        "surfaceM2": 85,
        "isVefa": false
      }
    ]
  },
  "24e16ce4fb05": {
    "id": "24e16ce4fb05",
    "label": "609 AV JEAN BAPTISTE CLEMENT, Mauguio",
    "lat": 43.622152,
    "lng": 4.010607,
    "transactions": [
      {
        "date": "2024-12-13",
        "priceEur": 614430,
        "typeLocal": "Maison",
        "surfaceM2": 201,
        "isVefa": false
      }
    ]
  },
  "fd6cad6968ba": {
    "id": "fd6cad6968ba",
    "label": "14 ENC RAVEL, Mauguio",
    "lat": 43.624001,
    "lng": 4.010446,
    "transactions": [
      {
        "date": "2024-12-03",
        "priceEur": 260000,
        "typeLocal": "Maison",
        "surfaceM2": 84,
        "isVefa": false
      }
    ]
  },
  "c03f950e9828": {
    "id": "c03f950e9828",
    "label": "282C RUE MERLOT, Mauguio",
    "lat": 43.624954,
    "lng": 4.014087,
    "transactions": [
      {
        "date": "2025-02-27",
        "priceEur": 719350,
        "typeLocal": "Appartement",
        "surfaceM2": 140,
        "isVefa": false
      }
    ]
  },
  "0561742d32af": {
    "id": "0561742d32af",
    "label": "32 PL ANCIENS COMBATTANTS AFN, Mauguio",
    "lat": 43.620715,
    "lng": 4.010537,
    "transactions": [
      {
        "date": "2025-02-20",
        "priceEur": 280000,
        "typeLocal": "Maison",
        "surfaceM2": 75,
        "isVefa": false
      }
    ]
  },
  "4bf5bc251136": {
    "id": "4bf5bc251136",
    "label": "74 RUE CANTAGRILS, Mauguio",
    "lat": 43.622948,
    "lng": 4.010322,
    "transactions": [
      {
        "date": "2025-03-24",
        "priceEur": 485770,
        "typeLocal": "Maison",
        "surfaceM2": 97,
        "isVefa": false
      }
    ]
  },
  "078f9440f811": {
    "id": "078f9440f811",
    "label": "62 RUE MARIE CURIE, Mauguio",
    "lat": 43.620894,
    "lng": 4.020222,
    "transactions": [
      {
        "date": "2025-03-28",
        "priceEur": 297410,
        "typeLocal": "Maison",
        "surfaceM2": 79,
        "isVefa": false
      }
    ]
  },
  "23bae1fe2abc": {
    "id": "23bae1fe2abc",
    "label": "42 PL DEBUSSY, Mauguio",
    "lat": 43.624086,
    "lng": 4.011223,
    "transactions": [
      {
        "date": "2025-04-30",
        "priceEur": 329268,
        "typeLocal": "Maison",
        "surfaceM2": 84,
        "isVefa": false
      }
    ]
  },
  "cc8044ed709c": {
    "id": "cc8044ed709c",
    "label": "540 RUE SALVADOR ALLENDE, Mauguio",
    "lat": 43.621268,
    "lng": 4.012232,
    "transactions": [
      {
        "date": "2025-05-23",
        "priceEur": 342000,
        "typeLocal": "Maison",
        "surfaceM2": 99,
        "isVefa": false
      }
    ]
  }
}