{
  "ac507febcdd2": {
    "id": "ac507febcdd2",
    "label": "5 RTE DE BEC DE MORTAGNE, Annouville-Vilmesnil",
    "lat": 49.678948,
    "lng": 0.432372,
    "transactions": [
      {
        "date": "2020-11-25",
        "priceEur": 217000,
        "typeLocal": "Maison",
        "surfaceM2": 116,
        "isVefa": false
      }
    ]
  },
  "a8e84ca971e0": {
    "id": "a8e84ca971e0",
    "label": "8 LOT DE LA MARE, Annouville-Vilmesnil",
    "lat": 49.680555,
    "lng": 0.430141,
    "transactions": [
      {
        "date": "2021-08-13",
        "priceEur": 223000,
        "typeLocal": "Maison",
        "surfaceM2": 118,
        "isVefa": false
      }
    ]
  },
  "13b5761d243c": {
    "id": "13b5761d243c",
    "label": "8 IMP DU CLOS FLEURI, Annouville-Vilmesnil",
    "lat": 49.677752,
    "lng": 0.437158,
    "transactions": [
      {
        "date": "2021-08-25",
        "priceEur": 260000,
        "typeLocal": "Maison",
        "surfaceM2": 78,
        "isVefa": false
      }
    ]
  },
  "41531516a740": {
    "id": "41531516a740",
    "label": "5003 RUE DE LA MARE, Annouville-Vilmesnil",
    "lat": 49.680032,
    "lng": 0.43055,
    "transactions": [
      {
        "date": "2021-08-23",
        "priceEur": 235000,
        "typeLocal": "Maison",
        "surfaceM2": 121,
        "isVefa": false
      }
    ]
  },
  "4573987a7024": {
    "id": "4573987a7024",
    "label": "13 RTE DU MANOIR, Annouville-Vilmesnil",
    "lat": 49.677308,
    "lng": 0.43639,
    "transactions": [
      {
        "date": "2021-11-30",
        "priceEur": 83000,
        "typeLocal": "Maison",
        "surfaceM2": 61,
        "isVefa": false
      }
    ]
  },
  "602ebda01fc3": {
    "id": "602ebda01fc3",
    "label": "5 RTE DE MENTHEVILLE, Annouville-Vilmesnil",
    "lat": 49.680057,
    "lng": 0.430979,
    "transactions": [
      {
        "date": "2022-05-24",
        "priceEur": 93000,
        "typeLocal": "Maison",
        "surfaceM2": 95,
        "isVefa": false
      }
    ]
  },
  "fc4967b53db4": {
    "id": "fc4967b53db4",
    "label": "7 RTE DE BEC DE MORTAGNE, Annouville-Vilmesnil",
    "lat": 49.679328,
    "lng": 0.432264,
    "transactions": [
      {
        "date": "2022-06-21",
        "priceEur": 319000,
        "typeLocal": "Maison",
        "surfaceM2": 151,
        "isVefa": false
      }
    ]
  },
  "bb8a571ddf8a": {
    "id": "bb8a571ddf8a",
    "label": "5004 CHE DE BERNAHET, Annouville-Vilmesnil",
    "lat": 49.675578,
    "lng": 0.433519,
    "transactions": [
      {
        "date": "2022-07-08",
        "priceEur": 172500,
        "typeLocal": "Maison",
        "surfaceM2": 87,
        "isVefa": false
      }
    ]
  },
  "55b501adacfa": {
    "id": "55b501adacfa",
    "label": "9 RTE DES BACS, Annouville-Vilmesnil",
    "lat": 49.676988,
    "lng": 0.432274,
    "transactions": [
      {
        "date": "2022-07-27",
        "priceEur": 220000,
        "typeLocal": "Maison",
        "surfaceM2": 111,
        "isVefa": false
      }
    ]
  },
  "6df4e2745f3b": {
    "id": "6df4e2745f3b",
    "label": "3 RUE DE LA MARE, Annouville-Vilmesnil",
    "lat": 49.680037,
    "lng": 0.429854,
    "transactions": [
      {
        "date": "2022-09-09",
        "priceEur": 299000,
        "typeLocal": "Maison",
        "surfaceM2": 148,
        "isVefa": false
      }
    ]
  },
  "ddc455eaff66": {
    "id": "ddc455eaff66",
    "label": "7 IMP DU CLOS FLEURI, Annouville-Vilmesnil",
    "lat": 49.678255,
    "lng": 0.437217,
    "transactions": [
      {
        "date": "2023-04-11",
        "priceEur": 313450,
        "typeLocal": "Maison",
        "surfaceM2": 136,
        "isVefa": false
      }
    ]
  },
  "72b8dace1677": {
    "id": "72b8dace1677",
    "label": "1 LOT DE LA MARE, Annouville-Vilmesnil",
    "lat": 49.680143,
    "lng": 0.429131,
    "transactions": [
      {
        "date": "2023-04-28",
        "priceEur": 215000,
        "typeLocal": "Maison",
        "surfaceM2": 101,
        "isVefa": false
      }
    ]
  },
  "7a99b4b6ff49": {
    "id": "7a99b4b6ff49",
    "label": "15 RTE DE BRETTEVILLE, Annouville-Vilmesnil",
    "lat": 49.676428,
    "lng": 0.429941,
    "transactions": [
      {
        "date": "2023-06-13",
        "priceEur": 169800,
        "typeLocal": "Maison",
        "surfaceM2": 84,
        "isVefa": false
      }
    ]
  },
  "2b9c1027a890": {
    "id": "2b9c1027a890",
    "label": "13 CHE DES PINS, Annouville-Vilmesnil",
    "lat": 49.679248,
    "lng": 0.437245,
    "transactions": [
      {
        "date": "2023-10-17",
        "priceEur": 135000,
        "typeLocal": "Maison",
        "surfaceM2": 138,
        "isVefa": false
      }
    ]
  },
  "c155dd9bff47": {
    "id": "c155dd9bff47",
    "label": "11 RTE DE BRETTEVILLE, Annouville-Vilmesnil",
    "lat": 49.676841,
    "lng": 0.431089,
    "transactions": [
      {
        "date": "2024-06-14",
        "priceEur": 205000,
        "typeLocal": "Maison",
        "surfaceM2": 103,
        "isVefa": false
      }
    ]
  }
}