{
  "c6d0f78f01d6": {
    "id": "c6d0f78f01d6",
    "label": "12 RUE FANFONNE GUILLIERME, Lattes",
    "lat": 43.563132,
    "lng": 3.903128,
    "transactions": [
      {
        "date": "2020-10-16",
        "priceEur": 529000,
        "typeLocal": "Maison",
        "surfaceM2": 134,
        "isVefa": false
      }
    ]
  },
  "b2c2236ea974": {
    "id": "b2c2236ea974",
    "label": "41 RUE DE L ARLESIENNE, Lattes",
    "lat": 43.561321,
    "lng": 3.903751,
    "transactions": [
      {
        "date": "2020-11-10",
        "priceEur": 385000,
        "typeLocal": "Maison",
        "surfaceM2": 93,
        "isVefa": false
      }
    ]
  },
  "16e12437132d": {
    "id": "16e12437132d",
    "label": "10 RUE D'OSTIA, Lattes",
    "lat": 43.564343,
    "lng": 3.900534,
    "transactions": [
      {
        "date": "2021-01-05",
        "priceEur": 638000,
        "typeLocal": "Maison",
        "surfaceM2": 124,
        "isVefa": false
      }
    ]
  },
  "090661719499": {
    "id": "090661719499",
    "label": "2 RUE DES TAMBOURINS, Lattes",
    "lat": 43.563983,
    "lng": 3.902876,
    "transactions": [
      {
        "date": "2021-02-09",
        "priceEur": 622900,
        "typeLocal": "Maison",
        "surfaceM2": 144,
        "isVefa": false
      }
    ]
  },
  "9ee7df90c6d1": {
    "id": "9ee7df90c6d1",
    "label": "15 RUE DE L ESTRAMBORD, Lattes",
    "lat": 43.561135,
    "lng": 3.903988,
    "transactions": [
      {
        "date": "2023-03-24",
        "priceEur": 798300,
        "typeLocal": "Maison",
        "surfaceM2": 103,
        "isVefa": false
      },
      {
        "date": "2021-04-20",
        "priceEur": 674000,
        "typeLocal": "Maison",
        "surfaceM2": 103,
        "isVefa": false
      }
    ]
  },
  "b1abe9091e8f": {
    "id": "b1abe9091e8f",
    "label": "11 RUE FANFONNE GUILLIERME, Lattes",
    "lat": 43.563656,
    "lng": 3.903414,
    "transactions": [
      {
        "date": "2021-07-08",
        "priceEur": 730000,
        "typeLocal": "Maison",
        "surfaceM2": 127,
        "isVefa": false
      }
    ]
  },
  "6ac6f290877f": {
    "id": "6ac6f290877f",
    "label": "16 RUE DE L ARLESIENNE, Lattes",
    "lat": 43.562798,
    "lng": 3.904016,
    "transactions": [
      {
        "date": "2021-08-23",
        "priceEur": 640000,
        "typeLocal": "Maison",
        "surfaceM2": 167,
        "isVefa": false
      }
    ]
  },
  "32a25aec7031": {
    "id": "32a25aec7031",
    "label": "3 RUE DE LA PETITE CAMARGUE, Lattes",
    "lat": 43.56141,
    "lng": 3.904619,
    "transactions": [
      {
        "date": "2021-12-28",
        "priceEur": 435600,
        "typeLocal": "Maison",
        "surfaceM2": 108,
        "isVefa": false
      }
    ]
  },
  "da7d94ed0c31": {
    "id": "da7d94ed0c31",
    "label": "1 PL DU DOLIUM, Lattes",
    "lat": 43.564215,
    "lng": 3.904445,
    "transactions": [
      {
        "date": "2022-03-11",
        "priceEur": 500000,
        "typeLocal": "Maison",
        "surfaceM2": 120,
        "isVefa": false
      }
    ]
  },
  "f4cd7e2df03c": {
    "id": "f4cd7e2df03c",
    "label": "22 RUE DE NIKAIA, Lattes",
    "lat": 43.561157,
    "lng": 3.90021,
    "transactions": [
      {
        "date": "2024-06-28",
        "priceEur": 946625.3,
        "typeLocal": "Maison",
        "surfaceM2": 80,
        "isVefa": false
      },
      {
        "date": "2022-05-06",
        "priceEur": 410000,
        "typeLocal": "Maison",
        "surfaceM2": 80,
        "isVefa": false
      }
    ]
  },
  "aff5ce04931b": {
    "id": "aff5ce04931b",
    "label": "12 RUE DES GARDIANS, Lattes",
    "lat": 43.5605,
    "lng": 3.901889,
    "transactions": [
      {
        "date": "2022-05-20",
        "priceEur": 2644300,
        "typeLocal": "Maison",
        "surfaceM2": 300,
        "isVefa": false
      }
    ]
  },
  "b035c2da2f08": {
    "id": "b035c2da2f08",
    "label": "18 RUE DU TRIDENT, Lattes",
    "lat": 43.559312,
    "lng": 3.906338,
    "transactions": [
      {
        "date": "2022-08-22",
        "priceEur": 790000,
        "typeLocal": "Maison",
        "surfaceM2": 107,
        "isVefa": false
      }
    ]
  },
  "bbb7823a804c": {
    "id": "bbb7823a804c",
    "label": "14 RUE DE L ESTRAMBORD, Lattes",
    "lat": 43.560807,
    "lng": 3.903188,
    "transactions": [
      {
        "date": "2022-08-05",
        "priceEur": 704500,
        "typeLocal": "Maison",
        "surfaceM2": 145,
        "isVefa": false
      }
    ]
  },
  "0230fca0b366": {
    "id": "0230fca0b366",
    "label": "580 RUE DE LA BASCULE, Lattes",
    "lat": 43.55972,
    "lng": 3.903874,
    "transactions": [
      {
        "date": "2023-01-19",
        "priceEur": 851000,
        "typeLocal": "Maison",
        "surfaceM2": 110,
        "isVefa": false
      }
    ]
  },
  "72d9c2d20a7a": {
    "id": "72d9c2d20a7a",
    "label": "7 RUE DES TAMBOURINS, Lattes",
    "lat": 43.562617,
    "lng": 3.902565,
    "transactions": [
      {
        "date": "2023-01-31",
        "priceEur": 609650,
        "typeLocal": "Maison",
        "surfaceM2": 155,
        "isVefa": false
      }
    ]
  },
  "2bd48e03a026": {
    "id": "2bd48e03a026",
    "label": "19 RUE MONOIKOS, Lattes",
    "lat": 43.563221,
    "lng": 3.900789,
    "transactions": [
      {
        "date": "2023-02-23",
        "priceEur": 884000,
        "typeLocal": "Maison",
        "surfaceM2": 181,
        "isVefa": false
      }
    ]
  },
  "83c2e15faac9": {
    "id": "83c2e15faac9",
    "label": "25 RUE DE LA BASCULE, Lattes",
    "lat": 43.560343,
    "lng": 3.904365,
    "transactions": [
      {
        "date": "2023-05-12",
        "priceEur": 590000,
        "typeLocal": "Maison",
        "surfaceM2": 121,
        "isVefa": false
      }
    ]
  },
  "4202a51ce6c9": {
    "id": "4202a51ce6c9",
    "label": "33 RUE FANFONNE GUILLIERME, Lattes",
    "lat": 43.561806,
    "lng": 3.903371,
    "transactions": [
      {
        "date": "2023-09-08",
        "priceEur": 490000,
        "typeLocal": "Maison",
        "surfaceM2": 121,
        "isVefa": false
      }
    ]
  },
  "8601b84e144e": {
    "id": "8601b84e144e",
    "label": "26 RUE DE NIKAIA, Lattes",
    "lat": 43.561354,
    "lng": 3.900497,
    "transactions": [
      {
        "date": "2023-11-16",
        "priceEur": 531000,
        "typeLocal": "Maison",
        "surfaceM2": 105,
        "isVefa": false
      }
    ]
  },
  "8abac1a55656": {
    "id": "8abac1a55656",
    "label": "10 RUE DE LA BANDIDO, Lattes",
    "lat": 43.562784,
    "lng": 3.906695,
    "transactions": [
      {
        "date": "2024-03-19",
        "priceEur": 695000,
        "typeLocal": "Maison",
        "surfaceM2": 143,
        "isVefa": false
      }
    ]
  },
  "e5e84faf54f0": {
    "id": "e5e84faf54f0",
    "label": "3 AV FANFONNE GUILLIERME, Lattes",
    "lat": 43.564396,
    "lng": 3.903213,
    "transactions": [
      {
        "date": "2024-08-29",
        "priceEur": 516520,
        "typeLocal": "Maison",
        "surfaceM2": 107,
        "isVefa": false
      }
    ]
  },
  "45e791f54bff": {
    "id": "45e791f54bff",
    "label": "14 RUE DE L ARLESIENNE, Lattes",
    "lat": 43.562929,
    "lng": 3.904085,
    "transactions": [
      {
        "date": "2024-08-30",
        "priceEur": 500000,
        "typeLocal": "Maison",
        "surfaceM2": 111,
        "isVefa": false
      }
    ]
  },
  "b467fedfc007": {
    "id": "b467fedfc007",
    "label": "2 PLAN DU DOLIUM, Lattes",
    "lat": 43.56439,
    "lng": 3.904586,
    "transactions": [
      {
        "date": "2024-12-11",
        "priceEur": 680000,
        "typeLocal": "Maison",
        "surfaceM2": 122,
        "isVefa": false
      }
    ]
  },
  "597ecaee4ebe": {
    "id": "597ecaee4ebe",
    "label": "26 AV FANFONNE GUILLIERME, Lattes",
    "lat": 43.561902,
    "lng": 3.90275,
    "transactions": [
      {
        "date": "2024-12-23",
        "priceEur": 541300,
        "typeLocal": "Maison",
        "surfaceM2": 127,
        "isVefa": false
      }
    ]
  },
  "7546909c1ac0": {
    "id": "7546909c1ac0",
    "label": "18 RUE DE L ARLESIENNE, Lattes",
    "lat": 43.562635,
    "lng": 3.90402,
    "transactions": [
      {
        "date": "2025-02-10",
        "priceEur": 650000,
        "typeLocal": "Maison",
        "surfaceM2": 141,
        "isVefa": false
      }
    ]
  },
  "dccf5199fd8a": {
    "id": "dccf5199fd8a",
    "label": "26 RUE DE L ARLESIENNE, Lattes",
    "lat": 43.561938,
    "lng": 3.903801,
    "transactions": [
      {
        "date": "2025-05-14",
        "priceEur": 610830,
        "typeLocal": "Maison",
        "surfaceM2": 100,
        "isVefa": false
      }
    ]
  }
}