{
  "351e171a4bcf": {
    "id": "351e171a4bcf",
    "label": "5867F RUE DU PARADIS, Saint-Sériès",
    "lat": 43.73334,
    "lng": 4.106202,
    "transactions": [
      {
        "date": "2020-09-14",
        "priceEur": 315300,
        "typeLocal": "Maison",
        "surfaceM2": 93,
        "isVefa": false
      }
    ]
  },
  "ed3ba4db7892": {
    "id": "ed3ba4db7892",
    "label": "75 AV DES CEVENNES, Saint-Sériès",
    "lat": 43.731853,
    "lng": 4.105435,
    "transactions": [
      {
        "date": "2021-01-19",
        "priceEur": 174160,
        "typeLocal": "Maison",
        "surfaceM2": 75,
        "isVefa": false
      }
    ]
  },
  "1020fc399097": {
    "id": "1020fc399097",
    "label": "5869F IMP YPREAUX, Saint-Sériès",
    "lat": 43.734304,
    "lng": 4.107086,
    "transactions": [
      {
        "date": "2021-01-27",
        "priceEur": 471500,
        "typeLocal": "Maison",
        "surfaceM2": 124,
        "isVefa": false
      },
      {
        "date": "2021-01-27",
        "priceEur": 471500,
        "typeLocal": "Maison",
        "surfaceM2": 124,
        "isVefa": false
      }
    ]
  },
  "1d5a355e5230": {
    "id": "1d5a355e5230",
    "label": "300 RUE DU BASSIN, Saint-Sériès",
    "lat": 43.731632,
    "lng": 4.101783,
    "transactions": [
      {
        "date": "2021-03-03",
        "priceEur": 36900,
        "typeLocal": "Maison",
        "surfaceM2": 95,
        "isVefa": false
      },
      {
        "date": "2021-03-03",
        "priceEur": 36900,
        "typeLocal": "Maison",
        "surfaceM2": 95,
        "isVefa": false
      }
    ]
  },
  "6aaac023e427": {
    "id": "6aaac023e427",
    "label": "364 RUE DU BASSIN, Saint-Sériès",
    "lat": 43.73219,
    "lng": 4.100667,
    "transactions": [
      {
        "date": "2021-04-16",
        "priceEur": 475000,
        "typeLocal": "Maison",
        "surfaceM2": 177,
        "isVefa": false
      },
      {
        "date": "2021-04-16",
        "priceEur": 332250,
        "typeLocal": "Maison",
        "surfaceM2": 177,
        "isVefa": false
      }
    ]
  },
  "1dafc5b4a53b": {
    "id": "1dafc5b4a53b",
    "label": "226 AV DES CEVENNES, Saint-Sériès",
    "lat": 43.733059,
    "lng": 4.104538,
    "transactions": [
      {
        "date": "2021-07-07",
        "priceEur": 68400,
        "typeLocal": "Maison",
        "surfaceM2": 150,
        "isVefa": false
      }
    ]
  },
  "5759d11e07c0": {
    "id": "5759d11e07c0",
    "label": "40 RUE DU PARADIS, Saint-Sériès",
    "lat": 43.732441,
    "lng": 4.105744,
    "transactions": [
      {
        "date": "2021-08-02",
        "priceEur": 835000,
        "typeLocal": "Maison",
        "surfaceM2": 225,
        "isVefa": false
      }
    ]
  },
  "58afb4484713": {
    "id": "58afb4484713",
    "label": "116 RUE DU LAVOIR, Saint-Sériès",
    "lat": 43.732825,
    "lng": 4.103169,
    "transactions": [
      {
        "date": "2021-08-05",
        "priceEur": 587100,
        "typeLocal": "Maison",
        "surfaceM2": 122,
        "isVefa": false
      }
    ]
  },
  "56df60f8ecf6": {
    "id": "56df60f8ecf6",
    "label": "26 RUE DES GINESTES, Saint-Sériès",
    "lat": 43.734912,
    "lng": 4.105547,
    "transactions": [
      {
        "date": "2021-11-15",
        "priceEur": 435000,
        "typeLocal": "Maison",
        "surfaceM2": 135,
        "isVefa": false
      },
      {
        "date": "2021-11-15",
        "priceEur": 435000,
        "typeLocal": "Maison",
        "surfaceM2": 135,
        "isVefa": false
      }
    ]
  },
  "f4386ce07c1d": {
    "id": "f4386ce07c1d",
    "label": "55 AV DES CEVENNES, Saint-Sériès",
    "lat": 43.731645,
    "lng": 4.105528,
    "transactions": [
      {
        "date": "2023-01-06",
        "priceEur": 60000,
        "typeLocal": "Maison",
        "surfaceM2": 98,
        "isVefa": false
      },
      {
        "date": "2022-04-28",
        "priceEur": 87000,
        "typeLocal": "Maison",
        "surfaceM2": 98,
        "isVefa": false
      }
    ]
  },
  "24e0554c77ef": {
    "id": "24e0554c77ef",
    "label": "25 RUE DES CHARDONNAY, Saint-Sériès",
    "lat": 43.732236,
    "lng": 4.10684,
    "transactions": [
      {
        "date": "2022-05-25",
        "priceEur": 624080,
        "typeLocal": "Maison",
        "surfaceM2": 132,
        "isVefa": false
      },
      {
        "date": "2022-05-25",
        "priceEur": 624080,
        "typeLocal": "Maison",
        "surfaceM2": 132,
        "isVefa": false
      }
    ]
  },
  "dc4ba7037d28": {
    "id": "dc4ba7037d28",
    "label": "123 RUE DES TROIS PINS, Saint-Sériès",
    "lat": 43.732886,
    "lng": 4.10227,
    "transactions": [
      {
        "date": "2022-09-29",
        "priceEur": 279000,
        "typeLocal": "Maison",
        "surfaceM2": 96,
        "isVefa": false
      }
    ]
  },
  "8e29bc146823": {
    "id": "8e29bc146823",
    "label": "32 RUE DU LAVOIR, Saint-Sériès",
    "lat": 43.732161,
    "lng": 4.1038,
    "transactions": [
      {
        "date": "2023-07-25",
        "priceEur": 831850,
        "typeLocal": "Maison",
        "surfaceM2": 261,
        "isVefa": false
      },
      {
        "date": "2023-07-25",
        "priceEur": 831850,
        "typeLocal": "Maison",
        "surfaceM2": 261,
        "isVefa": false
      }
    ]
  },
  "0ade9fc4d70d": {
    "id": "0ade9fc4d70d",
    "label": "95B RUE DES GINESTES, Saint-Sériès",
    "lat": 43.735842,
    "lng": 4.10671,
    "transactions": [
      {
        "date": "2023-10-03",
        "priceEur": 520600,
        "typeLocal": "Maison",
        "surfaceM2": 140,
        "isVefa": false
      }
    ]
  },
  "cd226424d30d": {
    "id": "cd226424d30d",
    "label": "41 IMP DU CANTOUNA, Saint-Sériès",
    "lat": 43.73161,
    "lng": 4.106367,
    "transactions": [
      {
        "date": "2023-11-21",
        "priceEur": 103350,
        "typeLocal": "Maison",
        "surfaceM2": 80,
        "isVefa": false
      }
    ]
  },
  "1c2f5cc17493": {
    "id": "1c2f5cc17493",
    "label": "277 AV DES CEVENNES, Saint-Sériès",
    "lat": 43.73337,
    "lng": 4.10379,
    "transactions": [
      {
        "date": "2024-06-07",
        "priceEur": 521550,
        "typeLocal": "Maison",
        "surfaceM2": 137,
        "isVefa": false
      }
    ]
  },
  "75d58622b994": {
    "id": "75d58622b994",
    "label": "83 RUE DU PARADIS, Saint-Sériès",
    "lat": 43.732794,
    "lng": 4.105492,
    "transactions": [
      {
        "date": "2024-10-09",
        "priceEur": 267250,
        "typeLocal": "Maison",
        "surfaceM2": 45,
        "isVefa": false
      }
    ]
  },
  "63d28eb224ac": {
    "id": "63d28eb224ac",
    "label": "7 RUE DU PELICAN, Saint-Sériès",
    "lat": 43.731648,
    "lng": 4.105254,
    "transactions": [
      {
        "date": "2024-12-13",
        "priceEur": 326420,
        "typeLocal": "Maison",
        "surfaceM2": 53,
        "isVefa": false
      }
    ]
  },
  "aefc2067cace": {
    "id": "aefc2067cace",
    "label": "9999 RUE DU PARADIS, Saint-Sériès",
    "lat": 43.73304,
    "lng": 4.105536,
    "transactions": [
      {
        "date": "2024-12-13",
        "priceEur": 330000,
        "typeLocal": "Maison",
        "surfaceM2": 150,
        "isVefa": false
      }
    ]
  }
}