{
  "56bacdd8ccaf": {
    "id": "56bacdd8ccaf",
    "label": "129 RTE DE CASSEL, Looberghe",
    "lat": 50.917092,
    "lng": 2.27047,
    "transactions": [
      {
        "date": "2020-07-02",
        "priceEur": 95900,
        "typeLocal": "Maison",
        "surfaceM2": 95,
        "isVefa": false
      }
    ]
  },
  "c4c132b5a31d": {
    "id": "c4c132b5a31d",
    "label": "90 RUE DE COPPENAXFORT, Looberghe",
    "lat": 50.917893,
    "lng": 2.2678,
    "transactions": [
      {
        "date": "2020-08-26",
        "priceEur": 287800,
        "typeLocal": "Maison",
        "surfaceM2": 194,
        "isVefa": false
      }
    ]
  },
  "59f47ce48e58": {
    "id": "59f47ce48e58",
    "label": "1 RTE DE BOURBOURG, Looberghe",
    "lat": 50.917485,
    "lng": 2.264341,
    "transactions": [
      {
        "date": "2022-11-24",
        "priceEur": 210850,
        "typeLocal": "Maison",
        "surfaceM2": 107,
        "isVefa": false
      },
      {
        "date": "2020-08-31",
        "priceEur": 180000,
        "typeLocal": "Maison",
        "surfaceM2": 107,
        "isVefa": false
      }
    ]
  },
  "6c2d8be75420": {
    "id": "6c2d8be75420",
    "label": "12 RTE DE CASSEL, Looberghe",
    "lat": 50.917062,
    "lng": 2.26863,
    "transactions": [
      {
        "date": "2022-03-18",
        "priceEur": 160000,
        "typeLocal": "Maison",
        "surfaceM2": 97,
        "isVefa": false
      }
    ]
  },
  "6f0c480833a3": {
    "id": "6f0c480833a3",
    "label": "3 RTE DE BOURBOURG, Looberghe",
    "lat": 50.917579,
    "lng": 2.264594,
    "transactions": [
      {
        "date": "2022-11-07",
        "priceEur": 175000,
        "typeLocal": "Maison",
        "surfaceM2": 103,
        "isVefa": false
      }
    ]
  },
  "4f64f59208cd": {
    "id": "4f64f59208cd",
    "label": "7 RUE DE LA CHAPELLE DES ROSES, Looberghe",
    "lat": 50.917843,
    "lng": 2.270433,
    "transactions": [
      {
        "date": "2024-08-05",
        "priceEur": 213500,
        "typeLocal": "Maison",
        "surfaceM2": 117,
        "isVefa": false
      }
    ]
  },
  "1434937cb3b8": {
    "id": "1434937cb3b8",
    "label": "26 RTE DE CASSEL, Looberghe",
    "lat": 50.917027,
    "lng": 2.268808,
    "transactions": [
      {
        "date": "2024-08-14",
        "priceEur": 197000,
        "typeLocal": "Maison",
        "surfaceM2": 105,
        "isVefa": false
      }
    ]
  },
  "2eb11e059223": {
    "id": "2eb11e059223",
    "label": "550 RTE DE BERGUES, Looberghe",
    "lat": 50.921202,
    "lng": 2.272983,
    "transactions": [
      {
        "date": "2024-10-11",
        "priceEur": 147000,
        "typeLocal": "Maison",
        "surfaceM2": 97,
        "isVefa": false
      }
    ]
  },
  "8e49e92f0f0f": {
    "id": "8e49e92f0f0f",
    "label": "11 RTE DE CASSEL, Looberghe",
    "lat": 50.917471,
    "lng": 2.269114,
    "transactions": [
      {
        "date": "2024-11-14",
        "priceEur": 180000,
        "typeLocal": "Maison",
        "surfaceM2": 161,
        "isVefa": false
      }
    ]
  },
  "9913f8c714a5": {
    "id": "9913f8c714a5",
    "label": "121 CHE DE HALAGE, Looberghe",
    "lat": 50.917786,
    "lng": 2.269741,
    "transactions": [
      {
        "date": "2024-11-27",
        "priceEur": 430000,
        "typeLocal": "Maison",
        "surfaceM2": 115,
        "isVefa": false
      },
      {
        "date": "2024-11-27",
        "priceEur": 430000,
        "typeLocal": "Maison",
        "surfaceM2": 108,
        "isVefa": false
      }
    ]
  }
}