{
  "de2c832c5388": {
    "id": "de2c832c5388",
    "label": "30 RES DE LA CHESNAYE, Notre-Dame-de-Bondeville",
    "lat": 49.478769,
    "lng": 1.056464,
    "transactions": [
      {
        "date": "2020-07-07",
        "priceEur": 260000,
        "typeLocal": "Maison",
        "surfaceM2": 112,
        "isVefa": false
      }
    ]
  },
  "e95b1b8af928": {
    "id": "e95b1b8af928",
    "label": "13 RUE DE L ABBE PIERRE, Notre-Dame-de-Bondeville",
    "lat": 49.478175,
    "lng": 1.061493,
    "transactions": [
      {
        "date": "2020-07-24",
        "priceEur": 185000,
        "typeLocal": "Maison",
        "surfaceM2": 88,
        "isVefa": false
      }
    ]
  },
  "f74bd2e570d9": {
    "id": "f74bd2e570d9",
    "label": "94 ALL RICHARD WAGNER, Notre-Dame-de-Bondeville",
    "lat": 49.475293,
    "lng": 1.058887,
    "transactions": [
      {
        "date": "2020-10-08",
        "priceEur": 281000,
        "typeLocal": "Maison",
        "surfaceM2": 143,
        "isVefa": false
      }
    ]
  },
  "a7138dbe7188": {
    "id": "a7138dbe7188",
    "label": "33 RUE DU GAL LECLERC, Notre-Dame-de-Bondeville",
    "lat": 49.477978,
    "lng": 1.054691,
    "transactions": [
      {
        "date": "2024-06-26",
        "priceEur": 368000,
        "typeLocal": "Maison",
        "surfaceM2": 162,
        "isVefa": false
      },
      {
        "date": "2020-12-22",
        "priceEur": 265000,
        "typeLocal": "Maison",
        "surfaceM2": 162,
        "isVefa": false
      }
    ]
  },
  "2be300584562": {
    "id": "2be300584562",
    "label": "26B CHE DE LA CHESNAYE, Notre-Dame-de-Bondeville",
    "lat": 49.479313,
    "lng": 1.05484,
    "transactions": [
      {
        "date": "2021-12-13",
        "priceEur": 385000,
        "typeLocal": "Maison",
        "surfaceM2": 132,
        "isVefa": false
      }
    ]
  },
  "7f78af80d001": {
    "id": "7f78af80d001",
    "label": "39 RUE DU GAL LECLERC, Notre-Dame-de-Bondeville",
    "lat": 49.477256,
    "lng": 1.055505,
    "transactions": [
      {
        "date": "2021-12-01",
        "priceEur": 165000,
        "typeLocal": "Maison",
        "surfaceM2": 43,
        "isVefa": false
      }
    ]
  },
  "7737f4c37392": {
    "id": "7737f4c37392",
    "label": "5B RUE DE L ABBE PIERRE, Notre-Dame-de-Bondeville",
    "lat": 49.478696,
    "lng": 1.061365,
    "transactions": [
      {
        "date": "2021-10-27",
        "priceEur": 191000,
        "typeLocal": "Maison",
        "surfaceM2": 52,
        "isVefa": false
      }
    ]
  },
  "a0b7c0b158a3": {
    "id": "a0b7c0b158a3",
    "label": "4 ALL FRANCOIS ADRIEN BOIELDIEU, Notre-Dame-de-Bondeville",
    "lat": 49.47761,
    "lng": 1.060872,
    "transactions": [
      {
        "date": "2021-12-08",
        "priceEur": 287500,
        "typeLocal": "Maison",
        "surfaceM2": 114,
        "isVefa": false
      }
    ]
  },
  "afa3a0dadfef": {
    "id": "afa3a0dadfef",
    "label": "20 ALL FRANTZ SCHUBERT, Notre-Dame-de-Bondeville",
    "lat": 49.476586,
    "lng": 1.058889,
    "transactions": [
      {
        "date": "2021-12-30",
        "priceEur": 240000,
        "typeLocal": "Maison",
        "surfaceM2": 130,
        "isVefa": false
      }
    ]
  },
  "360aff48f3eb": {
    "id": "360aff48f3eb",
    "label": "12 AV DU MONT AUX MALADES, Déville-lès-Rouen",
    "lat": 49.476072,
    "lng": 1.05655,
    "transactions": [
      {
        "date": "2022-07-11",
        "priceEur": 615000,
        "typeLocal": "Maison",
        "surfaceM2": 270,
        "isVefa": false
      },
      {
        "date": "2021-01-29",
        "priceEur": 263500,
        "typeLocal": "Maison",
        "surfaceM2": 156,
        "isVefa": false
      }
    ]
  },
  "c8150e9294ef": {
    "id": "c8150e9294ef",
    "label": "19 RUE DE L ABBE PIERRE, Notre-Dame-de-Bondeville",
    "lat": 49.478216,
    "lng": 1.060704,
    "transactions": [
      {
        "date": "2021-03-19",
        "priceEur": 198000,
        "typeLocal": "Maison",
        "surfaceM2": 109,
        "isVefa": false
      }
    ]
  },
  "ee2408a329bc": {
    "id": "ee2408a329bc",
    "label": "1 ALL DES CHARMILLES, Notre-Dame-de-Bondeville",
    "lat": 49.479557,
    "lng": 1.057459,
    "transactions": [
      {
        "date": "2021-04-15",
        "priceEur": 273500,
        "typeLocal": "Maison",
        "surfaceM2": 111,
        "isVefa": false
      }
    ]
  },
  "cea360a5e830": {
    "id": "cea360a5e830",
    "label": "20 COTE MONT AUX MALADES, Déville-lès-Rouen",
    "lat": 49.475549,
    "lng": 1.057182,
    "transactions": [
      {
        "date": "2021-05-11",
        "priceEur": 284400,
        "typeLocal": "Maison",
        "surfaceM2": 145,
        "isVefa": false
      }
    ]
  },
  "cac538a7c4ca": {
    "id": "cac538a7c4ca",
    "label": "40 RUE JACQUES OFFENBACH, Notre-Dame-de-Bondeville",
    "lat": 49.478091,
    "lng": 1.056246,
    "transactions": [
      {
        "date": "2021-06-11",
        "priceEur": 237000,
        "typeLocal": "Maison",
        "surfaceM2": 141,
        "isVefa": false
      }
    ]
  },
  "740830c7bb4e": {
    "id": "740830c7bb4e",
    "label": "174 RUE MAURICE RAVEL, Notre-Dame-de-Bondeville",
    "lat": 49.477184,
    "lng": 1.057843,
    "transactions": [
      {
        "date": "2021-06-09",
        "priceEur": 148400,
        "typeLocal": "Maison",
        "surfaceM2": 80,
        "isVefa": false
      }
    ]
  },
  "922b4ab30fbd": {
    "id": "922b4ab30fbd",
    "label": "15 RUE CAMILLE SAINT SAENS, Notre-Dame-de-Bondeville",
    "lat": 49.477624,
    "lng": 1.059272,
    "transactions": [
      {
        "date": "2021-07-28",
        "priceEur": 159000,
        "typeLocal": "Maison",
        "surfaceM2": 80,
        "isVefa": false
      }
    ]
  },
  "94c1b78efbea": {
    "id": "94c1b78efbea",
    "label": "16 COTE MONT AUX MALADES, Déville-lès-Rouen",
    "lat": 49.475763,
    "lng": 1.056958,
    "transactions": [
      {
        "date": "2021-07-20",
        "priceEur": 184000,
        "typeLocal": "Maison",
        "surfaceM2": 74,
        "isVefa": false
      }
    ]
  },
  "c382e1c69d29": {
    "id": "c382e1c69d29",
    "label": "8 RES DE LA CHESNAYE, Notre-Dame-de-Bondeville",
    "lat": 49.479302,
    "lng": 1.055278,
    "transactions": [
      {
        "date": "2022-05-13",
        "priceEur": 240000,
        "typeLocal": "Maison",
        "surfaceM2": 90,
        "isVefa": false
      }
    ]
  },
  "958189e2f33e": {
    "id": "958189e2f33e",
    "label": "35 RUE DU GAL LECLERC, Notre-Dame-de-Bondeville",
    "lat": 49.477582,
    "lng": 1.055176,
    "transactions": [
      {
        "date": "2024-07-26",
        "priceEur": 220000,
        "typeLocal": "Maison",
        "surfaceM2": 80,
        "isVefa": false
      },
      {
        "date": "2022-06-07",
        "priceEur": 215000,
        "typeLocal": "Maison",
        "surfaceM2": 80,
        "isVefa": false
      }
    ]
  },
  "4aac327f6c05": {
    "id": "4aac327f6c05",
    "label": "206 ALL FRANTZ SCHUBERT, Notre-Dame-de-Bondeville",
    "lat": 49.47694,
    "lng": 1.05948,
    "transactions": [
      {
        "date": "2022-07-22",
        "priceEur": 230600,
        "typeLocal": "Maison",
        "surfaceM2": 92,
        "isVefa": false
      }
    ]
  },
  "7b9b0ca67dbf": {
    "id": "7b9b0ca67dbf",
    "label": "28 RUE DE L ABBE PIERRE, Notre-Dame-de-Bondeville",
    "lat": 49.478675,
    "lng": 1.059613,
    "transactions": [
      {
        "date": "2022-09-05",
        "priceEur": 288000,
        "typeLocal": "Maison",
        "surfaceM2": 120,
        "isVefa": false
      }
    ]
  },
  "471abf8ef775": {
    "id": "471abf8ef775",
    "label": "1 RUE DE L ABBE PIERRE, Notre-Dame-de-Bondeville",
    "lat": 49.479557,
    "lng": 1.057459,
    "transactions": [
      {
        "date": "2022-09-23",
        "priceEur": 294700,
        "typeLocal": "Maison",
        "surfaceM2": 111,
        "isVefa": false
      }
    ]
  },
  "c47af00c9d20": {
    "id": "c47af00c9d20",
    "label": "1 RES DE LA CHESNAYE, Notre-Dame-de-Bondeville",
    "lat": 49.479865,
    "lng": 1.056217,
    "transactions": [
      {
        "date": "2022-09-27",
        "priceEur": 227000,
        "typeLocal": "Maison",
        "surfaceM2": 110,
        "isVefa": false
      }
    ]
  },
  "c3608ab1213d": {
    "id": "c3608ab1213d",
    "label": "3B RUE DE L ABBE PIERRE, Notre-Dame-de-Bondeville",
    "lat": 49.478733,
    "lng": 1.061155,
    "transactions": [
      {
        "date": "2025-06-10",
        "priceEur": 178200,
        "typeLocal": "Maison",
        "surfaceM2": 74,
        "isVefa": false
      },
      {
        "date": "2022-10-06",
        "priceEur": 169000,
        "typeLocal": "Maison",
        "surfaceM2": 74,
        "isVefa": false
      }
    ]
  },
  "7e4822c01731": {
    "id": "7e4822c01731",
    "label": "13 ALL DES CHARMILLES, Notre-Dame-de-Bondeville",
    "lat": 49.479029,
    "lng": 1.058537,
    "transactions": [
      {
        "date": "2022-11-16",
        "priceEur": 303000,
        "typeLocal": "Maison",
        "surfaceM2": 118,
        "isVefa": false
      }
    ]
  },
  "c05eba264a00": {
    "id": "c05eba264a00",
    "label": "39 RES DE LA CHESNAYE, Notre-Dame-de-Bondeville",
    "lat": 49.479507,
    "lng": 1.057256,
    "transactions": [
      {
        "date": "2022-12-16",
        "priceEur": 220000,
        "typeLocal": "Maison",
        "surfaceM2": 113,
        "isVefa": false
      }
    ]
  },
  "a982e247fb5d": {
    "id": "a982e247fb5d",
    "label": "20 RUE ANDRE MALRAUX, Notre-Dame-de-Bondeville",
    "lat": 49.480997,
    "lng": 1.059551,
    "transactions": [
      {
        "date": "2023-01-05",
        "priceEur": 345000,
        "typeLocal": "Maison",
        "surfaceM2": 127,
        "isVefa": false
      }
    ]
  },
  "f552f56091cb": {
    "id": "f552f56091cb",
    "label": "84 ALL CHARLES GOUNOD, Notre-Dame-de-Bondeville",
    "lat": 49.476014,
    "lng": 1.058504,
    "transactions": [
      {
        "date": "2023-03-20",
        "priceEur": 249000,
        "typeLocal": "Maison",
        "surfaceM2": 93,
        "isVefa": false
      }
    ]
  },
  "cce075847f24": {
    "id": "cce075847f24",
    "label": "128 ALL HECTOR BERLIOZ, Notre-Dame-de-Bondeville",
    "lat": 49.477201,
    "lng": 1.056283,
    "transactions": [
      {
        "date": "2023-03-24",
        "priceEur": 247500,
        "typeLocal": "Maison",
        "surfaceM2": 90,
        "isVefa": false
      }
    ]
  },
  "c9b2ec1817b4": {
    "id": "c9b2ec1817b4",
    "label": "33B RUE DU GAL LECLERC, Notre-Dame-de-Bondeville",
    "lat": 49.477902,
    "lng": 1.054844,
    "transactions": [
      {
        "date": "2023-05-10",
        "priceEur": 195000,
        "typeLocal": "Maison",
        "surfaceM2": 82,
        "isVefa": false
      }
    ]
  },
  "def7bc2d106a": {
    "id": "def7bc2d106a",
    "label": "27 RES DE LA CHESNAYE, Notre-Dame-de-Bondeville",
    "lat": 49.479091,
    "lng": 1.05688,
    "transactions": [
      {
        "date": "2023-05-16",
        "priceEur": 317500,
        "typeLocal": "Maison",
        "surfaceM2": 110,
        "isVefa": false
      }
    ]
  },
  "1a81a0e995f8": {
    "id": "1a81a0e995f8",
    "label": "24 ALL FRANTZ SCHUBERT, Notre-Dame-de-Bondeville",
    "lat": 49.476587,
    "lng": 1.059214,
    "transactions": [
      {
        "date": "2024-10-24",
        "priceEur": 224300,
        "typeLocal": "Maison",
        "surfaceM2": 93,
        "isVefa": false
      },
      {
        "date": "2023-05-15",
        "priceEur": 194200,
        "typeLocal": "Maison",
        "surfaceM2": 93,
        "isVefa": false
      }
    ]
  },
  "0e645edcf55a": {
    "id": "0e645edcf55a",
    "label": "29 RUE DE L ABBE PIERRE, Notre-Dame-de-Bondeville",
    "lat": 49.478181,
    "lng": 1.059509,
    "transactions": [
      {
        "date": "2023-05-17",
        "priceEur": 325000,
        "typeLocal": "Maison",
        "surfaceM2": 148,
        "isVefa": false
      }
    ]
  },
  "2db73e97a9e7": {
    "id": "2db73e97a9e7",
    "label": "11 RUE DE LA SOURCE ENRAGEE, Notre-Dame-de-Bondeville",
    "lat": 49.482296,
    "lng": 1.055365,
    "transactions": [
      {
        "date": "2023-06-30",
        "priceEur": 215000,
        "typeLocal": "Maison",
        "surfaceM2": 96,
        "isVefa": false
      }
    ]
  },
  "f1dd583ff606": {
    "id": "f1dd583ff606",
    "label": "142 RUE JACQUES OFFENBACH, Notre-Dame-de-Bondeville",
    "lat": 49.477382,
    "lng": 1.056955,
    "transactions": [
      {
        "date": "2023-07-28",
        "priceEur": 188000,
        "typeLocal": "Maison",
        "surfaceM2": 110,
        "isVefa": false
      }
    ]
  },
  "440a23c14ac9": {
    "id": "440a23c14ac9",
    "label": "9 ALL VERDI, Notre-Dame-de-Bondeville",
    "lat": 49.476217,
    "lng": 1.059866,
    "transactions": [
      {
        "date": "2023-08-28",
        "priceEur": 285500,
        "typeLocal": "Maison",
        "surfaceM2": 111,
        "isVefa": false
      }
    ]
  },
  "225cd8a6af41": {
    "id": "225cd8a6af41",
    "label": "416 RUE MAURICE RAVEL, Notre-Dame-de-Bondeville",
    "lat": 49.477666,
    "lng": 1.061224,
    "transactions": [
      {
        "date": "2023-09-12",
        "priceEur": 158000,
        "typeLocal": "Maison",
        "surfaceM2": 80,
        "isVefa": false
      }
    ]
  },
  "28b1d309e3ce": {
    "id": "28b1d309e3ce",
    "label": "80 RUE JEAN SEBASTIEN BACH, Notre-Dame-de-Bondeville",
    "lat": 49.476681,
    "lng": 1.05848,
    "transactions": [
      {
        "date": "2023-09-29",
        "priceEur": 215500,
        "typeLocal": "Maison",
        "surfaceM2": 93,
        "isVefa": false
      }
    ]
  },
  "2573e526a7a9": {
    "id": "2573e526a7a9",
    "label": "20 RUE DU GAL LECLERC, Notre-Dame-de-Bondeville",
    "lat": 49.477262,
    "lng": 1.054897,
    "transactions": [
      {
        "date": "2023-10-05",
        "priceEur": 356800,
        "typeLocal": "Maison",
        "surfaceM2": 120,
        "isVefa": false
      }
    ]
  },
  "67c726b518aa": {
    "id": "67c726b518aa",
    "label": "53 ALL FREDERIC CHOPIN, Notre-Dame-de-Bondeville",
    "lat": 49.477827,
    "lng": 1.058934,
    "transactions": [
      {
        "date": "2023-10-25",
        "priceEur": 231600,
        "typeLocal": "Maison",
        "surfaceM2": 80,
        "isVefa": false
      }
    ]
  },
  "f32899d293af": {
    "id": "f32899d293af",
    "label": "5 RUE ANDRE MALRAUX, Notre-Dame-de-Bondeville",
    "lat": 49.480933,
    "lng": 1.058291,
    "transactions": [
      {
        "date": "2023-10-25",
        "priceEur": 367000,
        "typeLocal": "Maison",
        "surfaceM2": 113,
        "isVefa": false
      }
    ]
  },
  "78bc2b511142": {
    "id": "78bc2b511142",
    "label": "17 CHE DE LA CHESNAYE, Notre-Dame-de-Bondeville",
    "lat": 49.480085,
    "lng": 1.055654,
    "transactions": [
      {
        "date": "2024-09-23",
        "priceEur": 86000,
        "typeLocal": "Maison",
        "surfaceM2": 59,
        "isVefa": false
      },
      {
        "date": "2024-09-23",
        "priceEur": 43000,
        "typeLocal": "Maison",
        "surfaceM2": 59,
        "isVefa": false
      },
      {
        "date": "2023-11-07",
        "priceEur": 103000,
        "typeLocal": "Maison",
        "surfaceM2": 59,
        "isVefa": false
      }
    ]
  },
  "29bfb519c766": {
    "id": "29bfb519c766",
    "label": "158 ALL GEORGES BIZET, Notre-Dame-de-Bondeville",
    "lat": 49.476326,
    "lng": 1.05873,
    "transactions": [
      {
        "date": "2023-11-27",
        "priceEur": 220000,
        "typeLocal": "Maison",
        "surfaceM2": 93,
        "isVefa": false
      }
    ]
  },
  "300d5ba9256b": {
    "id": "300d5ba9256b",
    "label": "76 ALL FREDERIC CHOPIN, Notre-Dame-de-Bondeville",
    "lat": 49.478197,
    "lng": 1.058273,
    "transactions": [
      {
        "date": "2024-02-02",
        "priceEur": 309000,
        "typeLocal": "Maison",
        "surfaceM2": 114,
        "isVefa": false
      }
    ]
  },
  "dac2e293e2a9": {
    "id": "dac2e293e2a9",
    "label": "10 RUE DU ONZE NOVEMBRE, Déville-lès-Rouen",
    "lat": 49.476568,
    "lng": 1.055093,
    "transactions": [
      {
        "date": "2024-03-08",
        "priceEur": 198500,
        "typeLocal": "Maison",
        "surfaceM2": 88,
        "isVefa": false
      }
    ]
  },
  "3bdf6d09a323": {
    "id": "3bdf6d09a323",
    "label": "3 ALL EMILE ZOLA, Notre-Dame-de-Bondeville",
    "lat": 49.480759,
    "lng": 1.060121,
    "transactions": [
      {
        "date": "2024-05-02",
        "priceEur": 291000,
        "typeLocal": "Maison",
        "surfaceM2": 116,
        "isVefa": false
      }
    ]
  },
  "1b26088d4f67": {
    "id": "1b26088d4f67",
    "label": "96 ALL FREDERIC CHOPIN, Notre-Dame-de-Bondeville",
    "lat": 49.477899,
    "lng": 1.058214,
    "transactions": [
      {
        "date": "2024-05-30",
        "priceEur": 170000,
        "typeLocal": "Maison",
        "surfaceM2": 80,
        "isVefa": false
      }
    ]
  },
  "e6fd15937251": {
    "id": "e6fd15937251",
    "label": "7 RES DE LA CHESNAYE, Notre-Dame-de-Bondeville",
    "lat": 49.479438,
    "lng": 1.05532,
    "transactions": [
      {
        "date": "2024-06-07",
        "priceEur": 206000,
        "typeLocal": "Maison",
        "surfaceM2": 100,
        "isVefa": false
      }
    ]
  },
  "5f56f9ac652b": {
    "id": "5f56f9ac652b",
    "label": "6 RUE ALBERT CAMUS, Notre-Dame-de-Bondeville",
    "lat": 49.481422,
    "lng": 1.058431,
    "transactions": [
      {
        "date": "2024-08-07",
        "priceEur": 322900,
        "typeLocal": "Maison",
        "surfaceM2": 139,
        "isVefa": false
      }
    ]
  },
  "3430975bb25a": {
    "id": "3430975bb25a",
    "label": "11 IMP CITE BARON, Notre-Dame-de-Bondeville",
    "lat": 49.480939,
    "lng": 1.054689,
    "transactions": [
      {
        "date": "2024-09-10",
        "priceEur": 175000,
        "typeLocal": "Maison",
        "surfaceM2": 77,
        "isVefa": false
      }
    ]
  },
  "3bfe43fea87e": {
    "id": "3bfe43fea87e",
    "label": "46 ALL CHARLES GOUNOD, Notre-Dame-de-Bondeville",
    "lat": 49.475901,
    "lng": 1.058839,
    "transactions": [
      {
        "date": "2024-09-10",
        "priceEur": 225000,
        "typeLocal": "Maison",
        "surfaceM2": 79,
        "isVefa": false
      }
    ]
  },
  "2ecc9ad1c456": {
    "id": "2ecc9ad1c456",
    "label": "4 RUE ALBERT CAMUS, Notre-Dame-de-Bondeville",
    "lat": 49.481176,
    "lng": 1.058591,
    "transactions": [
      {
        "date": "2024-09-10",
        "priceEur": 323200,
        "typeLocal": "Maison",
        "surfaceM2": 116,
        "isVefa": false
      }
    ]
  },
  "40c54f95323c": {
    "id": "40c54f95323c",
    "label": "229 RUE MAURICE RAVEL, Notre-Dame-de-Bondeville",
    "lat": 49.477646,
    "lng": 1.05863,
    "transactions": [
      {
        "date": "2024-11-29",
        "priceEur": 190800,
        "typeLocal": "Maison",
        "surfaceM2": 114,
        "isVefa": false
      }
    ]
  },
  "5865f0b1e72c": {
    "id": "5865f0b1e72c",
    "label": "38 ALL FRANTZ SCHUBERT, Notre-Dame-de-Bondeville",
    "lat": 49.476624,
    "lng": 1.059392,
    "transactions": [
      {
        "date": "2024-12-19",
        "priceEur": 196500,
        "typeLocal": "Maison",
        "surfaceM2": 93,
        "isVefa": false
      }
    ]
  },
  "fd0c0aeeddcd": {
    "id": "fd0c0aeeddcd",
    "label": "24 RUE JEAN SEBASTIEN BACH, Notre-Dame-de-Bondeville",
    "lat": 49.47717,
    "lng": 1.058225,
    "transactions": [
      {
        "date": "2025-01-15",
        "priceEur": 236000,
        "typeLocal": "Maison",
        "surfaceM2": 93,
        "isVefa": false
      }
    ]
  },
  "3eaafebb0b3b": {
    "id": "3eaafebb0b3b",
    "label": "19 RES DE LA CHESNAYE, Notre-Dame-de-Bondeville",
    "lat": 49.478392,
    "lng": 1.056305,
    "transactions": [
      {
        "date": "2025-02-20",
        "priceEur": 240000,
        "typeLocal": "Maison",
        "surfaceM2": 100,
        "isVefa": false
      }
    ]
  },
  "0cdb60a4b258": {
    "id": "0cdb60a4b258",
    "label": "84 ALL FRANTZ SCHUBERT, Notre-Dame-de-Bondeville",
    "lat": 49.476461,
    "lng": 1.059594,
    "transactions": [
      {
        "date": "2025-03-10",
        "priceEur": 247000,
        "typeLocal": "Maison",
        "surfaceM2": 114,
        "isVefa": false
      }
    ]
  },
  "f5504be73f8c": {
    "id": "f5504be73f8c",
    "label": "51 COTE DU MONT AUX MALADES, Notre-Dame-de-Bondeville",
    "lat": 49.475887,
    "lng": 1.057484,
    "transactions": [
      {
        "date": "2025-03-03",
        "priceEur": 170000,
        "typeLocal": "Maison",
        "surfaceM2": 72,
        "isVefa": false
      }
    ]
  }
}