{
  "5f4b0715af30": {
    "id": "5f4b0715af30",
    "label": "23 RUE RENE DELZENNE, Nomain",
    "lat": 50.504984,
    "lng": 3.236627,
    "transactions": [
      {
        "date": "2020-08-06",
        "priceEur": 358000,
        "typeLocal": "Maison",
        "surfaceM2": 110,
        "isVefa": false
      }
    ]
  },
  "f8dc5adcca33": {
    "id": "f8dc5adcca33",
    "label": "8A RUE RENE DELZENNE, Nomain",
    "lat": 50.50507,
    "lng": 3.232861,
    "transactions": [
      {
        "date": "2021-06-18",
        "priceEur": 281000,
        "typeLocal": "Maison",
        "surfaceM2": 90,
        "isVefa": false
      }
    ]
  },
  "16b5eed83b09": {
    "id": "16b5eed83b09",
    "label": "23C RUE RENE DELZENNE, Nomain",
    "lat": 50.504509,
    "lng": 3.237304,
    "transactions": [
      {
        "date": "2021-06-28",
        "priceEur": 440500,
        "typeLocal": "Maison",
        "surfaceM2": 169,
        "isVefa": false
      }
    ]
  },
  "774b64a77886": {
    "id": "774b64a77886",
    "label": "31 RUE RENE DELZENNE, Nomain",
    "lat": 50.503422,
    "lng": 3.240087,
    "transactions": [
      {
        "date": "2021-12-20",
        "priceEur": 239750,
        "typeLocal": "Maison",
        "surfaceM2": 96,
        "isVefa": false
      }
    ]
  },
  "b21eec2ac12e": {
    "id": "b21eec2ac12e",
    "label": "3B RUE RENE DELZENNE, Nomain",
    "lat": 50.506231,
    "lng": 3.231959,
    "transactions": [
      {
        "date": "2021-01-22",
        "priceEur": 420000,
        "typeLocal": "Maison",
        "surfaceM2": 107,
        "isVefa": false
      }
    ]
  },
  "0bcde96828c5": {
    "id": "0bcde96828c5",
    "label": "32B RUE RENE DELZENNE, Nomain",
    "lat": 50.502852,
    "lng": 3.239805,
    "transactions": [
      {
        "date": "2023-05-24",
        "priceEur": 394250,
        "typeLocal": "Maison",
        "surfaceM2": 126,
        "isVefa": false
      }
    ]
  },
  "2aa631061345": {
    "id": "2aa631061345",
    "label": "29 RUE RENE DELZENNE, Nomain",
    "lat": 50.504028,
    "lng": 3.238581,
    "transactions": [
      {
        "date": "2023-06-08",
        "priceEur": 360000,
        "typeLocal": "Maison",
        "surfaceM2": 140,
        "isVefa": false
      }
    ]
  },
  "bcdef68c04d8": {
    "id": "bcdef68c04d8",
    "label": "32 RUE D OUVIGNIES, Nomain",
    "lat": 50.505918,
    "lng": 3.230314,
    "transactions": [
      {
        "date": "2023-06-13",
        "priceEur": 256500,
        "typeLocal": "Maison",
        "surfaceM2": 111,
        "isVefa": false
      }
    ]
  },
  "1f3e12fead20": {
    "id": "1f3e12fead20",
    "label": "13 RUE RENE DELZENNE, Nomain",
    "lat": 50.504969,
    "lng": 3.235079,
    "transactions": [
      {
        "date": "2023-07-07",
        "priceEur": 295250,
        "typeLocal": "Maison",
        "surfaceM2": 71,
        "isVefa": false
      }
    ]
  }
}