{
  "a67180f952be": {
    "id": "a67180f952be",
    "label": "20 RUE MAGINOT, Marcq-en-Ostrevent",
    "lat": 50.284533,
    "lng": 3.239626,
    "transactions": [
      {
        "date": "2020-08-20",
        "priceEur": 107000,
        "typeLocal": "Maison",
        "surfaceM2": 65,
        "isVefa": false
      }
    ]
  },
  "464cc8025cf8": {
    "id": "464cc8025cf8",
    "label": "8 RUE HUBERT MONIEZ, Marcq-en-Ostrevent",
    "lat": 50.2858,
    "lng": 3.237861,
    "transactions": [
      {
        "date": "2021-11-24",
        "priceEur": 375000,
        "typeLocal": "Appartement",
        "surfaceM2": 67,
        "isVefa": false
      },
      {
        "date": "2021-11-24",
        "priceEur": 375000,
        "typeLocal": "Appartement",
        "surfaceM2": 66,
        "isVefa": false
      },
      {
        "date": "2021-11-24",
        "priceEur": 375000,
        "typeLocal": "Appartement",
        "surfaceM2": 90,
        "isVefa": false
      },
      {
        "date": "2021-11-24",
        "priceEur": 375000,
        "typeLocal": "Appartement",
        "surfaceM2": 57,
        "isVefa": false
      },
      {
        "date": "2021-11-24",
        "priceEur": 375000,
        "typeLocal": "Appartement",
        "surfaceM2": 88,
        "isVefa": false
      },
      {
        "date": "2021-11-24",
        "priceEur": 375000,
        "typeLocal": "Appartement",
        "surfaceM2": 82,
        "isVefa": false
      },
      {
        "date": "2021-11-24",
        "priceEur": 375000,
        "typeLocal": "Appartement",
        "surfaceM2": 51,
        "isVefa": false
      }
    ]
  },
  "7b06ba06b14b": {
    "id": "7b06ba06b14b",
    "label": "8 RUE CURIE, Marcq-en-Ostrevent",
    "lat": 50.285002,
    "lng": 3.239569,
    "transactions": [
      {
        "date": "2022-09-28",
        "priceEur": 90000,
        "typeLocal": "Maison",
        "surfaceM2": 92,
        "isVefa": false
      }
    ]
  },
  "571d3018e6d9": {
    "id": "571d3018e6d9",
    "label": "32 RUE MAGINOT, Marcq-en-Ostrevent",
    "lat": 50.285301,
    "lng": 3.240067,
    "transactions": [
      {
        "date": "2023-03-03",
        "priceEur": 151500,
        "typeLocal": "Maison",
        "surfaceM2": 116,
        "isVefa": false
      }
    ]
  },
  "16a600c098e0": {
    "id": "16a600c098e0",
    "label": "7 RUE CLEMENCEAU, Marcq-en-Ostrevent",
    "lat": 50.286204,
    "lng": 3.239665,
    "transactions": [
      {
        "date": "2023-04-17",
        "priceEur": 15000,
        "typeLocal": "Maison",
        "surfaceM2": 35,
        "isVefa": false
      }
    ]
  },
  "16255c242d2a": {
    "id": "16255c242d2a",
    "label": "6 RUE MAL FOCH, Marcq-en-Ostrevent",
    "lat": 50.287096,
    "lng": 3.239646,
    "transactions": [
      {
        "date": "2023-05-03",
        "priceEur": 181000,
        "typeLocal": "Maison",
        "surfaceM2": 120,
        "isVefa": false
      }
    ]
  },
  "bdc962dcd187": {
    "id": "bdc962dcd187",
    "label": "16 RUE MAGINOT, Marcq-en-Ostrevent",
    "lat": 50.284552,
    "lng": 3.239219,
    "transactions": [
      {
        "date": "2023-06-14",
        "priceEur": 65000,
        "typeLocal": "Maison",
        "surfaceM2": 66,
        "isVefa": false
      }
    ]
  },
  "97d4e484a45c": {
    "id": "97d4e484a45c",
    "label": "43 RUE MAGINOT, Marcq-en-Ostrevent",
    "lat": 50.284803,
    "lng": 3.240475,
    "transactions": [
      {
        "date": "2023-07-11",
        "priceEur": 75000,
        "typeLocal": "Maison",
        "surfaceM2": 84,
        "isVefa": false
      }
    ]
  },
  "c52021f27c6d": {
    "id": "c52021f27c6d",
    "label": "21 RUE MAGINOT, Marcq-en-Ostrevent",
    "lat": 50.284275,
    "lng": 3.239546,
    "transactions": [
      {
        "date": "2023-07-13",
        "priceEur": 74000,
        "typeLocal": "Maison",
        "surfaceM2": 76,
        "isVefa": false
      }
    ]
  },
  "24008972fc54": {
    "id": "24008972fc54",
    "label": "19 RUE MAGINOT, Marcq-en-Ostrevent",
    "lat": 50.283989,
    "lng": 3.239359,
    "transactions": [
      {
        "date": "2023-07-13",
        "priceEur": 105000,
        "typeLocal": "Maison",
        "surfaceM2": 72,
        "isVefa": false
      }
    ]
  },
  "eecc02ece60f": {
    "id": "eecc02ece60f",
    "label": "4 RUE PASTEUR, Marcq-en-Ostrevent",
    "lat": 50.285656,
    "lng": 3.23854,
    "transactions": [
      {
        "date": "2023-09-06",
        "priceEur": 40000,
        "typeLocal": "Maison",
        "surfaceM2": 105,
        "isVefa": false
      },
      {
        "date": "2023-09-06",
        "priceEur": 40000,
        "typeLocal": "Maison",
        "surfaceM2": 69,
        "isVefa": false
      }
    ]
  },
  "0df6cf42fbcd": {
    "id": "0df6cf42fbcd",
    "label": "9B RUE MAGINOT, Marcq-en-Ostrevent",
    "lat": 50.284064,
    "lng": 3.238845,
    "transactions": [
      {
        "date": "2024-02-14",
        "priceEur": 221405,
        "typeLocal": "Maison",
        "surfaceM2": 99,
        "isVefa": false
      }
    ]
  },
  "5842ae74dfe7": {
    "id": "5842ae74dfe7",
    "label": "5 RUE D ANICHE, Marcq-en-Ostrevent",
    "lat": 50.287697,
    "lng": 3.239259,
    "transactions": [
      {
        "date": "2024-06-25",
        "priceEur": 80000,
        "typeLocal": "Maison",
        "surfaceM2": 99,
        "isVefa": false
      }
    ]
  },
  "0cc534059d32": {
    "id": "0cc534059d32",
    "label": "4 RUE MAGINOT, Marcq-en-Ostrevent",
    "lat": 50.285209,
    "lng": 3.238293,
    "transactions": [
      {
        "date": "2024-07-02",
        "priceEur": 90000,
        "typeLocal": "Maison",
        "surfaceM2": 104,
        "isVefa": false
      }
    ]
  },
  "e1c38b5534bb": {
    "id": "e1c38b5534bb",
    "label": "4 RUE CURIE, Marcq-en-Ostrevent",
    "lat": 50.284991,
    "lng": 3.239134,
    "transactions": [
      {
        "date": "2024-10-21",
        "priceEur": 85000,
        "typeLocal": "Maison",
        "surfaceM2": 80,
        "isVefa": false
      }
    ]
  },
  "48a391998237": {
    "id": "48a391998237",
    "label": "1 RUE DU SQUARE, Marcq-en-Ostrevent",
    "lat": 50.286435,
    "lng": 3.23858,
    "transactions": [
      {
        "date": "2025-02-20",
        "priceEur": 250000,
        "typeLocal": "Maison",
        "surfaceM2": 57,
        "isVefa": false
      }
    ]
  },
  "32cd06ff611f": {
    "id": "32cd06ff611f",
    "label": "1 RUE HUBERT MONIEZ, Marcq-en-Ostrevent",
    "lat": 50.28622,
    "lng": 3.238762,
    "transactions": [
      {
        "date": "2025-02-20",
        "priceEur": 250000,
        "typeLocal": "Appartement",
        "surfaceM2": 58,
        "isVefa": false
      },
      {
        "date": "2025-02-20",
        "priceEur": 250000,
        "typeLocal": "Appartement",
        "surfaceM2": 50,
        "isVefa": false
      },
      {
        "date": "2025-02-20",
        "priceEur": 250000,
        "typeLocal": "Appartement",
        "surfaceM2": 43,
        "isVefa": false
      }
    ]
  }
}