{
  "610ccbeb2068": {
    "id": "610ccbeb2068",
    "label": "1 SQ DE LA CHOQUE, Cambrai",
    "lat": 50.175125,
    "lng": 3.236301,
    "transactions": [
      {
        "date": "2022-06-21",
        "priceEur": 185250,
        "typeLocal": "Appartement",
        "surfaceM2": 92,
        "isVefa": false
      },
      {
        "date": "2020-09-18",
        "priceEur": 120000,
        "typeLocal": "Appartement",
        "surfaceM2": 90,
        "isVefa": false
      },
      {
        "date": "2020-07-01",
        "priceEur": 120000,
        "typeLocal": "Appartement",
        "surfaceM2": 70,
        "isVefa": false
      },
      {
        "date": "2020-07-01",
        "priceEur": 120000,
        "typeLocal": "Appartement",
        "surfaceM2": 12,
        "isVefa": false
      }
    ]
  },
  "977bf25cc02c": {
    "id": "977bf25cc02c",
    "label": "5 RUE DES ROTISSEURS, Cambrai",
    "lat": 50.175095,
    "lng": 3.233438,
    "transactions": [
      {
        "date": "2020-07-09",
        "priceEur": 360000,
        "typeLocal": "Appartement",
        "surfaceM2": 42,
        "isVefa": false
      }
    ]
  },
  "517fc3d86ea3": {
    "id": "517fc3d86ea3",
    "label": "50 RUE DES ROTISSEURS, Cambrai",
    "lat": 50.174022,
    "lng": 3.235071,
    "transactions": [
      {
        "date": "2020-07-03",
        "priceEur": 185000,
        "typeLocal": "Appartement",
        "surfaceM2": 52,
        "isVefa": false
      },
      {
        "date": "2020-07-03",
        "priceEur": 185000,
        "typeLocal": "Appartement",
        "surfaceM2": 40,
        "isVefa": false
      }
    ]
  },
  "02e386d062d0": {
    "id": "02e386d062d0",
    "label": "40 RUE DES CHAUDRONNIERS, Cambrai",
    "lat": 50.17606,
    "lng": 3.237794,
    "transactions": [
      {
        "date": "2020-08-10",
        "priceEur": 105000,
        "typeLocal": "Appartement",
        "surfaceM2": 60,
        "isVefa": false
      }
    ]
  },
  "a5632fe0ed2c": {
    "id": "a5632fe0ed2c",
    "label": "3 RUE DE LA CITADELLE, Cambrai",
    "lat": 50.175114,
    "lng": 3.237181,
    "transactions": [
      {
        "date": "2022-05-09",
        "priceEur": 90000,
        "typeLocal": "Appartement",
        "surfaceM2": 55,
        "isVefa": false
      },
      {
        "date": "2020-08-26",
        "priceEur": 52200,
        "typeLocal": "Appartement",
        "surfaceM2": 35,
        "isVefa": false
      }
    ]
  },
  "e8569fc63868": {
    "id": "e8569fc63868",
    "label": "25 RUE ERNEST LEPOT, Cambrai",
    "lat": 50.173152,
    "lng": 3.233993,
    "transactions": [
      {
        "date": "2020-08-12",
        "priceEur": 450000,
        "typeLocal": "Appartement",
        "surfaceM2": 63,
        "isVefa": false
      },
      {
        "date": "2020-08-12",
        "priceEur": 450000,
        "typeLocal": "Appartement",
        "surfaceM2": 27,
        "isVefa": false
      },
      {
        "date": "2020-08-12",
        "priceEur": 450000,
        "typeLocal": "Appartement",
        "surfaceM2": 39,
        "isVefa": false
      },
      {
        "date": "2020-08-12",
        "priceEur": 450000,
        "typeLocal": "Appartement",
        "surfaceM2": 66,
        "isVefa": false
      },
      {
        "date": "2020-08-12",
        "priceEur": 450000,
        "typeLocal": "Appartement",
        "surfaceM2": 78,
        "isVefa": false
      },
      {
        "date": "2020-08-12",
        "priceEur": 450000,
        "typeLocal": "Appartement",
        "surfaceM2": 102,
        "isVefa": false
      }
    ]
  },
  "751cec65391c": {
    "id": "751cec65391c",
    "label": "2 PL DU COUPE OREILLES, Cambrai",
    "lat": 50.174863,
    "lng": 3.235495,
    "transactions": [
      {
        "date": "2024-06-29",
        "priceEur": 144050,
        "typeLocal": "Appartement",
        "surfaceM2": 64,
        "isVefa": false
      },
      {
        "date": "2024-06-07",
        "priceEur": 105100,
        "typeLocal": "Appartement",
        "surfaceM2": 64,
        "isVefa": false
      },
      {
        "date": "2023-02-16",
        "priceEur": 109000,
        "typeLocal": "Appartement",
        "surfaceM2": 62,
        "isVefa": false
      },
      {
        "date": "2020-09-01",
        "priceEur": 139000,
        "typeLocal": "Appartement",
        "surfaceM2": 64,
        "isVefa": false
      }
    ]
  },
  "d44bb0ccf6e2": {
    "id": "d44bb0ccf6e2",
    "label": "34 PL ARISTIDE BRIAND, Cambrai",
    "lat": 50.175727,
    "lng": 3.232696,
    "transactions": [
      {
        "date": "2020-08-31",
        "priceEur": 357200,
        "typeLocal": "Maison",
        "surfaceM2": 84,
        "isVefa": false
      }
    ]
  },
  "e0f1c4e99ca1": {
    "id": "e0f1c4e99ca1",
    "label": "3 SQ DE LA CHOQUE, Cambrai",
    "lat": 50.175125,
    "lng": 3.236301,
    "transactions": [
      {
        "date": "2020-09-09",
        "priceEur": 145000,
        "typeLocal": "Appartement",
        "surfaceM2": 62,
        "isVefa": false
      }
    ]
  },
  "7aab5381cdc6": {
    "id": "7aab5381cdc6",
    "label": "20 RUE DES LINIERS, Cambrai",
    "lat": 50.172532,
    "lng": 3.233804,
    "transactions": [
      {
        "date": "2020-08-27",
        "priceEur": 105000,
        "typeLocal": "Appartement",
        "surfaceM2": 59,
        "isVefa": false
      },
      {
        "date": "2020-08-27",
        "priceEur": 105000,
        "typeLocal": "Appartement",
        "surfaceM2": 42,
        "isVefa": false
      },
      {
        "date": "2020-08-27",
        "priceEur": 105000,
        "typeLocal": "Appartement",
        "surfaceM2": 126,
        "isVefa": false
      },
      {
        "date": "2020-08-27",
        "priceEur": 105000,
        "typeLocal": "Appartement",
        "surfaceM2": 60,
        "isVefa": false
      }
    ]
  },
  "e31e8af15ff3": {
    "id": "e31e8af15ff3",
    "label": "18 RUE DES LINIERS, Cambrai",
    "lat": 50.17263,
    "lng": 3.233753,
    "transactions": [
      {
        "date": "2020-08-27",
        "priceEur": 105000,
        "typeLocal": "Appartement",
        "surfaceM2": 80,
        "isVefa": false
      }
    ]
  },
  "9eccf608c226": {
    "id": "9eccf608c226",
    "label": "22 RUE DU PETIT SEMINAIRE, Cambrai",
    "lat": 50.172886,
    "lng": 3.234972,
    "transactions": [
      {
        "date": "2025-01-03",
        "priceEur": 62080,
        "typeLocal": "Appartement",
        "surfaceM2": 45,
        "isVefa": false
      },
      {
        "date": "2023-11-17",
        "priceEur": 72000,
        "typeLocal": "Appartement",
        "surfaceM2": 42,
        "isVefa": false
      },
      {
        "date": "2022-04-08",
        "priceEur": 128500,
        "typeLocal": "Appartement",
        "surfaceM2": 84,
        "isVefa": false
      },
      {
        "date": "2020-09-17",
        "priceEur": 79140,
        "typeLocal": "Appartement",
        "surfaceM2": 64,
        "isVefa": false
      },
      {
        "date": "2020-09-17",
        "priceEur": 113000,
        "typeLocal": "Appartement",
        "surfaceM2": 74,
        "isVefa": false
      }
    ]
  },
  "74ddbc776cfc": {
    "id": "74ddbc776cfc",
    "label": "9001 RES LA MARTINIERE, Cambrai",
    "lat": 50.170691,
    "lng": 3.236295,
    "transactions": [
      {
        "date": "2025-04-29",
        "priceEur": 225000,
        "typeLocal": "Appartement",
        "surfaceM2": 116,
        "isVefa": false
      },
      {
        "date": "2025-04-14",
        "priceEur": 280000,
        "typeLocal": "Appartement",
        "surfaceM2": 159,
        "isVefa": false
      },
      {
        "date": "2024-10-07",
        "priceEur": 216230,
        "typeLocal": "Appartement",
        "surfaceM2": 116,
        "isVefa": false
      },
      {
        "date": "2022-05-31",
        "priceEur": 94000,
        "typeLocal": "Appartement",
        "surfaceM2": 38,
        "isVefa": false
      },
      {
        "date": "2022-05-31",
        "priceEur": 94000,
        "typeLocal": "Appartement",
        "surfaceM2": 15,
        "isVefa": false
      },
      {
        "date": "2021-03-12",
        "priceEur": 150000,
        "typeLocal": "Appartement",
        "surfaceM2": 99,
        "isVefa": false
      },
      {
        "date": "2020-09-25",
        "priceEur": 163000,
        "typeLocal": "Appartement",
        "surfaceM2": 72,
        "isVefa": false
      },
      {
        "date": "2020-09-23",
        "priceEur": 181450,
        "typeLocal": "Appartement",
        "surfaceM2": 99,
        "isVefa": false
      }
    ]
  },
  "0197fdd8b1e6": {
    "id": "0197fdd8b1e6",
    "label": "13 RUE SAINT-JACQUES, Cambrai",
    "lat": 50.174733,
    "lng": 3.237495,
    "transactions": [
      {
        "date": "2024-06-29",
        "priceEur": 93400,
        "typeLocal": "Appartement",
        "surfaceM2": 59,
        "isVefa": false
      },
      {
        "date": "2024-03-29",
        "priceEur": 77000,
        "typeLocal": "Appartement",
        "surfaceM2": 62,
        "isVefa": false
      },
      {
        "date": "2022-12-01",
        "priceEur": 90000,
        "typeLocal": "Appartement",
        "surfaceM2": 59,
        "isVefa": false
      },
      {
        "date": "2020-09-14",
        "priceEur": 225000,
        "typeLocal": "Appartement",
        "surfaceM2": 60,
        "isVefa": false
      },
      {
        "date": "2020-09-14",
        "priceEur": 225000,
        "typeLocal": "Appartement",
        "surfaceM2": 62,
        "isVefa": false
      }
    ]
  },
  "41a62ff408d2": {
    "id": "41a62ff408d2",
    "label": "10 RUE LEON GAMBETTA, Cambrai",
    "lat": 50.173168,
    "lng": 3.236979,
    "transactions": [
      {
        "date": "2020-09-15",
        "priceEur": 35000,
        "typeLocal": "Appartement",
        "surfaceM2": 53,
        "isVefa": false
      }
    ]
  },
  "11295175cd72": {
    "id": "11295175cd72",
    "label": "14 RUE DU GENERAL DE GAULLE, Cambrai",
    "lat": 50.175241,
    "lng": 3.23714,
    "transactions": [
      {
        "date": "2020-10-06",
        "priceEur": 146000,
        "typeLocal": "Maison",
        "surfaceM2": 108,
        "isVefa": false
      }
    ]
  },
  "8776460115df": {
    "id": "8776460115df",
    "label": "9 BD FAIDHERBE, Cambrai",
    "lat": 50.176342,
    "lng": 3.238049,
    "transactions": [
      {
        "date": "2023-05-30",
        "priceEur": 316000,
        "typeLocal": "Appartement",
        "surfaceM2": 143,
        "isVefa": false
      },
      {
        "date": "2023-03-30",
        "priceEur": 191000,
        "typeLocal": "Appartement",
        "surfaceM2": 140,
        "isVefa": false
      },
      {
        "date": "2021-05-17",
        "priceEur": 501039,
        "typeLocal": "Appartement",
        "surfaceM2": 126,
        "isVefa": false
      },
      {
        "date": "2020-10-29",
        "priceEur": 290000,
        "typeLocal": "Appartement",
        "surfaceM2": 165,
        "isVefa": false
      },
      {
        "date": "2020-09-30",
        "priceEur": 501039,
        "typeLocal": "Appartement",
        "surfaceM2": 126,
        "isVefa": false
      }
    ]
  },
  "ae7210d4625e": {
    "id": "ae7210d4625e",
    "label": "18 PL DE LA PORTE DE PARIS, Cambrai",
    "lat": 50.170699,
    "lng": 3.230908,
    "transactions": [
      {
        "date": "2020-10-13",
        "priceEur": 95000,
        "typeLocal": "Maison",
        "surfaceM2": 112,
        "isVefa": false
      }
    ]
  },
  "1e5d8d53ea6e": {
    "id": "1e5d8d53ea6e",
    "label": "3 PL DU MARECHAL LECLERC, Cambrai",
    "lat": 50.175432,
    "lng": 3.239361,
    "transactions": [
      {
        "date": "2025-04-10",
        "priceEur": 57000,
        "typeLocal": "Appartement",
        "surfaceM2": 41,
        "isVefa": false
      },
      {
        "date": "2025-01-07",
        "priceEur": 55000,
        "typeLocal": "Appartement",
        "surfaceM2": 25,
        "isVefa": false
      },
      {
        "date": "2024-01-12",
        "priceEur": 60000,
        "typeLocal": "Appartement",
        "surfaceM2": 25,
        "isVefa": false
      },
      {
        "date": "2022-10-12",
        "priceEur": 51281.61,
        "typeLocal": "Appartement",
        "surfaceM2": 41,
        "isVefa": false
      },
      {
        "date": "2022-09-08",
        "priceEur": 76000,
        "typeLocal": "Appartement",
        "surfaceM2": 45,
        "isVefa": false
      },
      {
        "date": "2022-07-16",
        "priceEur": 71000,
        "typeLocal": "Appartement",
        "surfaceM2": 75,
        "isVefa": false
      },
      {
        "date": "2022-05-17",
        "priceEur": 42000,
        "typeLocal": "Appartement",
        "surfaceM2": 25,
        "isVefa": false
      },
      {
        "date": "2022-04-28",
        "priceEur": 42000,
        "typeLocal": "Appartement",
        "surfaceM2": 25,
        "isVefa": false
      },
      {
        "date": "2022-04-28",
        "priceEur": 40000,
        "typeLocal": "Appartement",
        "surfaceM2": 26,
        "isVefa": false
      },
      {
        "date": "2021-12-03",
        "priceEur": 46400,
        "typeLocal": "Appartement",
        "surfaceM2": 22,
        "isVefa": false
      },
      {
        "date": "2021-04-23",
        "priceEur": 100000,
        "typeLocal": "Appartement",
        "surfaceM2": 48,
        "isVefa": false
      },
      {
        "date": "2020-12-01",
        "priceEur": 57000,
        "typeLocal": "Appartement",
        "surfaceM2": 44,
        "isVefa": false
      },
      {
        "date": "2020-10-16",
        "priceEur": 40000,
        "typeLocal": "Appartement",
        "surfaceM2": 32,
        "isVefa": false
      }
    ]
  },
  "d8dde8803a27": {
    "id": "d8dde8803a27",
    "label": "6B RUE SADI CARNOT, Cambrai",
    "lat": 50.176799,
    "lng": 3.233126,
    "transactions": [
      {
        "date": "2020-10-14",
        "priceEur": 125000,
        "typeLocal": "Appartement",
        "surfaceM2": 78,
        "isVefa": false
      }
    ]
  },
  "c60672d9915c": {
    "id": "c60672d9915c",
    "label": "5 RUE LOUIS RENARD, Cambrai",
    "lat": 50.17243,
    "lng": 3.231602,
    "transactions": [
      {
        "date": "2024-05-27",
        "priceEur": 95000,
        "typeLocal": "Maison",
        "surfaceM2": 59,
        "isVefa": false
      },
      {
        "date": "2020-10-02",
        "priceEur": 57000,
        "typeLocal": "Maison",
        "surfaceM2": 59,
        "isVefa": false
      }
    ]
  },
  "0df72add3a8d": {
    "id": "0df72add3a8d",
    "label": "21 RUE ERNEST LEPOT, Cambrai",
    "lat": 50.173165,
    "lng": 3.234417,
    "transactions": [
      {
        "date": "2020-10-21",
        "priceEur": 120000,
        "typeLocal": "Appartement",
        "surfaceM2": 72,
        "isVefa": false
      }
    ]
  },
  "5a980086e7b0": {
    "id": "5a980086e7b0",
    "label": "2 AV DE LA VICTOIRE, Cambrai",
    "lat": 50.175187,
    "lng": 3.233967,
    "transactions": [
      {
        "date": "2024-05-30",
        "priceEur": 257000,
        "typeLocal": "Appartement",
        "surfaceM2": 115,
        "isVefa": false
      },
      {
        "date": "2020-10-01",
        "priceEur": 220000,
        "typeLocal": "Appartement",
        "surfaceM2": 115,
        "isVefa": false
      }
    ]
  },
  "852fa2b641ca": {
    "id": "852fa2b641ca",
    "label": "6 ALL DES SOUPIRS, Cambrai",
    "lat": 50.170261,
    "lng": 3.236316,
    "transactions": [
      {
        "date": "2020-10-16",
        "priceEur": 44500,
        "typeLocal": "Maison",
        "surfaceM2": 62,
        "isVefa": false
      }
    ]
  },
  "e66cc55207db": {
    "id": "e66cc55207db",
    "label": "4 RUE DES ROTISSEURS, Cambrai",
    "lat": 50.174797,
    "lng": 3.232986,
    "transactions": [
      {
        "date": "2024-06-26",
        "priceEur": 69000,
        "typeLocal": "Appartement",
        "surfaceM2": 46,
        "isVefa": false
      },
      {
        "date": "2020-10-30",
        "priceEur": 55000,
        "typeLocal": "Appartement",
        "surfaceM2": 34,
        "isVefa": false
      }
    ]
  },
  "56290fa4f043": {
    "id": "56290fa4f043",
    "label": "5 RUE DU GENERAL FRERE, Cambrai",
    "lat": 50.17384,
    "lng": 3.237704,
    "transactions": [
      {
        "date": "2020-10-29",
        "priceEur": 141000,
        "typeLocal": "Maison",
        "surfaceM2": 110,
        "isVefa": false
      }
    ]
  },
  "2c5fe1ce09ef": {
    "id": "2c5fe1ce09ef",
    "label": "1 PL DU NEUF OCTOBRE, Cambrai",
    "lat": 50.176152,
    "lng": 3.232637,
    "transactions": [
      {
        "date": "2021-05-25",
        "priceEur": 295000,
        "typeLocal": "Appartement",
        "surfaceM2": 120,
        "isVefa": false
      },
      {
        "date": "2021-05-25",
        "priceEur": 295000,
        "typeLocal": "Appartement",
        "surfaceM2": 169,
        "isVefa": false
      },
      {
        "date": "2020-09-11",
        "priceEur": 290000,
        "typeLocal": "Appartement",
        "surfaceM2": 121,
        "isVefa": false
      }
    ]
  },
  "d2e284724f93": {
    "id": "d2e284724f93",
    "label": "9 RUE LOUIS RENARD, Cambrai",
    "lat": 50.172369,
    "lng": 3.231481,
    "transactions": [
      {
        "date": "2020-11-26",
        "priceEur": 61000,
        "typeLocal": "Maison",
        "surfaceM2": 49,
        "isVefa": false
      }
    ]
  },
  "a627da1f408f": {
    "id": "a627da1f408f",
    "label": "18 PL ARISTIDE BRIAND, Cambrai",
    "lat": 50.176435,
    "lng": 3.233512,
    "transactions": [
      {
        "date": "2023-04-17",
        "priceEur": 350000,
        "typeLocal": "Appartement",
        "surfaceM2": 78,
        "isVefa": false
      },
      {
        "date": "2022-03-14",
        "priceEur": 117000,
        "typeLocal": "Appartement",
        "surfaceM2": 27,
        "isVefa": false
      },
      {
        "date": "2022-03-14",
        "priceEur": 117000,
        "typeLocal": "Appartement",
        "surfaceM2": 15,
        "isVefa": false
      },
      {
        "date": "2022-03-14",
        "priceEur": 117000,
        "typeLocal": "Appartement",
        "surfaceM2": 56,
        "isVefa": false
      },
      {
        "date": "2022-03-14",
        "priceEur": 117000,
        "typeLocal": "Appartement",
        "surfaceM2": 64,
        "isVefa": false
      },
      {
        "date": "2022-03-14",
        "priceEur": 117000,
        "typeLocal": "Appartement",
        "surfaceM2": 11,
        "isVefa": false
      },
      {
        "date": "2021-03-17",
        "priceEur": 55000,
        "typeLocal": "Appartement",
        "surfaceM2": 56,
        "isVefa": false
      },
      {
        "date": "2021-03-17",
        "priceEur": 55000,
        "typeLocal": "Appartement",
        "surfaceM2": 15,
        "isVefa": false
      },
      {
        "date": "2021-03-17",
        "priceEur": 55000,
        "typeLocal": "Appartement",
        "surfaceM2": 11,
        "isVefa": false
      },
      {
        "date": "2020-11-26",
        "priceEur": 129000,
        "typeLocal": "Appartement",
        "surfaceM2": 64,
        "isVefa": false
      }
    ]
  },
  "be9f4afad563": {
    "id": "be9f4afad563",
    "label": "16 RUE SAINT-GEORGES, Cambrai",
    "lat": 50.171644,
    "lng": 3.234365,
    "transactions": [
      {
        "date": "2022-12-30",
        "priceEur": 75000,
        "typeLocal": "Appartement",
        "surfaceM2": 80,
        "isVefa": false
      },
      {
        "date": "2020-12-15",
        "priceEur": 55000,
        "typeLocal": "Appartement",
        "surfaceM2": 47,
        "isVefa": false
      }
    ]
  },
  "5d108a73c736": {
    "id": "5d108a73c736",
    "label": "8 RUE DE L ECU DE FRANCE, Cambrai",
    "lat": 50.175594,
    "lng": 3.238692,
    "transactions": [
      {
        "date": "2020-12-09",
        "priceEur": 207000,
        "typeLocal": "Appartement",
        "surfaceM2": 71,
        "isVefa": false
      }
    ]
  },
  "5664db8edfa4": {
    "id": "5664db8edfa4",
    "label": "13 RUE HENRI DE LUBAC, Cambrai",
    "lat": 50.1736,
    "lng": 3.232652,
    "transactions": [
      {
        "date": "2020-12-10",
        "priceEur": 90000,
        "typeLocal": "Appartement",
        "surfaceM2": 20,
        "isVefa": false
      },
      {
        "date": "2020-12-10",
        "priceEur": 90000,
        "typeLocal": "Appartement",
        "surfaceM2": 23,
        "isVefa": false
      }
    ]
  },
  "c71e74908dc3": {
    "id": "c71e74908dc3",
    "label": "9 RUE LEON GAMBETTA, Cambrai",
    "lat": 50.173354,
    "lng": 3.237777,
    "transactions": [
      {
        "date": "2020-12-18",
        "priceEur": 135000,
        "typeLocal": "Maison",
        "surfaceM2": 106,
        "isVefa": false
      }
    ]
  },
  "3ba1b74f91f2": {
    "id": "3ba1b74f91f2",
    "label": "6 RUE VICTOR RAMETTE, Cambrai",
    "lat": 50.176802,
    "lng": 3.230588,
    "transactions": [
      {
        "date": "2020-12-21",
        "priceEur": 161500,
        "typeLocal": "Maison",
        "surfaceM2": 145,
        "isVefa": false
      }
    ]
  },
  "be0cb66366e0": {
    "id": "be0cb66366e0",
    "label": "6 RUE NEUVE, Cambrai",
    "lat": 50.174974,
    "lng": 3.235166,
    "transactions": [
      {
        "date": "2020-12-30",
        "priceEur": 135000,
        "typeLocal": "Appartement",
        "surfaceM2": 19,
        "isVefa": false
      }
    ]
  },
  "0a0cf2fa692f": {
    "id": "0a0cf2fa692f",
    "label": "20 RUE DU GENERAL DE GAULLE, Cambrai",
    "lat": 50.175181,
    "lng": 3.237693,
    "transactions": [
      {
        "date": "2021-01-14",
        "priceEur": 130000,
        "typeLocal": "Maison",
        "surfaceM2": 118,
        "isVefa": false
      }
    ]
  },
  "a522ee789bda": {
    "id": "a522ee789bda",
    "label": "18 RUE DU HUIT MAI, Cambrai",
    "lat": 50.175138,
    "lng": 3.231188,
    "transactions": [
      {
        "date": "2021-02-01",
        "priceEur": 152000,
        "typeLocal": "Maison",
        "surfaceM2": 106,
        "isVefa": false
      }
    ]
  },
  "197fb6b9a2b9": {
    "id": "197fb6b9a2b9",
    "label": "5 RUE DU GENERAL DE GAULLE, Cambrai",
    "lat": 50.175753,
    "lng": 3.236338,
    "transactions": [
      {
        "date": "2021-02-09",
        "priceEur": 364000,
        "typeLocal": "Appartement",
        "surfaceM2": 18,
        "isVefa": false
      },
      {
        "date": "2021-02-09",
        "priceEur": 364000,
        "typeLocal": "Appartement",
        "surfaceM2": 40,
        "isVefa": false
      }
    ]
  },
  "a10e40eefb5e": {
    "id": "a10e40eefb5e",
    "label": "6 RUE DES ANGES, Cambrai",
    "lat": 50.172362,
    "lng": 3.23513,
    "transactions": [
      {
        "date": "2021-01-29",
        "priceEur": 66500,
        "typeLocal": "Maison",
        "surfaceM2": 75,
        "isVefa": false
      }
    ]
  },
  "a0d556d931f7": {
    "id": "a0d556d931f7",
    "label": "3 RUE D ALSACE LORRAINE, Cambrai",
    "lat": 50.175678,
    "lng": 3.236914,
    "transactions": [
      {
        "date": "2021-02-11",
        "priceEur": 150000,
        "typeLocal": "Appartement",
        "surfaceM2": 121,
        "isVefa": false
      }
    ]
  },
  "4578a1c70c95": {
    "id": "4578a1c70c95",
    "label": "14A RUE DE LA MADELEINE, Cambrai",
    "lat": 50.173553,
    "lng": 3.235668,
    "transactions": [
      {
        "date": "2021-01-26",
        "priceEur": 140000,
        "typeLocal": "Appartement",
        "surfaceM2": 40,
        "isVefa": false
      }
    ]
  },
  "f6293bef0299": {
    "id": "f6293bef0299",
    "label": "15 RUE DU PETIT SEMINAIRE, Cambrai",
    "lat": 50.173133,
    "lng": 3.236432,
    "transactions": [
      {
        "date": "2023-03-22",
        "priceEur": 118425,
        "typeLocal": "Maison",
        "surfaceM2": 130,
        "isVefa": false
      },
      {
        "date": "2021-02-10",
        "priceEur": 236850,
        "typeLocal": "Maison",
        "surfaceM2": 130,
        "isVefa": false
      }
    ]
  },
  "4324ddac4136": {
    "id": "4324ddac4136",
    "label": "1B RUE DES JUIFS, Cambrai",
    "lat": 50.174019,
    "lng": 3.234659,
    "transactions": [
      {
        "date": "2021-02-01",
        "priceEur": 90000,
        "typeLocal": "Appartement",
        "surfaceM2": 25,
        "isVefa": false
      },
      {
        "date": "2021-02-01",
        "priceEur": 90000,
        "typeLocal": "Appartement",
        "surfaceM2": 40,
        "isVefa": false
      }
    ]
  },
  "2cd4ea05c551": {
    "id": "2cd4ea05c551",
    "label": "19 RUE MAL DE L DE TASSIGNY, Cambrai",
    "lat": 50.174774,
    "lng": 3.236755,
    "transactions": [
      {
        "date": "2025-01-31",
        "priceEur": 119900,
        "typeLocal": "Appartement",
        "surfaceM2": 65,
        "isVefa": false
      },
      {
        "date": "2021-02-25",
        "priceEur": 94000,
        "typeLocal": "Appartement",
        "surfaceM2": 84,
        "isVefa": false
      }
    ]
  },
  "af1d79ef0b76": {
    "id": "af1d79ef0b76",
    "label": "17 RUE TAVELLE, Cambrai",
    "lat": 50.175503,
    "lng": 3.231571,
    "transactions": [
      {
        "date": "2022-10-26",
        "priceEur": 87000,
        "typeLocal": "Appartement",
        "surfaceM2": 60,
        "isVefa": false
      },
      {
        "date": "2021-02-26",
        "priceEur": 55000,
        "typeLocal": "Appartement",
        "surfaceM2": 48,
        "isVefa": false
      }
    ]
  },
  "f7c0d09b0cab": {
    "id": "f7c0d09b0cab",
    "label": "10 RUE DU BEFFROI, Cambrai",
    "lat": 50.174304,
    "lng": 3.23139,
    "transactions": [
      {
        "date": "2021-03-08",
        "priceEur": 290000,
        "typeLocal": "Appartement",
        "surfaceM2": 44,
        "isVefa": false
      },
      {
        "date": "2021-03-08",
        "priceEur": 290000,
        "typeLocal": "Appartement",
        "surfaceM2": 43,
        "isVefa": false
      },
      {
        "date": "2021-03-08",
        "priceEur": 290000,
        "typeLocal": "Appartement",
        "surfaceM2": 87,
        "isVefa": false
      }
    ]
  },
  "70c269a300f1": {
    "id": "70c269a300f1",
    "label": "18 RUE DE LA MADELEINE, Cambrai",
    "lat": 50.17347,
    "lng": 3.235795,
    "transactions": [
      {
        "date": "2021-03-04",
        "priceEur": 78950,
        "typeLocal": "Maison",
        "surfaceM2": 100,
        "isVefa": false
      }
    ]
  },
  "172ef217d1f1": {
    "id": "172ef217d1f1",
    "label": "6 SQ DE LA CHOQUE, Cambrai",
    "lat": 50.175125,
    "lng": 3.236301,
    "transactions": [
      {
        "date": "2025-02-11",
        "priceEur": 150100,
        "typeLocal": "Appartement",
        "surfaceM2": 88,
        "isVefa": false
      },
      {
        "date": "2023-12-11",
        "priceEur": 17000,
        "typeLocal": "Appartement",
        "surfaceM2": 12,
        "isVefa": false
      },
      {
        "date": "2023-04-03",
        "priceEur": 172240,
        "typeLocal": "Appartement",
        "surfaceM2": 82,
        "isVefa": false
      },
      {
        "date": "2021-06-29",
        "priceEur": 21400,
        "typeLocal": "Appartement",
        "surfaceM2": 12,
        "isVefa": false
      },
      {
        "date": "2021-03-15",
        "priceEur": 108000,
        "typeLocal": "Appartement",
        "surfaceM2": 82,
        "isVefa": false
      }
    ]
  },
  "ae99e2f7a7da": {
    "id": "ae99e2f7a7da",
    "label": "20 AV DE LA VICTOIRE, Cambrai",
    "lat": 50.174471,
    "lng": 3.233564,
    "transactions": [
      {
        "date": "2021-03-24",
        "priceEur": 168750,
        "typeLocal": "Maison",
        "surfaceM2": 79,
        "isVefa": false
      }
    ]
  },
  "6c3e791585d1": {
    "id": "6c3e791585d1",
    "label": "6 RUE GUILLAUME DU FAY, Cambrai",
    "lat": 50.172485,
    "lng": 3.232937,
    "transactions": [
      {
        "date": "2021-04-19",
        "priceEur": 83000,
        "typeLocal": "Maison",
        "surfaceM2": 66,
        "isVefa": false
      }
    ]
  },
  "6cd632eb556d": {
    "id": "6cd632eb556d",
    "label": "8 RUE EUGENE BOULY, Cambrai",
    "lat": 50.17173,
    "lng": 3.231095,
    "transactions": [
      {
        "date": "2024-03-13",
        "priceEur": 75000,
        "typeLocal": "Maison",
        "surfaceM2": 48,
        "isVefa": false
      },
      {
        "date": "2021-03-26",
        "priceEur": 25000,
        "typeLocal": "Maison",
        "surfaceM2": 48,
        "isVefa": false
      }
    ]
  },
  "caab3e3e18d7": {
    "id": "caab3e3e18d7",
    "label": "19 RUE DU HUIT MAI, Cambrai",
    "lat": 50.174797,
    "lng": 3.230573,
    "transactions": [
      {
        "date": "2021-04-07",
        "priceEur": 470000,
        "typeLocal": "Appartement",
        "surfaceM2": 202,
        "isVefa": false
      },
      {
        "date": "2021-04-07",
        "priceEur": 470000,
        "typeLocal": "Appartement",
        "surfaceM2": 231,
        "isVefa": false
      }
    ]
  },
  "1738c2654572": {
    "id": "1738c2654572",
    "label": "12 RUE PASTEUR, Cambrai",
    "lat": 50.176478,
    "lng": 3.232903,
    "transactions": [
      {
        "date": "2025-04-28",
        "priceEur": 240000,
        "typeLocal": "Appartement",
        "surfaceM2": 56,
        "isVefa": false
      },
      {
        "date": "2021-03-29",
        "priceEur": 60000,
        "typeLocal": "Appartement",
        "surfaceM2": 39,
        "isVefa": false
      }
    ]
  },
  "f3718d5fcacc": {
    "id": "f3718d5fcacc",
    "label": "26 RUE D ALSACE LORRAINE, Cambrai",
    "lat": 50.175854,
    "lng": 3.238946,
    "transactions": [
      {
        "date": "2021-04-20",
        "priceEur": 152000,
        "typeLocal": "Appartement",
        "surfaceM2": 41,
        "isVefa": false
      },
      {
        "date": "2021-04-20",
        "priceEur": 152000,
        "typeLocal": "Appartement",
        "surfaceM2": 31,
        "isVefa": false
      }
    ]
  },
  "aa129bf0deab": {
    "id": "aa129bf0deab",
    "label": "12 RUE DES CHAUDRONNIERS, Cambrai",
    "lat": 50.176101,
    "lng": 3.236092,
    "transactions": [
      {
        "date": "2024-03-20",
        "priceEur": 81500,
        "typeLocal": "Appartement",
        "surfaceM2": 78,
        "isVefa": false
      },
      {
        "date": "2023-07-07",
        "priceEur": 43000,
        "typeLocal": "Appartement",
        "surfaceM2": 78,
        "isVefa": false
      },
      {
        "date": "2023-07-07",
        "priceEur": 43000,
        "typeLocal": "Appartement",
        "surfaceM2": 11,
        "isVefa": false
      },
      {
        "date": "2023-04-03",
        "priceEur": 60000,
        "typeLocal": "Appartement",
        "surfaceM2": 1,
        "isVefa": false
      },
      {
        "date": "2023-04-03",
        "priceEur": 180000,
        "typeLocal": "Appartement",
        "surfaceM2": 34,
        "isVefa": false
      },
      {
        "date": "2023-04-03",
        "priceEur": 180000,
        "typeLocal": "Appartement",
        "surfaceM2": 77,
        "isVefa": false
      },
      {
        "date": "2022-08-26",
        "priceEur": 51000,
        "typeLocal": "Appartement",
        "surfaceM2": 32,
        "isVefa": false
      },
      {
        "date": "2022-05-11",
        "priceEur": 85000,
        "typeLocal": "Appartement",
        "surfaceM2": 11,
        "isVefa": false
      },
      {
        "date": "2022-05-11",
        "priceEur": 85000,
        "typeLocal": "Appartement",
        "surfaceM2": 78,
        "isVefa": false
      },
      {
        "date": "2021-04-16",
        "priceEur": 100700,
        "typeLocal": "Appartement",
        "surfaceM2": 80,
        "isVefa": false
      }
    ]
  },
  "296e8a7b3d58": {
    "id": "296e8a7b3d58",
    "label": "15 PL DU NEUF OCTOBRE, Cambrai",
    "lat": 50.176169,
    "lng": 3.231921,
    "transactions": [
      {
        "date": "2021-05-04",
        "priceEur": 280000,
        "typeLocal": "Appartement",
        "surfaceM2": 143,
        "isVefa": false
      }
    ]
  },
  "6cb7bb0ff39a": {
    "id": "6cb7bb0ff39a",
    "label": "28 PLACE ROBERT LEROY, Cambrai",
    "lat": 50.173557,
    "lng": 3.236418,
    "transactions": [
      {
        "date": "2021-05-06",
        "priceEur": 170000,
        "typeLocal": "Appartement",
        "surfaceM2": 53,
        "isVefa": false
      },
      {
        "date": "2021-05-06",
        "priceEur": 170000,
        "typeLocal": "Appartement",
        "surfaceM2": 100,
        "isVefa": false
      }
    ]
  },
  "4bab6931a335": {
    "id": "4bab6931a335",
    "label": "11 MAIL SAINT MARTIN, Cambrai",
    "lat": 50.175139,
    "lng": 3.233155,
    "transactions": [
      {
        "date": "2021-06-10",
        "priceEur": 245000,
        "typeLocal": "Appartement",
        "surfaceM2": 88,
        "isVefa": false
      },
      {
        "date": "2021-06-10",
        "priceEur": 245000,
        "typeLocal": "Appartement",
        "surfaceM2": 56,
        "isVefa": false
      }
    ]
  },
  "6a706281ab38": {
    "id": "6a706281ab38",
    "label": "16 RUE DES BOUCHERS, Cambrai",
    "lat": 50.176511,
    "lng": 3.237434,
    "transactions": [
      {
        "date": "2021-06-22",
        "priceEur": 197000,
        "typeLocal": "Appartement",
        "surfaceM2": 103,
        "isVefa": false
      }
    ]
  },
  "cf49af1cab35": {
    "id": "cf49af1cab35",
    "label": "5 RUE DES BELLOTTES, Cambrai",
    "lat": 50.174394,
    "lng": 3.236135,
    "transactions": [
      {
        "date": "2024-09-30",
        "priceEur": 115000,
        "typeLocal": "Appartement",
        "surfaceM2": 63,
        "isVefa": false
      },
      {
        "date": "2021-06-02",
        "priceEur": 195000,
        "typeLocal": "Appartement",
        "surfaceM2": 92,
        "isVefa": false
      }
    ]
  },
  "c7f49acf8b3a": {
    "id": "c7f49acf8b3a",
    "label": "4 RUE DES ECOLES, Cambrai",
    "lat": 50.172936,
    "lng": 3.230375,
    "transactions": [
      {
        "date": "2021-06-18",
        "priceEur": 32500,
        "typeLocal": "Maison",
        "surfaceM2": 37,
        "isVefa": false
      }
    ]
  },
  "0fac93e9445c": {
    "id": "0fac93e9445c",
    "label": "17 RUE DES JUIFS, Cambrai",
    "lat": 50.173687,
    "lng": 3.234249,
    "transactions": [
      {
        "date": "2021-06-14",
        "priceEur": 115000,
        "typeLocal": "Maison",
        "surfaceM2": 65,
        "isVefa": false
      }
    ]
  },
  "123b32ac3b5a": {
    "id": "123b32ac3b5a",
    "label": "4 RUE DES CHAUDRONNIERS, Cambrai",
    "lat": 50.176262,
    "lng": 3.235781,
    "transactions": [
      {
        "date": "2023-03-15",
        "priceEur": 155000,
        "typeLocal": "Appartement",
        "surfaceM2": 45,
        "isVefa": false
      },
      {
        "date": "2023-03-15",
        "priceEur": 155000,
        "typeLocal": "Appartement",
        "surfaceM2": 39,
        "isVefa": false
      },
      {
        "date": "2021-07-05",
        "priceEur": 88000,
        "typeLocal": "Appartement",
        "surfaceM2": 39,
        "isVefa": false
      },
      {
        "date": "2021-07-05",
        "priceEur": 88000,
        "typeLocal": "Appartement",
        "surfaceM2": 45,
        "isVefa": false
      }
    ]
  },
  "13da00a86feb": {
    "id": "13da00a86feb",
    "label": "5 RUE DE L EPEE, Cambrai",
    "lat": 50.17304,
    "lng": 3.230327,
    "transactions": [
      {
        "date": "2021-07-02",
        "priceEur": 450000,
        "typeLocal": "Maison",
        "surfaceM2": 220,
        "isVefa": false
      }
    ]
  },
  "7d1289416d9f": {
    "id": "7d1289416d9f",
    "label": "13 RUE DES BELLOTTES, Cambrai",
    "lat": 50.174233,
    "lng": 3.235736,
    "transactions": [
      {
        "date": "2021-07-19",
        "priceEur": 400000,
        "typeLocal": "Appartement",
        "surfaceM2": 100,
        "isVefa": false
      }
    ]
  },
  "3575ff127e09": {
    "id": "3575ff127e09",
    "label": "12 VC RAG CRX A POTERIES, Cambrai",
    "lat": 50.172365,
    "lng": 3.236905,
    "transactions": [
      {
        "date": "2025-01-31",
        "priceEur": 60000,
        "typeLocal": "Appartement",
        "surfaceM2": 75,
        "isVefa": false
      },
      {
        "date": "2024-04-19",
        "priceEur": 156000,
        "typeLocal": "Appartement",
        "surfaceM2": 75,
        "isVefa": false
      },
      {
        "date": "2024-03-28",
        "priceEur": 109890,
        "typeLocal": "Appartement",
        "surfaceM2": 89,
        "isVefa": false
      },
      {
        "date": "2023-06-28",
        "priceEur": 65000,
        "typeLocal": "Appartement",
        "surfaceM2": 89,
        "isVefa": false
      },
      {
        "date": "2022-10-19",
        "priceEur": 76000,
        "typeLocal": "Appartement",
        "surfaceM2": 70,
        "isVefa": false
      },
      {
        "date": "2022-04-20",
        "priceEur": 158000,
        "typeLocal": "Appartement",
        "surfaceM2": 89,
        "isVefa": false
      },
      {
        "date": "2021-07-06",
        "priceEur": 55000,
        "typeLocal": "Appartement",
        "surfaceM2": 89,
        "isVefa": false
      }
    ]
  },
  "bc1b4cfcc9bd": {
    "id": "bc1b4cfcc9bd",
    "label": "5 SQ DE LA CHOQUE, Cambrai",
    "lat": 50.175125,
    "lng": 3.236301,
    "transactions": [
      {
        "date": "2025-05-28",
        "priceEur": 25600,
        "typeLocal": "Appartement",
        "surfaceM2": 12,
        "isVefa": false
      },
      {
        "date": "2024-06-13",
        "priceEur": 24500,
        "typeLocal": "Appartement",
        "surfaceM2": 12,
        "isVefa": false
      },
      {
        "date": "2022-11-02",
        "priceEur": 21000,
        "typeLocal": "Appartement",
        "surfaceM2": 12,
        "isVefa": false
      },
      {
        "date": "2021-08-17",
        "priceEur": 16000,
        "typeLocal": "Appartement",
        "surfaceM2": 12,
        "isVefa": false
      }
    ]
  },
  "951754dc6a0c": {
    "id": "951754dc6a0c",
    "label": "23 RUE D ALSACE LORRAINE, Cambrai",
    "lat": 50.175959,
    "lng": 3.237757,
    "transactions": [
      {
        "date": "2021-08-02",
        "priceEur": 50500,
        "typeLocal": "Appartement",
        "surfaceM2": 61,
        "isVefa": false
      }
    ]
  },
  "998dcc0930a2": {
    "id": "998dcc0930a2",
    "label": "6B RUE TAVELLE, Cambrai",
    "lat": 50.175549,
    "lng": 3.232355,
    "transactions": [
      {
        "date": "2021-08-30",
        "priceEur": 250000,
        "typeLocal": "Appartement",
        "surfaceM2": 144,
        "isVefa": false
      }
    ]
  },
  "5984921e5f51": {
    "id": "5984921e5f51",
    "label": "36 RUE SAINT-GEORGES, Cambrai",
    "lat": 50.170795,
    "lng": 3.23479,
    "transactions": [
      {
        "date": "2024-04-15",
        "priceEur": 69000,
        "typeLocal": "Appartement",
        "surfaceM2": 36,
        "isVefa": false
      },
      {
        "date": "2024-02-16",
        "priceEur": 61000,
        "typeLocal": "Appartement",
        "surfaceM2": 35,
        "isVefa": false
      },
      {
        "date": "2023-01-09",
        "priceEur": 117000,
        "typeLocal": "Appartement",
        "surfaceM2": 67,
        "isVefa": false
      },
      {
        "date": "2021-12-22",
        "priceEur": 112000,
        "typeLocal": "Appartement",
        "surfaceM2": 62,
        "isVefa": false
      },
      {
        "date": "2021-10-04",
        "priceEur": 107500,
        "typeLocal": "Appartement",
        "surfaceM2": 46,
        "isVefa": false
      },
      {
        "date": "2021-09-01",
        "priceEur": 98500,
        "typeLocal": "Appartement",
        "surfaceM2": 59,
        "isVefa": false
      }
    ]
  },
  "36e8f1a8e2da": {
    "id": "36e8f1a8e2da",
    "label": "21 RUE LOUIS RENARD, Cambrai",
    "lat": 50.171933,
    "lng": 3.23116,
    "transactions": [
      {
        "date": "2021-09-14",
        "priceEur": 112479,
        "typeLocal": "Appartement",
        "surfaceM2": 31,
        "isVefa": false
      },
      {
        "date": "2021-09-14",
        "priceEur": 112479,
        "typeLocal": "Appartement",
        "surfaceM2": 25,
        "isVefa": false
      },
      {
        "date": "2021-09-14",
        "priceEur": 112479,
        "typeLocal": "Appartement",
        "surfaceM2": 24,
        "isVefa": false
      }
    ]
  },
  "c59abbbe004a": {
    "id": "c59abbbe004a",
    "label": "6 PL MAURICE SCHUMANN, Cambrai",
    "lat": 50.176246,
    "lng": 3.240394,
    "transactions": [
      {
        "date": "2021-09-09",
        "priceEur": 900000,
        "typeLocal": "Appartement",
        "surfaceM2": 18,
        "isVefa": false
      },
      {
        "date": "2021-09-09",
        "priceEur": 900000,
        "typeLocal": "Appartement",
        "surfaceM2": 74,
        "isVefa": false
      },
      {
        "date": "2021-09-09",
        "priceEur": 900000,
        "typeLocal": "Appartement",
        "surfaceM2": 47,
        "isVefa": false
      },
      {
        "date": "2021-09-09",
        "priceEur": 900000,
        "typeLocal": "Appartement",
        "surfaceM2": 57,
        "isVefa": false
      },
      {
        "date": "2021-09-09",
        "priceEur": 900000,
        "typeLocal": "Appartement",
        "surfaceM2": 46,
        "isVefa": false
      },
      {
        "date": "2021-09-09",
        "priceEur": 900000,
        "typeLocal": "Appartement",
        "surfaceM2": 66,
        "isVefa": false
      },
      {
        "date": "2021-09-09",
        "priceEur": 900000,
        "typeLocal": "Appartement",
        "surfaceM2": 50,
        "isVefa": false
      },
      {
        "date": "2021-09-09",
        "priceEur": 900000,
        "typeLocal": "Appartement",
        "surfaceM2": 24,
        "isVefa": false
      },
      {
        "date": "2021-09-09",
        "priceEur": 900000,
        "typeLocal": "Appartement",
        "surfaceM2": 26,
        "isVefa": false
      },
      {
        "date": "2021-09-09",
        "priceEur": 900000,
        "typeLocal": "Appartement",
        "surfaceM2": 33,
        "isVefa": false
      },
      {
        "date": "2021-09-09",
        "priceEur": 900000,
        "typeLocal": "Appartement",
        "surfaceM2": 63,
        "isVefa": false
      }
    ]
  },
  "68edaa4216fe": {
    "id": "68edaa4216fe",
    "label": "46 AV DE LA VICTOIRE, Cambrai",
    "lat": 50.173154,
    "lng": 3.232714,
    "transactions": [
      {
        "date": "2021-09-15",
        "priceEur": 210000,
        "typeLocal": "Maison",
        "surfaceM2": 108,
        "isVefa": false
      }
    ]
  },
  "997890db0483": {
    "id": "997890db0483",
    "label": "2 SQ DE LA CHOQUE, Cambrai",
    "lat": 50.175125,
    "lng": 3.236301,
    "transactions": [
      {
        "date": "2021-09-15",
        "priceEur": 23000,
        "typeLocal": "Appartement",
        "surfaceM2": 12,
        "isVefa": false
      }
    ]
  },
  "187e11b1012f": {
    "id": "187e11b1012f",
    "label": "18 RUE TAVELLE, Cambrai",
    "lat": 50.175754,
    "lng": 3.231711,
    "transactions": [
      {
        "date": "2021-09-23",
        "priceEur": 160000,
        "typeLocal": "Appartement",
        "surfaceM2": 80,
        "isVefa": false
      },
      {
        "date": "2021-09-23",
        "priceEur": 160000,
        "typeLocal": "Appartement",
        "surfaceM2": 19,
        "isVefa": false
      }
    ]
  },
  "a40664c0db06": {
    "id": "a40664c0db06",
    "label": "15 RUE EUGENE BOULY, Cambrai",
    "lat": 50.171799,
    "lng": 3.231447,
    "transactions": [
      {
        "date": "2021-10-07",
        "priceEur": 68400,
        "typeLocal": "Maison",
        "surfaceM2": 40,
        "isVefa": false
      }
    ]
  },
  "94f648e3b7e6": {
    "id": "94f648e3b7e6",
    "label": "2 RUE SAINT-JACQUES, Cambrai",
    "lat": 50.175215,
    "lng": 3.237322,
    "transactions": [
      {
        "date": "2024-07-08",
        "priceEur": 259000,
        "typeLocal": "Appartement",
        "surfaceM2": 111,
        "isVefa": false
      },
      {
        "date": "2024-07-08",
        "priceEur": 259000,
        "typeLocal": "Appartement",
        "surfaceM2": 79,
        "isVefa": false
      },
      {
        "date": "2021-10-11",
        "priceEur": 218500,
        "typeLocal": "Appartement",
        "surfaceM2": 111,
        "isVefa": false
      },
      {
        "date": "2021-10-11",
        "priceEur": 218500,
        "typeLocal": "Appartement",
        "surfaceM2": 79,
        "isVefa": false
      }
    ]
  },
  "60fd5d46c865": {
    "id": "60fd5d46c865",
    "label": "12B BD FAIDHERBE, Cambrai",
    "lat": 50.175555,
    "lng": 3.240465,
    "transactions": [
      {
        "date": "2021-09-24",
        "priceEur": 240000,
        "typeLocal": "Appartement",
        "surfaceM2": 32,
        "isVefa": false
      },
      {
        "date": "2021-09-24",
        "priceEur": 240000,
        "typeLocal": "Appartement",
        "surfaceM2": 18,
        "isVefa": false
      },
      {
        "date": "2021-09-24",
        "priceEur": 240000,
        "typeLocal": "Appartement",
        "surfaceM2": 30,
        "isVefa": false
      }
    ]
  },
  "1f5f69a8f1aa": {
    "id": "1f5f69a8f1aa",
    "label": "27 AV DE LA VICTOIRE, Cambrai",
    "lat": 50.173802,
    "lng": 3.233758,
    "transactions": [
      {
        "date": "2025-03-12",
        "priceEur": 322000,
        "typeLocal": "Appartement",
        "surfaceM2": 140,
        "isVefa": false
      },
      {
        "date": "2023-06-07",
        "priceEur": 325000,
        "typeLocal": "Appartement",
        "surfaceM2": 140,
        "isVefa": false
      },
      {
        "date": "2021-09-29",
        "priceEur": 299000,
        "typeLocal": "Appartement",
        "surfaceM2": 109,
        "isVefa": false
      }
    ]
  },
  "91d978a05998": {
    "id": "91d978a05998",
    "label": "15 RUE DES BOUCHERS, Cambrai",
    "lat": 50.176071,
    "lng": 3.236457,
    "transactions": [
      {
        "date": "2021-10-22",
        "priceEur": 337650,
        "typeLocal": "Maison",
        "surfaceM2": 105,
        "isVefa": false
      }
    ]
  },
  "464a2cf65fc9": {
    "id": "464a2cf65fc9",
    "label": "6 RUE DU HUIT MAI, Cambrai",
    "lat": 50.174743,
    "lng": 3.231789,
    "transactions": [
      {
        "date": "2021-10-26",
        "priceEur": 48000,
        "typeLocal": "Appartement",
        "surfaceM2": 60,
        "isVefa": false
      }
    ]
  },
  "2524c4613cf3": {
    "id": "2524c4613cf3",
    "label": "10 RUE SAINT-GEORGES, Cambrai",
    "lat": 50.171745,
    "lng": 3.234122,
    "transactions": [
      {
        "date": "2024-05-29",
        "priceEur": 213000,
        "typeLocal": "Appartement",
        "surfaceM2": 86,
        "isVefa": false
      },
      {
        "date": "2022-09-20",
        "priceEur": 205000,
        "typeLocal": "Appartement",
        "surfaceM2": 86,
        "isVefa": false
      },
      {
        "date": "2021-11-15",
        "priceEur": 270000,
        "typeLocal": "Appartement",
        "surfaceM2": 114,
        "isVefa": false
      }
    ]
  },
  "f411d6d1240b": {
    "id": "f411d6d1240b",
    "label": "21 RUE DU MAL JUIN, Cambrai",
    "lat": 50.176894,
    "lng": 3.239731,
    "transactions": [
      {
        "date": "2021-11-16",
        "priceEur": 240000,
        "typeLocal": "Appartement",
        "surfaceM2": 25,
        "isVefa": false
      },
      {
        "date": "2021-11-16",
        "priceEur": 240000,
        "typeLocal": "Appartement",
        "surfaceM2": 19,
        "isVefa": false
      },
      {
        "date": "2021-11-16",
        "priceEur": 240000,
        "typeLocal": "Appartement",
        "surfaceM2": 20,
        "isVefa": false
      },
      {
        "date": "2021-11-16",
        "priceEur": 240000,
        "typeLocal": "Appartement",
        "surfaceM2": 30,
        "isVefa": false
      }
    ]
  },
  "adfe6bd7e184": {
    "id": "adfe6bd7e184",
    "label": "5B RUE DES CHANOINES, Cambrai",
    "lat": 50.174162,
    "lng": 3.230436,
    "transactions": [
      {
        "date": "2021-11-22",
        "priceEur": 138000,
        "typeLocal": "Maison",
        "surfaceM2": 124,
        "isVefa": false
      }
    ]
  },
  "6efb5fb48520": {
    "id": "6efb5fb48520",
    "label": "1 RUE DE L EPEE, Cambrai",
    "lat": 50.173132,
    "lng": 3.230504,
    "transactions": [
      {
        "date": "2021-12-10",
        "priceEur": 45000,
        "typeLocal": "Maison",
        "surfaceM2": 70,
        "isVefa": false
      }
    ]
  },
  "a879cc5edf50": {
    "id": "a879cc5edf50",
    "label": "14 PL ARISTIDE BRIAND, Cambrai",
    "lat": 50.176354,
    "lng": 3.23367,
    "transactions": [
      {
        "date": "2021-12-20",
        "priceEur": 60000,
        "typeLocal": "Appartement",
        "surfaceM2": 46,
        "isVefa": false
      }
    ]
  },
  "03fdc3f997d7": {
    "id": "03fdc3f997d7",
    "label": "7 PL ARISTIDE BRIAND, Cambrai",
    "lat": 50.175872,
    "lng": 3.235719,
    "transactions": [
      {
        "date": "2021-12-24",
        "priceEur": 555000,
        "typeLocal": "Appartement",
        "surfaceM2": 84,
        "isVefa": false
      }
    ]
  },
  "7edfdf28405a": {
    "id": "7edfdf28405a",
    "label": "36 RUE DU PETIT SEMINAIRE, Cambrai",
    "lat": 50.172625,
    "lng": 3.234366,
    "transactions": [
      {
        "date": "2021-12-21",
        "priceEur": 42985,
        "typeLocal": "Maison",
        "surfaceM2": 66,
        "isVefa": false
      }
    ]
  },
  "ca82d946db52": {
    "id": "ca82d946db52",
    "label": "36 AV DE LA VICTOIRE, Cambrai",
    "lat": 50.173886,
    "lng": 3.233147,
    "transactions": [
      {
        "date": "2021-12-23",
        "priceEur": 115000,
        "typeLocal": "Appartement",
        "surfaceM2": 150,
        "isVefa": false
      }
    ]
  },
  "4ebdea625357": {
    "id": "4ebdea625357",
    "label": "6 RUE SADI CARNOT, Cambrai",
    "lat": 50.176673,
    "lng": 3.233115,
    "transactions": [
      {
        "date": "2021-12-29",
        "priceEur": 105000,
        "typeLocal": "Appartement",
        "surfaceM2": 36,
        "isVefa": false
      },
      {
        "date": "2021-12-29",
        "priceEur": 105000,
        "typeLocal": "Appartement",
        "surfaceM2": 37,
        "isVefa": false
      }
    ]
  },
  "933ea2076f70": {
    "id": "933ea2076f70",
    "label": "5 RUE D ALSACE LORRAINE, Cambrai",
    "lat": 50.175735,
    "lng": 3.236953,
    "transactions": [
      {
        "date": "2021-12-30",
        "priceEur": 250000,
        "typeLocal": "Appartement",
        "surfaceM2": 98,
        "isVefa": false
      }
    ]
  },
  "83c25cd12edd": {
    "id": "83c25cd12edd",
    "label": "24 RUE LEON GAMBETTA, Cambrai",
    "lat": 50.172801,
    "lng": 3.237725,
    "transactions": [
      {
        "date": "2022-01-14",
        "priceEur": 165000,
        "typeLocal": "Maison",
        "surfaceM2": 124,
        "isVefa": false
      }
    ]
  },
  "42ab9726c7c8": {
    "id": "42ab9726c7c8",
    "label": "20 RUE DES POCHONNETS, Cambrai",
    "lat": 50.171385,
    "lng": 3.235948,
    "transactions": [
      {
        "date": "2024-09-12",
        "priceEur": 127500,
        "typeLocal": "Appartement",
        "surfaceM2": 80,
        "isVefa": false
      },
      {
        "date": "2023-01-27",
        "priceEur": 210000,
        "typeLocal": "Appartement",
        "surfaceM2": 110,
        "isVefa": false
      },
      {
        "date": "2022-09-05",
        "priceEur": 312000,
        "typeLocal": "Appartement",
        "surfaceM2": 156,
        "isVefa": false
      },
      {
        "date": "2022-01-14",
        "priceEur": 270000,
        "typeLocal": "Appartement",
        "surfaceM2": 96,
        "isVefa": false
      }
    ]
  },
  "7f3f434e076d": {
    "id": "7f3f434e076d",
    "label": "35 RUE DU PETIT SEMINAIRE, Cambrai",
    "lat": 50.172414,
    "lng": 3.23427,
    "transactions": [
      {
        "date": "2022-01-26",
        "priceEur": 60000,
        "typeLocal": "Maison",
        "surfaceM2": 92,
        "isVefa": false
      }
    ]
  },
  "7a8494b13b69": {
    "id": "7a8494b13b69",
    "label": "5 RUE SAINT-NICOLAS, Cambrai",
    "lat": 50.172585,
    "lng": 3.233558,
    "transactions": [
      {
        "date": "2024-07-23",
        "priceEur": 459500,
        "typeLocal": "Maison",
        "surfaceM2": 200,
        "isVefa": false
      },
      {
        "date": "2022-01-31",
        "priceEur": 420000,
        "typeLocal": "Maison",
        "surfaceM2": 200,
        "isVefa": false
      }
    ]
  },
  "21bae63982c7": {
    "id": "21bae63982c7",
    "label": "34 RUE SAINT-GEORGES, Cambrai",
    "lat": 50.170921,
    "lng": 3.234849,
    "transactions": [
      {
        "date": "2022-01-22",
        "priceEur": 110000,
        "typeLocal": "Appartement",
        "surfaceM2": 93,
        "isVefa": false
      }
    ]
  },
  "e6a064d4c8d9": {
    "id": "e6a064d4c8d9",
    "label": "25B RUE DES LINIERS, Cambrai",
    "lat": 50.172833,
    "lng": 3.234061,
    "transactions": [
      {
        "date": "2022-07-29",
        "priceEur": 258500,
        "typeLocal": "Appartement",
        "surfaceM2": 30,
        "isVefa": false
      },
      {
        "date": "2022-07-29",
        "priceEur": 258500,
        "typeLocal": "Appartement",
        "surfaceM2": 20,
        "isVefa": false
      },
      {
        "date": "2022-02-03",
        "priceEur": 132000,
        "typeLocal": "Appartement",
        "surfaceM2": 20,
        "isVefa": false
      },
      {
        "date": "2022-02-03",
        "priceEur": 132000,
        "typeLocal": "Appartement",
        "surfaceM2": 30,
        "isVefa": false
      }
    ]
  },
  "33c7985c8995": {
    "id": "33c7985c8995",
    "label": "5 RUE JEAN JAURES, Cambrai",
    "lat": 50.176501,
    "lng": 3.233965,
    "transactions": [
      {
        "date": "2023-03-29",
        "priceEur": 300000,
        "typeLocal": "Appartement",
        "surfaceM2": 144,
        "isVefa": false
      },
      {
        "date": "2022-03-09",
        "priceEur": 79000,
        "typeLocal": "Appartement",
        "surfaceM2": 40,
        "isVefa": false
      }
    ]
  },
  "43c104bb1461": {
    "id": "43c104bb1461",
    "label": "4 ALL DES SOUPIRS, Cambrai",
    "lat": 50.170282,
    "lng": 3.236293,
    "transactions": [
      {
        "date": "2022-02-28",
        "priceEur": 45000,
        "typeLocal": "Maison",
        "surfaceM2": 48,
        "isVefa": false
      }
    ]
  },
  "c3ca4ba0f7ac": {
    "id": "c3ca4ba0f7ac",
    "label": "10 RUE TAVELLE, Cambrai",
    "lat": 50.175663,
    "lng": 3.232085,
    "transactions": [
      {
        "date": "2022-02-25",
        "priceEur": 179900,
        "typeLocal": "Appartement",
        "surfaceM2": 142,
        "isVefa": false
      }
    ]
  },
  "94a8c5df7b21": {
    "id": "94a8c5df7b21",
    "label": "10 RUE D ALGER, Cambrai",
    "lat": 50.17626,
    "lng": 3.235626,
    "transactions": [
      {
        "date": "2022-03-21",
        "priceEur": 283400,
        "typeLocal": "Maison",
        "surfaceM2": 102,
        "isVefa": false
      }
    ]
  },
  "9f4be12f37bf": {
    "id": "9f4be12f37bf",
    "label": "19 RUE AUBENCHE, Cambrai",
    "lat": 50.172574,
    "lng": 3.236828,
    "transactions": [
      {
        "date": "2022-03-14",
        "priceEur": 168000,
        "typeLocal": "Maison",
        "surfaceM2": 113,
        "isVefa": false
      }
    ]
  },
  "ceb29ce677a8": {
    "id": "ceb29ce677a8",
    "label": "3 RUE DU GENERAL DE GAULLE, Cambrai",
    "lat": 50.17586,
    "lng": 3.236249,
    "transactions": [
      {
        "date": "2022-04-20",
        "priceEur": 130000,
        "typeLocal": "Appartement",
        "surfaceM2": 76,
        "isVefa": false
      }
    ]
  },
  "4b1020e46541": {
    "id": "4b1020e46541",
    "label": "3 RUE DES LINIERS, Cambrai",
    "lat": 50.173687,
    "lng": 3.233676,
    "transactions": [
      {
        "date": "2022-04-11",
        "priceEur": 142500,
        "typeLocal": "Appartement",
        "surfaceM2": 80,
        "isVefa": false
      }
    ]
  },
  "33d8adcf0e3b": {
    "id": "33d8adcf0e3b",
    "label": "21 RUE DU HUIT MAI, Cambrai",
    "lat": 50.174914,
    "lng": 3.23045,
    "transactions": [
      {
        "date": "2024-07-22",
        "priceEur": 263250,
        "typeLocal": "Appartement",
        "surfaceM2": 107,
        "isVefa": false
      },
      {
        "date": "2022-04-13",
        "priceEur": 223300,
        "typeLocal": "Appartement",
        "surfaceM2": 107,
        "isVefa": false
      }
    ]
  },
  "6310a7e9e943": {
    "id": "6310a7e9e943",
    "label": "10 RUE DES ECOLES, Cambrai",
    "lat": 50.172792,
    "lng": 3.230137,
    "transactions": [
      {
        "date": "2022-04-27",
        "priceEur": 140000,
        "typeLocal": "Appartement",
        "surfaceM2": 40,
        "isVefa": false
      },
      {
        "date": "2022-04-27",
        "priceEur": 140000,
        "typeLocal": "Appartement",
        "surfaceM2": 36,
        "isVefa": false
      },
      {
        "date": "2022-04-27",
        "priceEur": 140000,
        "typeLocal": "Appartement",
        "surfaceM2": 31,
        "isVefa": false
      }
    ]
  },
  "d7226cd4558d": {
    "id": "d7226cd4558d",
    "label": "17 RUE DU GENERAL DE GAULLE, Cambrai",
    "lat": 50.175486,
    "lng": 3.237591,
    "transactions": [
      {
        "date": "2023-04-28",
        "priceEur": 140524,
        "typeLocal": "Appartement",
        "surfaceM2": 76,
        "isVefa": false
      },
      {
        "date": "2022-04-29",
        "priceEur": 82000,
        "typeLocal": "Appartement",
        "surfaceM2": 76,
        "isVefa": false
      }
    ]
  },
  "5c6bf7b5c6a6": {
    "id": "5c6bf7b5c6a6",
    "label": "44 RUE ERNEST LEPOT, Cambrai",
    "lat": 50.173405,
    "lng": 3.233981,
    "transactions": [
      {
        "date": "2023-03-27",
        "priceEur": 55000,
        "typeLocal": "Appartement",
        "surfaceM2": 48,
        "isVefa": false
      },
      {
        "date": "2022-05-16",
        "priceEur": 35000,
        "typeLocal": "Appartement",
        "surfaceM2": 42,
        "isVefa": false
      }
    ]
  },
  "e156e8a32818": {
    "id": "e156e8a32818",
    "label": "28 RUE DES CHAUDRONNIERS, Cambrai",
    "lat": 50.176187,
    "lng": 3.237109,
    "transactions": [
      {
        "date": "2022-04-05",
        "priceEur": 200000,
        "typeLocal": "Appartement",
        "surfaceM2": 44,
        "isVefa": false
      },
      {
        "date": "2022-04-05",
        "priceEur": 200000,
        "typeLocal": "Appartement",
        "surfaceM2": 50,
        "isVefa": false
      },
      {
        "date": "2022-04-05",
        "priceEur": 200000,
        "typeLocal": "Appartement",
        "surfaceM2": 29,
        "isVefa": false
      },
      {
        "date": "2022-04-05",
        "priceEur": 200000,
        "typeLocal": "Appartement",
        "surfaceM2": 23,
        "isVefa": false
      }
    ]
  },
  "24fc6297cce2": {
    "id": "24fc6297cce2",
    "label": "15 RUE DU GENERAL FRERE, Cambrai",
    "lat": 50.173598,
    "lng": 3.2375,
    "transactions": [
      {
        "date": "2022-06-17",
        "priceEur": 170000,
        "typeLocal": "Maison",
        "surfaceM2": 90,
        "isVefa": false
      }
    ]
  },
  "253e42c9b061": {
    "id": "253e42c9b061",
    "label": "4T RUE GUILLAUME DU FAY, Cambrai",
    "lat": 50.172493,
    "lng": 3.233002,
    "transactions": [
      {
        "date": "2022-06-23",
        "priceEur": 320000,
        "typeLocal": "Appartement",
        "surfaceM2": 46,
        "isVefa": false
      },
      {
        "date": "2022-06-23",
        "priceEur": 320000,
        "typeLocal": "Appartement",
        "surfaceM2": 50,
        "isVefa": false
      },
      {
        "date": "2022-06-23",
        "priceEur": 320000,
        "typeLocal": "Appartement",
        "surfaceM2": 58,
        "isVefa": false
      }
    ]
  },
  "e15f91e66cc8": {
    "id": "e15f91e66cc8",
    "label": "18 RUE DES BOUCHERS, Cambrai",
    "lat": 50.176511,
    "lng": 3.237434,
    "transactions": [
      {
        "date": "2023-05-02",
        "priceEur": 120000,
        "typeLocal": "Appartement",
        "surfaceM2": 70,
        "isVefa": false
      },
      {
        "date": "2022-06-02",
        "priceEur": 120000,
        "typeLocal": "Appartement",
        "surfaceM2": 92,
        "isVefa": false
      },
      {
        "date": "2022-06-02",
        "priceEur": 61500,
        "typeLocal": "Appartement",
        "surfaceM2": 35,
        "isVefa": false
      }
    ]
  },
  "5ac1b0966ac7": {
    "id": "5ac1b0966ac7",
    "label": "15 RUE DES CLEFS, Cambrai",
    "lat": 50.175806,
    "lng": 3.231673,
    "transactions": [
      {
        "date": "2022-07-25",
        "priceEur": 156900,
        "typeLocal": "Appartement",
        "surfaceM2": 52,
        "isVefa": false
      },
      {
        "date": "2022-07-25",
        "priceEur": 156900,
        "typeLocal": "Appartement",
        "surfaceM2": 37,
        "isVefa": false
      },
      {
        "date": "2022-07-25",
        "priceEur": 156900,
        "typeLocal": "Appartement",
        "surfaceM2": 25,
        "isVefa": false
      }
    ]
  },
  "095ac077de12": {
    "id": "095ac077de12",
    "label": "5 RUE DU GRAND SEMINAIRE, Cambrai",
    "lat": 50.173259,
    "lng": 3.231178,
    "transactions": [
      {
        "date": "2022-08-01",
        "priceEur": 784600,
        "typeLocal": "Maison",
        "surfaceM2": 140,
        "isVefa": false
      }
    ]
  },
  "a0cd4c083666": {
    "id": "a0cd4c083666",
    "label": "26 RUE DU PETIT SEMINAIRE, Cambrai",
    "lat": 50.172905,
    "lng": 3.234657,
    "transactions": [
      {
        "date": "2022-08-26",
        "priceEur": 43000,
        "typeLocal": "Appartement",
        "surfaceM2": 52,
        "isVefa": false
      }
    ]
  },
  "2013061602b0": {
    "id": "2013061602b0",
    "label": "7 RUE NEUVE, Cambrai",
    "lat": 50.174808,
    "lng": 3.235211,
    "transactions": [
      {
        "date": "2023-05-16",
        "priceEur": 105000,
        "typeLocal": "Appartement",
        "surfaceM2": 70,
        "isVefa": false
      },
      {
        "date": "2022-09-05",
        "priceEur": 365000,
        "typeLocal": "Appartement",
        "surfaceM2": 70,
        "isVefa": false
      },
      {
        "date": "2022-09-05",
        "priceEur": 365000,
        "typeLocal": "Appartement",
        "surfaceM2": 25,
        "isVefa": false
      },
      {
        "date": "2022-09-05",
        "priceEur": 365000,
        "typeLocal": "Appartement",
        "surfaceM2": 40,
        "isVefa": false
      }
    ]
  },
  "c1465e8797ad": {
    "id": "c1465e8797ad",
    "label": "42 RUE SAINT-GEORGES, Cambrai",
    "lat": 50.170614,
    "lng": 3.235087,
    "transactions": [
      {
        "date": "2022-08-31",
        "priceEur": 90000,
        "typeLocal": "Appartement",
        "surfaceM2": 53,
        "isVefa": false
      }
    ]
  },
  "984ac3731560": {
    "id": "984ac3731560",
    "label": "8 RUE D ALGER, Cambrai",
    "lat": 50.176168,
    "lng": 3.235601,
    "transactions": [
      {
        "date": "2022-09-15",
        "priceEur": 250000,
        "typeLocal": "Appartement",
        "surfaceM2": 56,
        "isVefa": false
      },
      {
        "date": "2022-09-15",
        "priceEur": 250000,
        "typeLocal": "Appartement",
        "surfaceM2": 42,
        "isVefa": false
      },
      {
        "date": "2022-09-15",
        "priceEur": 250000,
        "typeLocal": "Appartement",
        "surfaceM2": 25,
        "isVefa": false
      }
    ]
  },
  "692bf50da0bc": {
    "id": "692bf50da0bc",
    "label": "12 RUE DES POCHONNETS, Cambrai",
    "lat": 50.171716,
    "lng": 3.235925,
    "transactions": [
      {
        "date": "2022-09-23",
        "priceEur": 145000,
        "typeLocal": "Maison",
        "surfaceM2": 52,
        "isVefa": false
      }
    ]
  },
  "bfc017527886": {
    "id": "bfc017527886",
    "label": "7 RUE DES BOUCHERS, Cambrai",
    "lat": 50.175862,
    "lng": 3.236404,
    "transactions": [
      {
        "date": "2023-04-27",
        "priceEur": 74000,
        "typeLocal": "Appartement",
        "surfaceM2": 58,
        "isVefa": false
      },
      {
        "date": "2022-09-30",
        "priceEur": 95000,
        "typeLocal": "Appartement",
        "surfaceM2": 66,
        "isVefa": false
      }
    ]
  },
  "047e157a92db": {
    "id": "047e157a92db",
    "label": "17A GR GDE RUE VANDERBURCH, Cambrai",
    "lat": 50.176874,
    "lng": 3.231636,
    "transactions": [
      {
        "date": "2022-09-29",
        "priceEur": 167000,
        "typeLocal": "Maison",
        "surfaceM2": 29,
        "isVefa": false
      },
      {
        "date": "2022-09-29",
        "priceEur": 167000,
        "typeLocal": "Maison",
        "surfaceM2": 43,
        "isVefa": false
      },
      {
        "date": "2022-09-29",
        "priceEur": 167000,
        "typeLocal": "Appartement",
        "surfaceM2": 30,
        "isVefa": false
      },
      {
        "date": "2022-09-29",
        "priceEur": 167000,
        "typeLocal": "Appartement",
        "surfaceM2": 60,
        "isVefa": false
      }
    ]
  },
  "fa553d56fa03": {
    "id": "fa553d56fa03",
    "label": "15 RUE DE LA CITADELLE, Cambrai",
    "lat": 50.174913,
    "lng": 3.237903,
    "transactions": [
      {
        "date": "2024-03-29",
        "priceEur": 286000,
        "typeLocal": "Appartement",
        "surfaceM2": 88,
        "isVefa": false
      },
      {
        "date": "2022-09-19",
        "priceEur": 100000,
        "typeLocal": "Appartement",
        "surfaceM2": 45,
        "isVefa": false
      }
    ]
  },
  "f8a2d1fde8fb": {
    "id": "f8a2d1fde8fb",
    "label": "22 RUE DU HUIT MAI, Cambrai",
    "lat": 50.17522,
    "lng": 3.230809,
    "transactions": [
      {
        "date": "2022-10-13",
        "priceEur": 160000,
        "typeLocal": "Appartement",
        "surfaceM2": 48,
        "isVefa": false
      }
    ]
  },
  "0b611fcc6f2a": {
    "id": "0b611fcc6f2a",
    "label": "7 RUE DES CHAUDRONNIERS, Cambrai",
    "lat": 50.17658,
    "lng": 3.236041,
    "transactions": [
      {
        "date": "2022-10-06",
        "priceEur": 152000,
        "typeLocal": "Maison",
        "surfaceM2": 80,
        "isVefa": false
      }
    ]
  },
  "3c8315c36203": {
    "id": "3c8315c36203",
    "label": "8 RUE DE L AIGUILLE, Cambrai",
    "lat": 50.173797,
    "lng": 3.23091,
    "transactions": [
      {
        "date": "2022-10-26",
        "priceEur": 110000,
        "typeLocal": "Appartement",
        "surfaceM2": 49,
        "isVefa": false
      }
    ]
  },
  "7f8d31fbc044": {
    "id": "7f8d31fbc044",
    "label": "20 PLACE ROBERT LEROY, Cambrai",
    "lat": 50.173689,
    "lng": 3.236058,
    "transactions": [
      {
        "date": "2022-11-15",
        "priceEur": 177500,
        "typeLocal": "Maison",
        "surfaceM2": 142,
        "isVefa": false
      }
    ]
  },
  "edcf7c68eeba": {
    "id": "edcf7c68eeba",
    "label": "14 RUE DE LA MADELEINE, Cambrai",
    "lat": 50.173515,
    "lng": 3.235606,
    "transactions": [
      {
        "date": "2022-11-16",
        "priceEur": 123000,
        "typeLocal": "Maison",
        "surfaceM2": 81,
        "isVefa": false
      }
    ]
  },
  "c34c2c80b0e9": {
    "id": "c34c2c80b0e9",
    "label": "7 PL DU NEUF OCTOBRE, Cambrai",
    "lat": 50.176147,
    "lng": 3.232289,
    "transactions": [
      {
        "date": "2022-11-10",
        "priceEur": 125000,
        "typeLocal": "Appartement",
        "surfaceM2": 109,
        "isVefa": false
      }
    ]
  },
  "8ccfb7694939": {
    "id": "8ccfb7694939",
    "label": "19 RUE DU PRE D ESPAGNE, Cambrai",
    "lat": 50.170185,
    "lng": 3.234595,
    "transactions": [
      {
        "date": "2022-12-07",
        "priceEur": 205000,
        "typeLocal": "Appartement",
        "surfaceM2": 154,
        "isVefa": false
      }
    ]
  },
  "34a4a2c61910": {
    "id": "34a4a2c61910",
    "label": "12 RUE DU HUIT MAI, Cambrai",
    "lat": 50.174994,
    "lng": 3.231454,
    "transactions": [
      {
        "date": "2022-12-05",
        "priceEur": 109000,
        "typeLocal": "Maison",
        "surfaceM2": 126,
        "isVefa": false
      }
    ]
  },
  "17b08214f4b2": {
    "id": "17b08214f4b2",
    "label": "15 BD FAIDHERBE, Cambrai",
    "lat": 50.176756,
    "lng": 3.237857,
    "transactions": [
      {
        "date": "2022-11-30",
        "priceEur": 230000,
        "typeLocal": "Maison",
        "surfaceM2": 76,
        "isVefa": false
      }
    ]
  },
  "fcaa25bfd695": {
    "id": "fcaa25bfd695",
    "label": "8 RUE TAVELLE, Cambrai",
    "lat": 50.175583,
    "lng": 3.232248,
    "transactions": [
      {
        "date": "2022-12-15",
        "priceEur": 440000,
        "typeLocal": "Appartement",
        "surfaceM2": 45,
        "isVefa": false
      },
      {
        "date": "2022-12-15",
        "priceEur": 440000,
        "typeLocal": "Appartement",
        "surfaceM2": 30,
        "isVefa": false
      },
      {
        "date": "2022-12-15",
        "priceEur": 440000,
        "typeLocal": "Appartement",
        "surfaceM2": 33,
        "isVefa": false
      },
      {
        "date": "2022-12-15",
        "priceEur": 440000,
        "typeLocal": "Appartement",
        "surfaceM2": 35,
        "isVefa": false
      },
      {
        "date": "2022-12-15",
        "priceEur": 440000,
        "typeLocal": "Appartement",
        "surfaceM2": 50,
        "isVefa": false
      }
    ]
  },
  "8aaaa6e86497": {
    "id": "8aaaa6e86497",
    "label": "48 RUE SAINT-GEORGES, Cambrai",
    "lat": 50.170408,
    "lng": 3.235251,
    "transactions": [
      {
        "date": "2023-01-09",
        "priceEur": 51000,
        "typeLocal": "Maison",
        "surfaceM2": 110,
        "isVefa": false
      }
    ]
  },
  "392959aedff0": {
    "id": "392959aedff0",
    "label": "23 RUE SAINT-GEORGES, Cambrai",
    "lat": 50.171794,
    "lng": 3.235217,
    "transactions": [
      {
        "date": "2023-01-04",
        "priceEur": 695000,
        "typeLocal": "Maison",
        "surfaceM2": 475,
        "isVefa": false
      }
    ]
  },
  "121650782ee0": {
    "id": "121650782ee0",
    "label": "10 PL DU NEUF OCTOBRE, Cambrai",
    "lat": 50.17664,
    "lng": 3.232828,
    "transactions": [
      {
        "date": "2023-01-11",
        "priceEur": 117000,
        "typeLocal": "Maison",
        "surfaceM2": 94,
        "isVefa": false
      }
    ]
  },
  "55dbddcb42b2": {
    "id": "55dbddcb42b2",
    "label": "9 RUE DE NICE, Cambrai",
    "lat": 50.176383,
    "lng": 3.234154,
    "transactions": [
      {
        "date": "2023-01-24",
        "priceEur": 315000,
        "typeLocal": "Appartement",
        "surfaceM2": 72,
        "isVefa": false
      }
    ]
  },
  "0b456ab71a58": {
    "id": "0b456ab71a58",
    "label": "18 RUE DES ANGES, Cambrai",
    "lat": 50.172005,
    "lng": 3.235596,
    "transactions": [
      {
        "date": "2023-02-07",
        "priceEur": 185000,
        "typeLocal": "Maison",
        "surfaceM2": 110,
        "isVefa": false
      }
    ]
  },
  "651884810d51": {
    "id": "651884810d51",
    "label": "4 SQ DE LA CHOQUE, Cambrai",
    "lat": 50.175125,
    "lng": 3.236301,
    "transactions": [
      {
        "date": "2024-10-01",
        "priceEur": 192000,
        "typeLocal": "Appartement",
        "surfaceM2": 62,
        "isVefa": false
      },
      {
        "date": "2024-01-05",
        "priceEur": 182000,
        "typeLocal": "Appartement",
        "surfaceM2": 92,
        "isVefa": false
      },
      {
        "date": "2023-02-08",
        "priceEur": 26600,
        "typeLocal": "Appartement",
        "surfaceM2": 12,
        "isVefa": false
      },
      {
        "date": "2023-02-08",
        "priceEur": 26600,
        "typeLocal": "Appartement",
        "surfaceM2": 10,
        "isVefa": false
      }
    ]
  },
  "856879110e96": {
    "id": "856879110e96",
    "label": "4 RUE DU ONZE NOVEMBRE, Cambrai",
    "lat": 50.17407,
    "lng": 3.232361,
    "transactions": [
      {
        "date": "2023-02-28",
        "priceEur": 155000,
        "typeLocal": "Maison",
        "surfaceM2": 65,
        "isVefa": false
      }
    ]
  },
  "fe385e4db9f7": {
    "id": "fe385e4db9f7",
    "label": "2 RUE DES JUIFS, Cambrai",
    "lat": 50.174157,
    "lng": 3.234543,
    "transactions": [
      {
        "date": "2024-09-10",
        "priceEur": 105800,
        "typeLocal": "Maison",
        "surfaceM2": 40,
        "isVefa": false
      },
      {
        "date": "2023-03-09",
        "priceEur": 74744,
        "typeLocal": "Maison",
        "surfaceM2": 40,
        "isVefa": false
      }
    ]
  },
  "211a932eb510": {
    "id": "211a932eb510",
    "label": "6 RUE DE LA CITADELLE, Cambrai",
    "lat": 50.174645,
    "lng": 3.237755,
    "transactions": [
      {
        "date": "2023-03-30",
        "priceEur": 145000,
        "typeLocal": "Appartement",
        "surfaceM2": 42,
        "isVefa": false
      },
      {
        "date": "2023-03-30",
        "priceEur": 145000,
        "typeLocal": "Appartement",
        "surfaceM2": 31,
        "isVefa": false
      },
      {
        "date": "2023-03-30",
        "priceEur": 145000,
        "typeLocal": "Appartement",
        "surfaceM2": 35,
        "isVefa": false
      }
    ]
  },
  "ad91db803b2f": {
    "id": "ad91db803b2f",
    "label": "19 RUE DU GRAND SEMINAIRE, Cambrai",
    "lat": 50.172988,
    "lng": 3.231743,
    "transactions": [
      {
        "date": "2023-05-10",
        "priceEur": 277900,
        "typeLocal": "Maison",
        "surfaceM2": 80,
        "isVefa": false
      }
    ]
  },
  "4e9b40965639": {
    "id": "4e9b40965639",
    "label": "56 RUE SAINT-GEORGES, Cambrai",
    "lat": 50.170196,
    "lng": 3.235296,
    "transactions": [
      {
        "date": "2023-05-05",
        "priceEur": 105000,
        "typeLocal": "Appartement",
        "surfaceM2": 69,
        "isVefa": false
      },
      {
        "date": "2023-05-05",
        "priceEur": 105000,
        "typeLocal": "Appartement",
        "surfaceM2": 50,
        "isVefa": false
      }
    ]
  },
  "32636ef76451": {
    "id": "32636ef76451",
    "label": "1 RUE DES JUIFS, Cambrai",
    "lat": 50.17407,
    "lng": 3.234649,
    "transactions": [
      {
        "date": "2023-05-25",
        "priceEur": 75000,
        "typeLocal": "Appartement",
        "surfaceM2": 40,
        "isVefa": false
      },
      {
        "date": "2023-05-25",
        "priceEur": 75000,
        "typeLocal": "Appartement",
        "surfaceM2": 17,
        "isVefa": false
      }
    ]
  },
  "0f2ced2dd2a7": {
    "id": "0f2ced2dd2a7",
    "label": "8 RUE DES CLEFS, Cambrai",
    "lat": 50.176185,
    "lng": 3.231534,
    "transactions": [
      {
        "date": "2023-06-02",
        "priceEur": 32500,
        "typeLocal": "Appartement",
        "surfaceM2": 16,
        "isVefa": false
      }
    ]
  },
  "d814594ed37a": {
    "id": "d814594ed37a",
    "label": "23 RUE DU GRAND SEMINAIRE, Cambrai",
    "lat": 50.172907,
    "lng": 3.231889,
    "transactions": [
      {
        "date": "2023-05-30",
        "priceEur": 133000,
        "typeLocal": "Maison",
        "surfaceM2": 122,
        "isVefa": false
      }
    ]
  },
  "394428c47e99": {
    "id": "394428c47e99",
    "label": "8 RUE DES CORDIERS, Cambrai",
    "lat": 50.176678,
    "lng": 3.23611,
    "transactions": [
      {
        "date": "2023-05-30",
        "priceEur": 117500,
        "typeLocal": "Appartement",
        "surfaceM2": 40,
        "isVefa": false
      },
      {
        "date": "2023-05-30",
        "priceEur": 117500,
        "typeLocal": "Appartement",
        "surfaceM2": 38,
        "isVefa": false
      },
      {
        "date": "2023-05-30",
        "priceEur": 117500,
        "typeLocal": "Appartement",
        "surfaceM2": 12,
        "isVefa": false
      }
    ]
  },
  "a18f6f64eb48": {
    "id": "a18f6f64eb48",
    "label": "17 RUE EUGENE BOULY, Cambrai",
    "lat": 50.171783,
    "lng": 3.231513,
    "transactions": [
      {
        "date": "2023-06-05",
        "priceEur": 51600,
        "typeLocal": "Maison",
        "surfaceM2": 70,
        "isVefa": false
      }
    ]
  },
  "045da1b9be0d": {
    "id": "045da1b9be0d",
    "label": "19 RUE PIERRE D AILLY, Cambrai",
    "lat": 50.171348,
    "lng": 3.229983,
    "transactions": [
      {
        "date": "2023-06-23",
        "priceEur": 185000,
        "typeLocal": "Maison",
        "surfaceM2": 162,
        "isVefa": false
      }
    ]
  },
  "20404487d5be": {
    "id": "20404487d5be",
    "label": "19 RUE DE L AIGUILLE, Cambrai",
    "lat": 50.1733,
    "lng": 3.23084,
    "transactions": [
      {
        "date": "2023-06-17",
        "priceEur": 34900,
        "typeLocal": "Maison",
        "surfaceM2": 65,
        "isVefa": false
      }
    ]
  },
  "0b8aa04d705c": {
    "id": "0b8aa04d705c",
    "label": "5 RUE DES CHAUDRONNIERS, Cambrai",
    "lat": 50.176561,
    "lng": 3.235955,
    "transactions": [
      {
        "date": "2023-06-09",
        "priceEur": 170000,
        "typeLocal": "Appartement",
        "surfaceM2": 95,
        "isVefa": false
      }
    ]
  },
  "ceab3e3fac95": {
    "id": "ceab3e3fac95",
    "label": "23 RUE DES ROTISSEURS, Cambrai",
    "lat": 50.174588,
    "lng": 3.234584,
    "transactions": [
      {
        "date": "2023-06-29",
        "priceEur": 380000,
        "typeLocal": "Appartement",
        "surfaceM2": 33,
        "isVefa": false
      },
      {
        "date": "2023-06-29",
        "priceEur": 380000,
        "typeLocal": "Appartement",
        "surfaceM2": 31,
        "isVefa": false
      },
      {
        "date": "2023-06-29",
        "priceEur": 380000,
        "typeLocal": "Appartement",
        "surfaceM2": 75,
        "isVefa": false
      }
    ]
  },
  "9b80a6066a2a": {
    "id": "9b80a6066a2a",
    "label": "43 RUE DU GENERAL DE GAULLE, Cambrai",
    "lat": 50.175379,
    "lng": 3.23897,
    "transactions": [
      {
        "date": "2023-07-18",
        "priceEur": 250000,
        "typeLocal": "Appartement",
        "surfaceM2": 125,
        "isVefa": false
      },
      {
        "date": "2023-07-18",
        "priceEur": 250000,
        "typeLocal": "Appartement",
        "surfaceM2": 115,
        "isVefa": false
      },
      {
        "date": "2023-07-18",
        "priceEur": 250000,
        "typeLocal": "Appartement",
        "surfaceM2": 55,
        "isVefa": false
      }
    ]
  },
  "11acf314d7bb": {
    "id": "11acf314d7bb",
    "label": "2 RUE VICTOR RAMETTE, Cambrai",
    "lat": 50.176687,
    "lng": 3.23057,
    "transactions": [
      {
        "date": "2023-09-15",
        "priceEur": 136300,
        "typeLocal": "Maison",
        "surfaceM2": 150,
        "isVefa": false
      }
    ]
  },
  "5265809a5485": {
    "id": "5265809a5485",
    "label": "44 PL ARISTIDE BRIAND, Cambrai",
    "lat": 50.175181,
    "lng": 3.233609,
    "transactions": [
      {
        "date": "2023-09-15",
        "priceEur": 192000,
        "typeLocal": "Appartement",
        "surfaceM2": 104,
        "isVefa": false
      }
    ]
  },
  "7ee8b6965515": {
    "id": "7ee8b6965515",
    "label": "4 RUE LOUIS BELMAS, Cambrai",
    "lat": 50.170707,
    "lng": 3.232064,
    "transactions": [
      {
        "date": "2023-09-30",
        "priceEur": 150000,
        "typeLocal": "Appartement",
        "surfaceM2": 37,
        "isVefa": false
      },
      {
        "date": "2023-09-30",
        "priceEur": 150000,
        "typeLocal": "Appartement",
        "surfaceM2": 49,
        "isVefa": false
      }
    ]
  },
  "80b8f70183d1": {
    "id": "80b8f70183d1",
    "label": "70 AV DE LA VICTOIRE, Cambrai",
    "lat": 50.171711,
    "lng": 3.231712,
    "transactions": [
      {
        "date": "2023-09-14",
        "priceEur": 100000,
        "typeLocal": "Appartement",
        "surfaceM2": 66,
        "isVefa": false
      }
    ]
  },
  "6bc6069d0c6c": {
    "id": "6bc6069d0c6c",
    "label": "5 RUE DES POCHONNETS, Cambrai",
    "lat": 50.172034,
    "lng": 3.23618,
    "transactions": [
      {
        "date": "2023-10-20",
        "priceEur": 230100,
        "typeLocal": "Maison",
        "surfaceM2": 130,
        "isVefa": false
      }
    ]
  },
  "ad3aa29b76a3": {
    "id": "ad3aa29b76a3",
    "label": "20 RUE EUGENE BOULY, Cambrai",
    "lat": 50.171609,
    "lng": 3.231534,
    "transactions": [
      {
        "date": "2023-10-12",
        "priceEur": 84000,
        "typeLocal": "Maison",
        "surfaceM2": 93,
        "isVefa": false
      }
    ]
  },
  "31c4689ff13b": {
    "id": "31c4689ff13b",
    "label": "4 RUE DES JUIFS, Cambrai",
    "lat": 50.174095,
    "lng": 3.234416,
    "transactions": [
      {
        "date": "2023-12-04",
        "priceEur": 102000,
        "typeLocal": "Appartement",
        "surfaceM2": 46,
        "isVefa": false
      },
      {
        "date": "2023-12-04",
        "priceEur": 102000,
        "typeLocal": "Appartement",
        "surfaceM2": 72,
        "isVefa": false
      }
    ]
  },
  "3a1a7dbcbae1": {
    "id": "3a1a7dbcbae1",
    "label": "5 RUE DES JUIFS, Cambrai",
    "lat": 50.173839,
    "lng": 3.23459,
    "transactions": [
      {
        "date": "2023-12-14",
        "priceEur": 80000,
        "typeLocal": "Appartement",
        "surfaceM2": 37,
        "isVefa": false
      },
      {
        "date": "2023-12-14",
        "priceEur": 80000,
        "typeLocal": "Appartement",
        "surfaceM2": 43,
        "isVefa": false
      },
      {
        "date": "2023-12-14",
        "priceEur": 80000,
        "typeLocal": "Appartement",
        "surfaceM2": 12,
        "isVefa": false
      },
      {
        "date": "2023-12-14",
        "priceEur": 80000,
        "typeLocal": "Appartement",
        "surfaceM2": 50,
        "isVefa": false
      }
    ]
  },
  "12b0b8968a59": {
    "id": "12b0b8968a59",
    "label": "11B RUE DES CHANOINES, Cambrai",
    "lat": 50.174426,
    "lng": 3.229996,
    "transactions": [
      {
        "date": "2024-07-31",
        "priceEur": 115000,
        "typeLocal": "Maison",
        "surfaceM2": 71,
        "isVefa": false
      },
      {
        "date": "2023-12-28",
        "priceEur": 100000,
        "typeLocal": "Maison",
        "surfaceM2": 71,
        "isVefa": false
      }
    ]
  },
  "2702a06002af": {
    "id": "2702a06002af",
    "label": "18 RUE D ALGER, Cambrai",
    "lat": 50.176639,
    "lng": 3.235768,
    "transactions": [
      {
        "date": "2024-08-29",
        "priceEur": 71300,
        "typeLocal": "Appartement",
        "surfaceM2": 38,
        "isVefa": false
      },
      {
        "date": "2023-12-28",
        "priceEur": 82000,
        "typeLocal": "Appartement",
        "surfaceM2": 46,
        "isVefa": false
      }
    ]
  },
  "d3bde0d96f2f": {
    "id": "d3bde0d96f2f",
    "label": "3 RUE DE NICE, Cambrai",
    "lat": 50.176218,
    "lng": 3.234106,
    "transactions": [
      {
        "date": "2024-01-12",
        "priceEur": 110000,
        "typeLocal": "Appartement",
        "surfaceM2": 45,
        "isVefa": false
      },
      {
        "date": "2024-01-12",
        "priceEur": 110000,
        "typeLocal": "Appartement",
        "surfaceM2": 25,
        "isVefa": false
      },
      {
        "date": "2024-01-12",
        "priceEur": 110000,
        "typeLocal": "Appartement",
        "surfaceM2": 43,
        "isVefa": false
      }
    ]
  },
  "c62678999b93": {
    "id": "c62678999b93",
    "label": "20 RUE ERNEST LEPOT, Cambrai",
    "lat": 50.173771,
    "lng": 3.234698,
    "transactions": [
      {
        "date": "2024-01-24",
        "priceEur": 120000,
        "typeLocal": "Maison",
        "surfaceM2": 50,
        "isVefa": false
      }
    ]
  },
  "8515c086600f": {
    "id": "8515c086600f",
    "label": "37 AV DE LA VICTOIRE, Cambrai",
    "lat": 50.173007,
    "lng": 3.233206,
    "transactions": [
      {
        "date": "2024-12-13",
        "priceEur": 94720,
        "typeLocal": "Appartement",
        "surfaceM2": 90,
        "isVefa": false
      },
      {
        "date": "2024-02-14",
        "priceEur": 50000,
        "typeLocal": "Appartement",
        "surfaceM2": 100,
        "isVefa": false
      }
    ]
  },
  "971bbbd6c09a": {
    "id": "971bbbd6c09a",
    "label": "18 RUE DES POCHONNETS, Cambrai",
    "lat": 50.171385,
    "lng": 3.235948,
    "transactions": [
      {
        "date": "2024-02-01",
        "priceEur": 148000,
        "typeLocal": "Appartement",
        "surfaceM2": 83,
        "isVefa": false
      }
    ]
  },
  "c90d3cc700af": {
    "id": "c90d3cc700af",
    "label": "19 RUE NEUVE, Cambrai",
    "lat": 50.174554,
    "lng": 3.235013,
    "transactions": [
      {
        "date": "2024-02-29",
        "priceEur": 95000,
        "typeLocal": "Maison",
        "surfaceM2": 60,
        "isVefa": false
      }
    ]
  },
  "7cd741187a51": {
    "id": "7cd741187a51",
    "label": "10 RUE PASTEUR, Cambrai",
    "lat": 50.176511,
    "lng": 3.233043,
    "transactions": [
      {
        "date": "2025-04-08",
        "priceEur": 45500,
        "typeLocal": "Appartement",
        "surfaceM2": 65,
        "isVefa": false
      },
      {
        "date": "2024-07-23",
        "priceEur": 55000,
        "typeLocal": "Appartement",
        "surfaceM2": 40,
        "isVefa": false
      },
      {
        "date": "2024-05-16",
        "priceEur": 70000,
        "typeLocal": "Appartement",
        "surfaceM2": 40,
        "isVefa": false
      },
      {
        "date": "2024-03-22",
        "priceEur": 55000,
        "typeLocal": "Appartement",
        "surfaceM2": 60,
        "isVefa": false
      }
    ]
  },
  "4fa4ea95f98e": {
    "id": "4fa4ea95f98e",
    "label": "20 VC RAG CRX A POTERIES, Cambrai",
    "lat": 50.172041,
    "lng": 3.236776,
    "transactions": [
      {
        "date": "2024-04-12",
        "priceEur": 257000,
        "typeLocal": "Maison",
        "surfaceM2": 149,
        "isVefa": false
      }
    ]
  },
  "02a789f88719": {
    "id": "02a789f88719",
    "label": "14 RUE DES ANGES, Cambrai",
    "lat": 50.172129,
    "lng": 3.235385,
    "transactions": [
      {
        "date": "2024-05-27",
        "priceEur": 115500,
        "typeLocal": "Maison",
        "surfaceM2": 70,
        "isVefa": false
      }
    ]
  },
  "069a4a1e339e": {
    "id": "069a4a1e339e",
    "label": "2 RUE SAINT-FIACRE, Cambrai",
    "lat": 50.172586,
    "lng": 3.230098,
    "transactions": [
      {
        "date": "2024-06-12",
        "priceEur": 29000,
        "typeLocal": "Maison",
        "surfaceM2": 62,
        "isVefa": false
      }
    ]
  },
  "95116e761fc0": {
    "id": "95116e761fc0",
    "label": "4 BD FAIDHERBE, Cambrai",
    "lat": 50.175187,
    "lng": 3.240683,
    "transactions": [
      {
        "date": "2024-06-24",
        "priceEur": 150000,
        "typeLocal": "Appartement",
        "surfaceM2": 43,
        "isVefa": false
      },
      {
        "date": "2024-06-24",
        "priceEur": 150000,
        "typeLocal": "Appartement",
        "surfaceM2": 16,
        "isVefa": false
      },
      {
        "date": "2024-06-24",
        "priceEur": 150000,
        "typeLocal": "Appartement",
        "surfaceM2": 40,
        "isVefa": false
      },
      {
        "date": "2024-06-24",
        "priceEur": 150000,
        "typeLocal": "Appartement",
        "surfaceM2": 27,
        "isVefa": false
      }
    ]
  },
  "6f5b5e596c12": {
    "id": "6f5b5e596c12",
    "label": "58 RUE DES ROTISSEURS, Cambrai",
    "lat": 50.17373,
    "lng": 3.235386,
    "transactions": [
      {
        "date": "2024-06-20",
        "priceEur": 704000,
        "typeLocal": "Maison",
        "surfaceM2": 269,
        "isVefa": false
      }
    ]
  },
  "0a2b73007196": {
    "id": "0a2b73007196",
    "label": "17 RUE DU GENERAL FRERE, Cambrai",
    "lat": 50.173581,
    "lng": 3.237399,
    "transactions": [
      {
        "date": "2024-06-25",
        "priceEur": 200000,
        "typeLocal": "Maison",
        "surfaceM2": 90,
        "isVefa": false
      }
    ]
  },
  "8e82b7f83272": {
    "id": "8e82b7f83272",
    "label": "9 RUE DE L AIGUILLE, Cambrai",
    "lat": 50.173521,
    "lng": 3.231111,
    "transactions": [
      {
        "date": "2024-07-18",
        "priceEur": 138500,
        "typeLocal": "Appartement",
        "surfaceM2": 32,
        "isVefa": false
      },
      {
        "date": "2024-07-18",
        "priceEur": 138500,
        "typeLocal": "Appartement",
        "surfaceM2": 40,
        "isVefa": false
      },
      {
        "date": "2024-07-18",
        "priceEur": 138500,
        "typeLocal": "Appartement",
        "surfaceM2": 27,
        "isVefa": false
      },
      {
        "date": "2024-07-18",
        "priceEur": 138500,
        "typeLocal": "Appartement",
        "surfaceM2": 25,
        "isVefa": false
      }
    ]
  },
  "bc9686ffc63a": {
    "id": "bc9686ffc63a",
    "label": "7 RUE DU CAMBRESIS, Cambrai",
    "lat": 50.175424,
    "lng": 3.240696,
    "transactions": [
      {
        "date": "2024-07-25",
        "priceEur": 100800,
        "typeLocal": "Maison",
        "surfaceM2": 113,
        "isVefa": false
      }
    ]
  },
  "dcbdd800ae53": {
    "id": "dcbdd800ae53",
    "label": "7 RUE SAINT-NICOLAS, Cambrai",
    "lat": 50.17262,
    "lng": 3.23332,
    "transactions": [
      {
        "date": "2024-08-23",
        "priceEur": 134000,
        "typeLocal": "Maison",
        "surfaceM2": 90,
        "isVefa": false
      }
    ]
  },
  "63e3cb88b1e0": {
    "id": "63e3cb88b1e0",
    "label": "9 MAIL SAINT MARTIN, Cambrai",
    "lat": 50.175164,
    "lng": 3.233232,
    "transactions": [
      {
        "date": "2024-08-28",
        "priceEur": 210000,
        "typeLocal": "Maison",
        "surfaceM2": 76,
        "isVefa": false
      }
    ]
  },
  "1566fb73ce2b": {
    "id": "1566fb73ce2b",
    "label": "38 RUE SAINT-GEORGES, Cambrai",
    "lat": 50.170685,
    "lng": 3.234987,
    "transactions": [
      {
        "date": "2024-08-30",
        "priceEur": 485000,
        "typeLocal": "Appartement",
        "surfaceM2": 35,
        "isVefa": false
      },
      {
        "date": "2024-08-30",
        "priceEur": 485000,
        "typeLocal": "Appartement",
        "surfaceM2": 15,
        "isVefa": false
      },
      {
        "date": "2024-08-30",
        "priceEur": 485000,
        "typeLocal": "Appartement",
        "surfaceM2": 22,
        "isVefa": false
      },
      {
        "date": "2024-08-30",
        "priceEur": 485000,
        "typeLocal": "Appartement",
        "surfaceM2": 39,
        "isVefa": false
      },
      {
        "date": "2024-08-30",
        "priceEur": 485000,
        "typeLocal": "Appartement",
        "surfaceM2": 36,
        "isVefa": false
      },
      {
        "date": "2024-08-30",
        "priceEur": 485000,
        "typeLocal": "Appartement",
        "surfaceM2": 38,
        "isVefa": false
      }
    ]
  },
  "4e3387100992": {
    "id": "4e3387100992",
    "label": "41 IMP LOUIS BELMAS, Cambrai",
    "lat": 50.171011,
    "lng": 3.232971,
    "transactions": [
      {
        "date": "2024-08-19",
        "priceEur": 96000,
        "typeLocal": "Maison",
        "surfaceM2": 40,
        "isVefa": false
      },
      {
        "date": "2024-08-19",
        "priceEur": 96000,
        "typeLocal": "Maison",
        "surfaceM2": 136,
        "isVefa": false
      }
    ]
  },
  "40d1cd66f30b": {
    "id": "40d1cd66f30b",
    "label": "30 RUE DES CHAUDRONNIERS, Cambrai",
    "lat": 50.176085,
    "lng": 3.237216,
    "transactions": [
      {
        "date": "2024-08-27",
        "priceEur": 278000,
        "typeLocal": "Maison",
        "surfaceM2": 165,
        "isVefa": false
      }
    ]
  },
  "8f7ab224a0ed": {
    "id": "8f7ab224a0ed",
    "label": "4 RUE DES ANGES, Cambrai",
    "lat": 50.172455,
    "lng": 3.23504,
    "transactions": [
      {
        "date": "2024-09-24",
        "priceEur": 100000,
        "typeLocal": "Maison",
        "surfaceM2": 72,
        "isVefa": false
      }
    ]
  },
  "88e235bde02f": {
    "id": "88e235bde02f",
    "label": "22 RUE LEON GAMBETTA, Cambrai",
    "lat": 50.172919,
    "lng": 3.237625,
    "transactions": [
      {
        "date": "2024-10-04",
        "priceEur": 230000,
        "typeLocal": "Appartement",
        "surfaceM2": 125,
        "isVefa": false
      }
    ]
  },
  "e424c4ed5283": {
    "id": "e424c4ed5283",
    "label": "18 AV DE LA VICTOIRE, Cambrai",
    "lat": 50.174563,
    "lng": 3.23363,
    "transactions": [
      {
        "date": "2024-10-07",
        "priceEur": 310000,
        "typeLocal": "Appartement",
        "surfaceM2": 90,
        "isVefa": false
      }
    ]
  },
  "172addbeedbb": {
    "id": "172addbeedbb",
    "label": "23 AV DE LA VICTOIRE, Cambrai",
    "lat": 50.174042,
    "lng": 3.233873,
    "transactions": [
      {
        "date": "2024-11-18",
        "priceEur": 400000,
        "typeLocal": "Appartement",
        "surfaceM2": 27,
        "isVefa": false
      },
      {
        "date": "2024-11-18",
        "priceEur": 400000,
        "typeLocal": "Appartement",
        "surfaceM2": 96,
        "isVefa": false
      }
    ]
  },
  "471d125e8f56": {
    "id": "471d125e8f56",
    "label": "1 RUE DES FRERES MARSY, Cambrai",
    "lat": 50.175196,
    "lng": 3.237001,
    "transactions": [
      {
        "date": "2024-11-12",
        "priceEur": 270000,
        "typeLocal": "Appartement",
        "surfaceM2": 63,
        "isVefa": false
      },
      {
        "date": "2024-11-12",
        "priceEur": 270000,
        "typeLocal": "Appartement",
        "surfaceM2": 50,
        "isVefa": false
      }
    ]
  },
  "a27c7aac2bfa": {
    "id": "a27c7aac2bfa",
    "label": "1 BD FAIDHERBE, Cambrai",
    "lat": 50.175602,
    "lng": 3.239367,
    "transactions": [
      {
        "date": "2024-11-21",
        "priceEur": 171500,
        "typeLocal": "Appartement",
        "surfaceM2": 32,
        "isVefa": false
      },
      {
        "date": "2024-11-21",
        "priceEur": 171500,
        "typeLocal": "Appartement",
        "surfaceM2": 30,
        "isVefa": false
      }
    ]
  },
  "2011ee6ebe87": {
    "id": "2011ee6ebe87",
    "label": "4 PL VERTE, Cambrai",
    "lat": 50.175586,
    "lng": 3.230506,
    "transactions": [
      {
        "date": "2024-12-03",
        "priceEur": 170000,
        "typeLocal": "Appartement",
        "surfaceM2": 100,
        "isVefa": false
      },
      {
        "date": "2024-12-03",
        "priceEur": 170000,
        "typeLocal": "Appartement",
        "surfaceM2": 70,
        "isVefa": false
      }
    ]
  },
  "7eb688b798fd": {
    "id": "7eb688b798fd",
    "label": "25 RUE DU GRAND SEMINAIRE, Cambrai",
    "lat": 50.172872,
    "lng": 3.23201,
    "transactions": [
      {
        "date": "2024-12-09",
        "priceEur": 133000,
        "typeLocal": "Maison",
        "surfaceM2": 149,
        "isVefa": false
      }
    ]
  },
  "3a2fae549fef": {
    "id": "3a2fae549fef",
    "label": "9 RUE DES ROTISSEURS, Cambrai",
    "lat": 50.174947,
    "lng": 3.233636,
    "transactions": [
      {
        "date": "2024-12-30",
        "priceEur": 350000,
        "typeLocal": "Appartement",
        "surfaceM2": 74,
        "isVefa": false
      },
      {
        "date": "2024-12-30",
        "priceEur": 350000,
        "typeLocal": "Appartement",
        "surfaceM2": 67,
        "isVefa": false
      }
    ]
  },
  "4effc97a1e88": {
    "id": "4effc97a1e88",
    "label": "32 RUE ERNEST LEPOT, Cambrai",
    "lat": 50.173601,
    "lng": 3.234447,
    "transactions": [
      {
        "date": "2024-12-26",
        "priceEur": 155000,
        "typeLocal": "Appartement",
        "surfaceM2": 30,
        "isVefa": false
      },
      {
        "date": "2024-12-26",
        "priceEur": 155000,
        "typeLocal": "Appartement",
        "surfaceM2": 32,
        "isVefa": false
      },
      {
        "date": "2024-12-26",
        "priceEur": 155000,
        "typeLocal": "Appartement",
        "surfaceM2": 34,
        "isVefa": false
      }
    ]
  },
  "558880a917ba": {
    "id": "558880a917ba",
    "label": "6 PL DU NEUF OCTOBRE, Cambrai",
    "lat": 50.176539,
    "lng": 3.232916,
    "transactions": [
      {
        "date": "2025-01-09",
        "priceEur": 335000,
        "typeLocal": "Appartement",
        "surfaceM2": 45,
        "isVefa": false
      },
      {
        "date": "2025-01-09",
        "priceEur": 335000,
        "typeLocal": "Appartement",
        "surfaceM2": 40,
        "isVefa": false
      }
    ]
  },
  "5a29a17b0c27": {
    "id": "5a29a17b0c27",
    "label": "13 BD FAIDHERBE, Cambrai",
    "lat": 50.1767,
    "lng": 3.237877,
    "transactions": [
      {
        "date": "2025-02-06",
        "priceEur": 292900,
        "typeLocal": "Maison",
        "surfaceM2": 191,
        "isVefa": false
      }
    ]
  },
  "5472d175bb04": {
    "id": "5472d175bb04",
    "label": "7 RUE TAVELLE, Cambrai",
    "lat": 50.175224,
    "lng": 3.232042,
    "transactions": [
      {
        "date": "2025-02-20",
        "priceEur": 250000,
        "typeLocal": "Appartement",
        "surfaceM2": 39,
        "isVefa": false
      },
      {
        "date": "2025-02-20",
        "priceEur": 250000,
        "typeLocal": "Appartement",
        "surfaceM2": 9,
        "isVefa": false
      },
      {
        "date": "2025-02-20",
        "priceEur": 250000,
        "typeLocal": "Appartement",
        "surfaceM2": 49,
        "isVefa": false
      }
    ]
  },
  "7eaae466c0d5": {
    "id": "7eaae466c0d5",
    "label": "7 RUE LEON GAMBETTA, Cambrai",
    "lat": 50.173394,
    "lng": 3.237652,
    "transactions": [
      {
        "date": "2025-02-20",
        "priceEur": 210000,
        "typeLocal": "Maison",
        "surfaceM2": 136,
        "isVefa": false
      }
    ]
  },
  "0b0cecf5854d": {
    "id": "0b0cecf5854d",
    "label": "30 PL ARISTIDE BRIAND, Cambrai",
    "lat": 50.17586,
    "lng": 3.232773,
    "transactions": [
      {
        "date": "2025-03-25",
        "priceEur": 108300,
        "typeLocal": "Appartement",
        "surfaceM2": 80,
        "isVefa": false
      }
    ]
  },
  "ed312930461e": {
    "id": "ed312930461e",
    "label": "34 RUE DU GENERAL DE GAULLE, Cambrai",
    "lat": 50.175039,
    "lng": 3.238446,
    "transactions": [
      {
        "date": "2025-03-28",
        "priceEur": 270000,
        "typeLocal": "Appartement",
        "surfaceM2": 59,
        "isVefa": false
      },
      {
        "date": "2025-03-28",
        "priceEur": 270000,
        "typeLocal": "Appartement",
        "surfaceM2": 35,
        "isVefa": false
      },
      {
        "date": "2025-03-28",
        "priceEur": 270000,
        "typeLocal": "Appartement",
        "surfaceM2": 28,
        "isVefa": false
      }
    ]
  },
  "b49034b39393": {
    "id": "b49034b39393",
    "label": "23B PL DU NEUF OCTOBRE, Cambrai",
    "lat": 50.176702,
    "lng": 3.231846,
    "transactions": [
      {
        "date": "2025-04-18",
        "priceEur": 80000,
        "typeLocal": "Maison",
        "surfaceM2": 60,
        "isVefa": false
      }
    ]
  },