{
  "6f2c6f9c15e5": {
    "id": "6f2c6f9c15e5",
    "label": "7 RUE EDOUARD LALO, Béziers",
    "lat": 43.347263,
    "lng": 3.239984,
    "transactions": [
      {
        "date": "2020-07-20",
        "priceEur": 418000,
        "typeLocal": "Maison",
        "surfaceM2": 148,
        "isVefa": false
      }
    ]
  },
  "5ce7659b13a8": {
    "id": "5ce7659b13a8",
    "label": "9002 RUE EDOUARD LALO, Béziers",
    "lat": 43.346615,
    "lng": 3.239416,
    "transactions": [
      {
        "date": "2020-08-05",
        "priceEur": 170000,
        "typeLocal": "Maison",
        "surfaceM2": 81,
        "isVefa": false
      }
    ]
  },
  "a00126aa4073": {
    "id": "a00126aa4073",
    "label": "20B RUE FERDINAND DE LESSEPS, Béziers",
    "lat": 43.349021,
    "lng": 3.232689,
    "transactions": [
      {
        "date": "2020-08-14",
        "priceEur": 182000,
        "typeLocal": "Maison",
        "surfaceM2": 106,
        "isVefa": false
      }
    ]
  },
  "91c059592cf0": {
    "id": "91c059592cf0",
    "label": "5 IMP PAUL FORT, Béziers",
    "lat": 43.347936,
    "lng": 3.231269,
    "transactions": [
      {
        "date": "2023-02-16",
        "priceEur": 119920,
        "typeLocal": "Appartement",
        "surfaceM2": 71,
        "isVefa": false
      },
      {
        "date": "2023-02-15",
        "priceEur": 90000,
        "typeLocal": "Appartement",
        "surfaceM2": 71,
        "isVefa": false
      },
      {
        "date": "2020-08-25",
        "priceEur": 70000,
        "typeLocal": "Appartement",
        "surfaceM2": 71,
        "isVefa": false
      }
    ]
  },
  "5b35ddae6ba7": {
    "id": "5b35ddae6ba7",
    "label": "15 RUE JACQUES RENOUVIN, Béziers",
    "lat": 43.348723,
    "lng": 3.238072,
    "transactions": [
      {
        "date": "2020-08-31",
        "priceEur": 255000,
        "typeLocal": "Maison",
        "surfaceM2": 182,
        "isVefa": false
      }
    ]
  },
  "0d7377b6f87a": {
    "id": "0d7377b6f87a",
    "label": "5 AV DES MARTYRS DE LA RESISTCE, Béziers",
    "lat": 43.342054,
    "lng": 3.232174,
    "transactions": [
      {
        "date": "2025-03-18",
        "priceEur": 46162,
        "typeLocal": "Appartement",
        "surfaceM2": 22,
        "isVefa": false
      },
      {
        "date": "2025-01-30",
        "priceEur": 65000,
        "typeLocal": "Appartement",
        "surfaceM2": 40,
        "isVefa": false
      },
      {
        "date": "2024-12-09",
        "priceEur": 70000,
        "typeLocal": "Appartement",
        "surfaceM2": 46,
        "isVefa": false
      },
      {
        "date": "2024-12-09",
        "priceEur": 70000,
        "typeLocal": "Appartement",
        "surfaceM2": 36,
        "isVefa": false
      },
      {
        "date": "2024-11-08",
        "priceEur": 63000,
        "typeLocal": "Appartement",
        "surfaceM2": 46,
        "isVefa": false
      },
      {
        "date": "2024-11-08",
        "priceEur": 63000,
        "typeLocal": "Appartement",
        "surfaceM2": 36,
        "isVefa": false
      },
      {
        "date": "2023-10-12",
        "priceEur": 67300,
        "typeLocal": "Appartement",
        "surfaceM2": 36,
        "isVefa": false
      },
      {
        "date": "2022-05-23",
        "priceEur": 64300,
        "typeLocal": "Appartement",
        "surfaceM2": 23,
        "isVefa": false
      },
      {
        "date": "2020-09-01",
        "priceEur": 66000,
        "typeLocal": "Appartement",
        "surfaceM2": 67,
        "isVefa": false
      }
    ]
  },
  "3223f003349a": {
    "id": "3223f003349a",
    "label": "9 RUE JACQUES RENOUVIN, Béziers",
    "lat": 43.349133,
    "lng": 3.237708,
    "transactions": [
      {
        "date": "2020-09-17",
        "priceEur": 127000,
        "typeLocal": "Appartement",
        "surfaceM2": 50,
        "isVefa": false
      }
    ]
  },
  "02813ea2df2f": {
    "id": "02813ea2df2f",
    "label": "26 RUE LOUIS BERTILLON, Béziers",
    "lat": 43.343039,
    "lng": 3.231572,
    "transactions": [
      {
        "date": "2020-10-15",
        "priceEur": 125000,
        "typeLocal": "Maison",
        "surfaceM2": 73,
        "isVefa": false
      }
    ]
  },
  "cb0f4c8b4d95": {
    "id": "cb0f4c8b4d95",
    "label": "34 RUE FERDINAND DE LESSEPS, Béziers",
    "lat": 43.348252,
    "lng": 3.233317,
    "transactions": [
      {
        "date": "2020-10-29",
        "priceEur": 120000,
        "typeLocal": "Appartement",
        "surfaceM2": 40,
        "isVefa": false
      },
      {
        "date": "2020-10-29",
        "priceEur": 120000,
        "typeLocal": "Appartement",
        "surfaceM2": 60,
        "isVefa": false
      }
    ]
  },
  "03f7d536ec58": {
    "id": "03f7d536ec58",
    "label": "7 RUE PIERRE BROSSOLETTE, Béziers",
    "lat": 43.347924,
    "lng": 3.237724,
    "transactions": [
      {
        "date": "2020-10-30",
        "priceEur": 170000,
        "typeLocal": "Appartement",
        "surfaceM2": 77,
        "isVefa": false
      },
      {
        "date": "2020-10-30",
        "priceEur": 170000,
        "typeLocal": "Appartement",
        "surfaceM2": 56,
        "isVefa": false
      }
    ]
  },
  "8269d149d03d": {
    "id": "8269d149d03d",
    "label": "21 RUE FRANCISQUE SARCEY, Béziers",
    "lat": 43.348269,
    "lng": 3.23176,
    "transactions": [
      {
        "date": "2023-12-13",
        "priceEur": 163300,
        "typeLocal": "Appartement",
        "surfaceM2": 69,
        "isVefa": false
      },
      {
        "date": "2020-11-13",
        "priceEur": 99510,
        "typeLocal": "Appartement",
        "surfaceM2": 44,
        "isVefa": false
      }
    ]
  },
  "23b667639615": {
    "id": "23b667639615",
    "label": "3 IMP PAUL FORT, Béziers",
    "lat": 43.347936,
    "lng": 3.231269,
    "transactions": [
      {
        "date": "2024-09-09",
        "priceEur": 103000,
        "typeLocal": "Appartement",
        "surfaceM2": 80,
        "isVefa": false
      },
      {
        "date": "2024-06-26",
        "priceEur": 70000,
        "typeLocal": "Appartement",
        "surfaceM2": 80,
        "isVefa": false
      },
      {
        "date": "2022-11-15",
        "priceEur": 80000,
        "typeLocal": "Appartement",
        "surfaceM2": 79,
        "isVefa": false
      },
      {
        "date": "2021-12-01",
        "priceEur": 66500,
        "typeLocal": "Appartement",
        "surfaceM2": 80,
        "isVefa": false
      },
      {
        "date": "2020-11-09",
        "priceEur": 86000,
        "typeLocal": "Appartement",
        "surfaceM2": 89,
        "isVefa": false
      }
    ]
  },
  "e7697f782f86": {
    "id": "e7697f782f86",
    "label": "34 AV PIERRE VERDIER, Béziers",
    "lat": 43.344394,
    "lng": 3.231606,
    "transactions": [
      {
        "date": "2020-11-24",
        "priceEur": 265000,
        "typeLocal": "Appartement",
        "surfaceM2": 70,
        "isVefa": false
      },
      {
        "date": "2020-11-24",
        "priceEur": 265000,
        "typeLocal": "Appartement",
        "surfaceM2": 24,
        "isVefa": false
      },
      {
        "date": "2020-11-24",
        "priceEur": 265000,
        "typeLocal": "Appartement",
        "surfaceM2": 22,
        "isVefa": false
      }
    ]
  },
  "85b11729d5ff": {
    "id": "85b11729d5ff",
    "label": "16 RUE LOUIS MALBOSC, Béziers",
    "lat": 43.346949,
    "lng": 3.237552,
    "transactions": [
      {
        "date": "2020-11-20",
        "priceEur": 174000,
        "typeLocal": "Maison",
        "surfaceM2": 76,
        "isVefa": false
      }
    ]
  },
  "f159f0f4d793": {
    "id": "f159f0f4d793",
    "label": "14 RUE CHARLES LECOCQ, Béziers",
    "lat": 43.348561,
    "lng": 3.239757,
    "transactions": [
      {
        "date": "2020-12-08",
        "priceEur": 208000,
        "typeLocal": "Maison",
        "surfaceM2": 100,
        "isVefa": false
      }
    ]
  },
  "71231e841de4": {
    "id": "71231e841de4",
    "label": "6 RUE CHARLES PEGUY, Béziers",
    "lat": 43.347534,
    "lng": 3.2308,
    "transactions": [
      {
        "date": "2022-01-27",
        "priceEur": 97000,
        "typeLocal": "Appartement",
        "surfaceM2": 83,
        "isVefa": false
      },
      {
        "date": "2020-12-17",
        "priceEur": 105000,
        "typeLocal": "Maison",
        "surfaceM2": 58,
        "isVefa": false
      }
    ]
  },
  "b0582c371d46": {
    "id": "b0582c371d46",
    "label": "1 RUE LOUIS CHEVALIER, Béziers",
    "lat": 43.347532,
    "lng": 3.240782,
    "transactions": [
      {
        "date": "2020-12-11",
        "priceEur": 200000,
        "typeLocal": "Maison",
        "surfaceM2": 107,
        "isVefa": false
      }
    ]
  },
  "dca796ddc7a2": {
    "id": "dca796ddc7a2",
    "label": "9 RUE PIERRE BROSSOLETTE, Béziers",
    "lat": 43.347979,
    "lng": 3.237801,
    "transactions": [
      {
        "date": "2020-12-23",
        "priceEur": 225000,
        "typeLocal": "Maison",
        "surfaceM2": 87,
        "isVefa": false
      }
    ]
  },
  "8ac215e3c548": {
    "id": "8ac215e3c548",
    "label": "3 BD DOCTEUR MOURRUT, Béziers",
    "lat": 43.347367,
    "lng": 3.233161,
    "transactions": [
      {
        "date": "2020-12-18",
        "priceEur": 55000,
        "typeLocal": "Maison",
        "surfaceM2": 36,
        "isVefa": false
      }
    ]
  },
  "9023e4a59fa1": {
    "id": "9023e4a59fa1",
    "label": "30 AV PIERRE VERDIER, Béziers",
    "lat": 43.344267,
    "lng": 3.231361,
    "transactions": [
      {
        "date": "2020-12-16",
        "priceEur": 301917,
        "typeLocal": "Maison",
        "surfaceM2": 184,
        "isVefa": false
      }
    ]
  },
  "61e9a4cb68d9": {
    "id": "61e9a4cb68d9",
    "label": "19 BD FRANCISQUE SARCEY, Béziers",
    "lat": 43.347889,
    "lng": 3.231855,
    "transactions": [
      {
        "date": "2025-01-28",
        "priceEur": 103000,
        "typeLocal": "Appartement",
        "surfaceM2": 44,
        "isVefa": false
      },
      {
        "date": "2023-04-12",
        "priceEur": 95500,
        "typeLocal": "Appartement",
        "surfaceM2": 37,
        "isVefa": false
      },
      {
        "date": "2022-04-25",
        "priceEur": 306000,
        "typeLocal": "Appartement",
        "surfaceM2": 111,
        "isVefa": false
      },
      {
        "date": "2022-03-04",
        "priceEur": 282450,
        "typeLocal": "Appartement",
        "surfaceM2": 113,
        "isVefa": false
      },
      {
        "date": "2020-12-28",
        "priceEur": 150000,
        "typeLocal": "Appartement",
        "surfaceM2": 66,
        "isVefa": false
      }
    ]
  },
  "d50d432b7ce8": {
    "id": "d50d432b7ce8",
    "label": "9 AV DES MARTYRS DE LA RESISTCE, Béziers",
    "lat": 43.342461,
    "lng": 3.232936,
    "transactions": [
      {
        "date": "2023-09-14",
        "priceEur": 255000,
        "typeLocal": "Maison",
        "surfaceM2": 102,
        "isVefa": false
      },
      {
        "date": "2021-02-03",
        "priceEur": 180000,
        "typeLocal": "Maison",
        "surfaceM2": 102,
        "isVefa": false
      }
    ]
  },
  "d9f8b64e3561": {
    "id": "d9f8b64e3561",
    "label": "33 AV JEAN CONSTANS, Béziers",
    "lat": 43.341679,
    "lng": 3.231812,
    "transactions": [
      {
        "date": "2021-02-23",
        "priceEur": 145000,
        "typeLocal": "Maison",
        "surfaceM2": 74,
        "isVefa": false
      }
    ]
  },
  "21bcf2d605c6": {
    "id": "21bcf2d605c6",
    "label": "10 RUE PIERRE BROSSOLETTE, Béziers",
    "lat": 43.347465,
    "lng": 3.237547,
    "transactions": [
      {
        "date": "2021-02-10",
        "priceEur": 145000,
        "typeLocal": "Maison",
        "surfaceM2": 86,
        "isVefa": false
      }
    ]
  },
  "eb3187667d3b": {
    "id": "eb3187667d3b",
    "label": "21 RUE DUPUYTREN, Béziers",
    "lat": 43.344202,
    "lng": 3.23273,
    "transactions": [
      {
        "date": "2021-02-17",
        "priceEur": 231400,
        "typeLocal": "Maison",
        "surfaceM2": 134,
        "isVefa": false
      }
    ]
  },
  "9546a1639bdc": {
    "id": "9546a1639bdc",
    "label": "10 RUE DES LILAS, Béziers",
    "lat": 43.341167,
    "lng": 3.230354,
    "transactions": [
      {
        "date": "2021-02-17",
        "priceEur": 170000,
        "typeLocal": "Maison",
        "surfaceM2": 90,
        "isVefa": false
      }
    ]
  },
  "dbdc6692be1e": {
    "id": "dbdc6692be1e",
    "label": "2 RUE EDOUARD LALO, Béziers",
    "lat": 43.347652,
    "lng": 3.239648,
    "transactions": [
      {
        "date": "2021-02-02",
        "priceEur": 190000,
        "typeLocal": "Maison",
        "surfaceM2": 110,
        "isVefa": false
      }
    ]
  },
  "40c8b501c138": {
    "id": "40c8b501c138",
    "label": "2 IMP JULES SUPERVIELLE, Béziers",
    "lat": 43.347405,
    "lng": 3.231733,
    "transactions": [
      {
        "date": "2023-03-09",
        "priceEur": 120000,
        "typeLocal": "Appartement",
        "surfaceM2": 85,
        "isVefa": false
      },
      {
        "date": "2022-03-11",
        "priceEur": 99000,
        "typeLocal": "Appartement",
        "surfaceM2": 72,
        "isVefa": false
      },
      {
        "date": "2021-02-03",
        "priceEur": 85000,
        "typeLocal": "Appartement",
        "surfaceM2": 83,
        "isVefa": false
      }
    ]
  },
  "d2f18b2cf1b1": {
    "id": "d2f18b2cf1b1",
    "label": "37 RUE LOUIS MALBOSC, Béziers",
    "lat": 43.3483,
    "lng": 3.235125,
    "transactions": [
      {
        "date": "2021-04-02",
        "priceEur": 108000,
        "typeLocal": "Maison",
        "surfaceM2": 50,
        "isVefa": false
      }
    ]
  },
  "556950a840f8": {
    "id": "556950a840f8",
    "label": "9 BD MARECHAL LECLERC, Béziers",
    "lat": 43.34218,
    "lng": 3.237157,
    "transactions": [
      {
        "date": "2024-06-20",
        "priceEur": 77000,
        "typeLocal": "Appartement",
        "surfaceM2": 52,
        "isVefa": false
      },
      {
        "date": "2021-12-30",
        "priceEur": 55000,
        "typeLocal": "Appartement",
        "surfaceM2": 52,
        "isVefa": false
      },
      {
        "date": "2021-10-12",
        "priceEur": 55000,
        "typeLocal": "Appartement",
        "surfaceM2": 52,
        "isVefa": false
      },
      {
        "date": "2021-03-26",
        "priceEur": 73800,
        "typeLocal": "Appartement",
        "surfaceM2": 78,
        "isVefa": false
      }
    ]
  },
  "c539e1adff19": {
    "id": "c539e1adff19",
    "label": "20 BD YVES NAT, Béziers",
    "lat": 43.34868,
    "lng": 3.230258,
    "transactions": [
      {
        "date": "2021-03-25",
        "priceEur": 28000,
        "typeLocal": "Appartement",
        "surfaceM2": 25,
        "isVefa": false
      }
    ]
  },
  "32e46a94b306": {
    "id": "32e46a94b306",
    "label": "8 RUE MICHEL DE LAMBERT, Béziers",
    "lat": 43.346184,
    "lng": 3.237371,
    "transactions": [
      {
        "date": "2021-03-29",
        "priceEur": 154151,
        "typeLocal": "Maison",
        "surfaceM2": 70,
        "isVefa": false
      }
    ]
  },
  "c59b5c7903ee": {
    "id": "c59b5c7903ee",
    "label": "11 RUE ALBERT EINSTEIN, Béziers",
    "lat": 43.342476,
    "lng": 3.232738,
    "transactions": [
      {
        "date": "2021-04-09",
        "priceEur": 166000,
        "typeLocal": "Appartement",
        "surfaceM2": 57,
        "isVefa": false
      },
      {
        "date": "2021-04-09",
        "priceEur": 166000,
        "typeLocal": "Appartement",
        "surfaceM2": 53,
        "isVefa": false
      }
    ]
  },
  "eb03f01f187b": {
    "id": "eb03f01f187b",
    "label": "36 AV AUGUSTE ALBERTINI, Béziers",
    "lat": 43.348716,
    "lng": 3.235661,
    "transactions": [
      {
        "date": "2021-04-29",
        "priceEur": 265000,
        "typeLocal": "Appartement",
        "surfaceM2": 82,
        "isVefa": false
      },
      {
        "date": "2021-04-29",
        "priceEur": 265000,
        "typeLocal": "Appartement",
        "surfaceM2": 110,
        "isVefa": false
      }
    ]
  },
  "9cf18b327c46": {
    "id": "9cf18b327c46",
    "label": "11 RUE PIERRE BROSSOLETTE, Béziers",
    "lat": 43.348033,
    "lng": 3.237894,
    "transactions": [
      {
        "date": "2021-05-17",
        "priceEur": 143000,
        "typeLocal": "Maison",
        "surfaceM2": 73,
        "isVefa": false
      }
    ]
  },
  "c98117e409a4": {
    "id": "c98117e409a4",
    "label": "3 RUE RENE FOURNIER, Béziers",
    "lat": 43.347811,
    "lng": 3.234235,
    "transactions": [
      {
        "date": "2021-06-02",
        "priceEur": 219000,
        "typeLocal": "Appartement",
        "surfaceM2": 44,
        "isVefa": false
      },
      {
        "date": "2021-06-02",
        "priceEur": 219000,
        "typeLocal": "Appartement",
        "surfaceM2": 58,
        "isVefa": false
      },
      {
        "date": "2021-06-02",
        "priceEur": 219000,
        "typeLocal": "Appartement",
        "surfaceM2": 52,
        "isVefa": false
      },
      {
        "date": "2021-06-02",
        "priceEur": 219000,
        "typeLocal": "Appartement",
        "surfaceM2": 55,
        "isVefa": false
      }
    ]
  },
  "a52ab8005f2f": {
    "id": "a52ab8005f2f",
    "label": "10 RUE JACQUES RENOUVIN, Béziers",
    "lat": 43.348972,
    "lng": 3.237206,
    "transactions": [
      {
        "date": "2021-07-01",
        "priceEur": 174500,
        "typeLocal": "Appartement",
        "surfaceM2": 95,
        "isVefa": false
      },
      {
        "date": "2021-07-01",
        "priceEur": 174500,
        "typeLocal": "Appartement",
        "surfaceM2": 40,
        "isVefa": false
      }
    ]
  },
  "627d4f5aca2d": {
    "id": "627d4f5aca2d",
    "label": "4 RUE RENE FOURNIER, Béziers",
    "lat": 43.347728,
    "lng": 3.233923,
    "transactions": [
      {
        "date": "2021-08-30",
        "priceEur": 79000,
        "typeLocal": "Maison",
        "surfaceM2": 60,
        "isVefa": false
      }
    ]
  },
  "b8606518cfdf": {
    "id": "b8606518cfdf",
    "label": "2 RUE OCTAVE MIRBEAU, Béziers",
    "lat": 43.347877,
    "lng": 3.230281,
    "transactions": [
      {
        "date": "2021-09-03",
        "priceEur": 167000,
        "typeLocal": "Appartement",
        "surfaceM2": 65,
        "isVefa": false
      },
      {
        "date": "2021-09-03",
        "priceEur": 167000,
        "typeLocal": "Appartement",
        "surfaceM2": 76,
        "isVefa": false
      }
    ]
  },
  "c4d1154a083d": {
    "id": "c4d1154a083d",
    "label": "22 BD YVES NAT, Béziers",
    "lat": 43.348952,
    "lng": 3.230346,
    "transactions": [
      {
        "date": "2021-09-14",
        "priceEur": 271000,
        "typeLocal": "Maison",
        "surfaceM2": 140,
        "isVefa": false
      }
    ]
  },
  "8aa45b261219": {
    "id": "8aa45b261219",
    "label": "15 RUE BERNARD D AURIAC, Béziers",
    "lat": 43.347799,
    "lng": 3.234514,
    "transactions": [
      {
        "date": "2021-09-13",
        "priceEur": 220000,
        "typeLocal": "Maison",
        "surfaceM2": 126,
        "isVefa": false
      }
    ]
  },
  "ed021889963f": {
    "id": "ed021889963f",
    "label": "6 RUE ALBERT ROUSSEL, Béziers",
    "lat": 43.347399,
    "lng": 3.240332,
    "transactions": [
      {
        "date": "2021-09-16",
        "priceEur": 311600,
        "typeLocal": "Maison",
        "surfaceM2": 115,
        "isVefa": false
      }
    ]
  },
  "ab5d7cbcb9da": {
    "id": "ab5d7cbcb9da",
    "label": "7 RUE PIERRE MARIVAUX, Béziers",
    "lat": 43.348964,
    "lng": 3.230677,
    "transactions": [
      {
        "date": "2021-09-22",
        "priceEur": 225800,
        "typeLocal": "Maison",
        "surfaceM2": 79,
        "isVefa": false
      }
    ]
  },
  "0b3c8b5fd1e3": {
    "id": "0b3c8b5fd1e3",
    "label": "11 RUE ALBERT DEPORT, Béziers",
    "lat": 43.341865,
    "lng": 3.240498,
    "transactions": [
      {
        "date": "2021-11-05",
        "priceEur": 154645,
        "typeLocal": "Maison",
        "surfaceM2": 82,
        "isVefa": false
      }
    ]
  },
  "5f279a9dd9ad": {
    "id": "5f279a9dd9ad",
    "label": "2B AV AUGUSTE ALBERTINI, Béziers",
    "lat": 43.347262,
    "lng": 3.232529,
    "transactions": [
      {
        "date": "2024-07-04",
        "priceEur": 150000,
        "typeLocal": "Appartement",
        "surfaceM2": 55,
        "isVefa": false
      },
      {
        "date": "2024-06-10",
        "priceEur": 149000,
        "typeLocal": "Appartement",
        "surfaceM2": 54,
        "isVefa": false
      },
      {
        "date": "2024-01-31",
        "priceEur": 98000,
        "typeLocal": "Appartement",
        "surfaceM2": 42,
        "isVefa": false
      },
      {
        "date": "2023-12-13",
        "priceEur": 57000,
        "typeLocal": "Appartement",
        "surfaceM2": 24,
        "isVefa": false
      },
      {
        "date": "2023-08-24",
        "priceEur": 105000,
        "typeLocal": "Appartement",
        "surfaceM2": 41,
        "isVefa": false
      },
      {
        "date": "2023-07-25",
        "priceEur": 69000,
        "typeLocal": "Appartement",
        "surfaceM2": 41,
        "isVefa": false
      },
      {
        "date": "2023-04-24",
        "priceEur": 87000,
        "typeLocal": "Appartement",
        "surfaceM2": 38,
        "isVefa": false
      },
      {
        "date": "2023-02-20",
        "priceEur": 99000,
        "typeLocal": "Appartement",
        "surfaceM2": 41,
        "isVefa": false
      },
      {
        "date": "2023-01-25",
        "priceEur": 90000,
        "typeLocal": "Appartement",
        "surfaceM2": 41,
        "isVefa": false
      },
      {
        "date": "2022-12-28",
        "priceEur": 93000,
        "typeLocal": "Appartement",
        "surfaceM2": 41,
        "isVefa": false
      },
      {
        "date": "2021-10-19",
        "priceEur": 65000,
        "typeLocal": "Appartement",
        "surfaceM2": 41,
        "isVefa": false
      }
    ]
  },
  "5c8a75525fe7": {
    "id": "5c8a75525fe7",
    "label": "31 RUE CLAUDE BERNARD, Béziers",
    "lat": 43.342744,
    "lng": 3.231961,
    "transactions": [
      {
        "date": "2024-07-25",
        "priceEur": 190000,
        "typeLocal": "Appartement",
        "surfaceM2": 78,
        "isVefa": false
      },
      {
        "date": "2024-03-18",
        "priceEur": 122000,
        "typeLocal": "Appartement",
        "surfaceM2": 78,
        "isVefa": false
      },
      {
        "date": "2021-10-20",
        "priceEur": 153000,
        "typeLocal": "Appartement",
        "surfaceM2": 64,
        "isVefa": false
      }
    ]
  },
  "e3004333ec35": {
    "id": "e3004333ec35",
    "label": "9 RUE LOUIS FONOLL, Béziers",
    "lat": 43.344336,
    "lng": 3.237416,
    "transactions": [
      {
        "date": "2022-01-27",
        "priceEur": 182000,
        "typeLocal": "Maison",
        "surfaceM2": 78,
        "isVefa": false
      }
    ]
  },
  "7cbc10adc259": {
    "id": "7cbc10adc259",
    "label": "2 RUE JEAN BAPTISTE LEBAS, Béziers",
    "lat": 43.348237,
    "lng": 3.235976,
    "transactions": [
      {
        "date": "2022-01-28",
        "priceEur": 376000,
        "typeLocal": "Maison",
        "surfaceM2": 160,
        "isVefa": false
      }
    ]
  },
  "e30ce17162f3": {
    "id": "e30ce17162f3",
    "label": "3 PL YVONNE LE ROUX, Béziers",
    "lat": 43.348672,
    "lng": 3.236631,
    "transactions": [
      {
        "date": "2022-02-15",
        "priceEur": 187500,
        "typeLocal": "Maison",
        "surfaceM2": 112,
        "isVefa": false
      }
    ]
  },
  "f1e7c2df26e3": {
    "id": "f1e7c2df26e3",
    "label": "1 RUE FREDERIC BERARD, Béziers",
    "lat": 43.343376,
    "lng": 3.23078,
    "transactions": [
      {
        "date": "2022-03-11",
        "priceEur": 173100,
        "typeLocal": "Maison",
        "surfaceM2": 91,
        "isVefa": false
      }
    ]
  },
  "959cd4f9ad54": {
    "id": "959cd4f9ad54",
    "label": "13 RUE DES LILAS, Béziers",
    "lat": 43.341315,
    "lng": 3.230027,
    "transactions": [
      {
        "date": "2022-04-22",
        "priceEur": 230000,
        "typeLocal": "Maison",
        "surfaceM2": 95,
        "isVefa": false
      }
    ]
  },
  "2dfdf64484e4": {
    "id": "2dfdf64484e4",
    "label": "7 RUE ROBERT KELLER, Béziers",
    "lat": 43.348493,
    "lng": 3.235793,
    "transactions": [
      {
        "date": "2025-02-26",
        "priceEur": 116000,
        "typeLocal": "Appartement",
        "surfaceM2": 60,
        "isVefa": false
      },
      {
        "date": "2022-04-21",
        "priceEur": 80000,
        "typeLocal": "Appartement",
        "surfaceM2": 95,
        "isVefa": false
      }
    ]
  },
  "9f1fa2e5325e": {
    "id": "9f1fa2e5325e",
    "label": "8 RUE JACQUES RENOUVIN, Béziers",
    "lat": 43.349065,
    "lng": 3.237127,
    "transactions": [
      {
        "date": "2022-04-27",
        "priceEur": 229000,
        "typeLocal": "Maison",
        "surfaceM2": 96,
        "isVefa": false
      }
    ]
  },
  "16b33eb113e7": {
    "id": "16b33eb113e7",
    "label": "7 AV AUGUSTE ALBERTINI, Béziers",
    "lat": 43.347309,
    "lng": 3.231005,
    "transactions": [
      {
        "date": "2022-07-04",
        "priceEur": 225000,
        "typeLocal": "Maison",
        "surfaceM2": 162,
        "isVefa": false
      }
    ]
  },
  "18fe0d46822d": {
    "id": "18fe0d46822d",
    "label": "12 RUE LOUIS BERTILLON, Béziers",
    "lat": 43.342515,
    "lng": 3.231142,
    "transactions": [
      {
        "date": "2022-08-09",
        "priceEur": 300400,
        "typeLocal": "Maison",
        "surfaceM2": 113,
        "isVefa": false
      }
    ]
  },
  "6fddec1c5ac0": {
    "id": "6fddec1c5ac0",
    "label": "14 BD YVES NAT, Béziers",
    "lat": 43.34812,
    "lng": 3.230258,
    "transactions": [
      {
        "date": "2022-08-05",
        "priceEur": 249000,
        "typeLocal": "Maison",
        "surfaceM2": 130,
        "isVefa": false
      }
    ]
  },
  "658c62138dc5": {
    "id": "658c62138dc5",
    "label": "43 RUE CLAUDE BERNARD, Béziers",
    "lat": 43.342014,
    "lng": 3.231437,
    "transactions": [
      {
        "date": "2022-08-08",
        "priceEur": 397000,
        "typeLocal": "Maison",
        "surfaceM2": 90,
        "isVefa": false
      }
    ]
  },
  "ebcbbd4a8acf": {
    "id": "ebcbbd4a8acf",
    "label": "6 RUE PIERRE ASTRIE, Béziers",
    "lat": 43.343692,
    "lng": 3.237299,
    "transactions": [
      {
        "date": "2022-08-31",
        "priceEur": 148000,
        "typeLocal": "Maison",
        "surfaceM2": 55,
        "isVefa": false
      }
    ]
  },
  "8e84af31c6a4": {
    "id": "8e84af31c6a4",
    "label": "19 BD MARECHAL LECLERC, Béziers",
    "lat": 43.344803,
    "lng": 3.238305,
    "transactions": [
      {
        "date": "2022-10-10",
        "priceEur": 173000,
        "typeLocal": "Maison",
        "surfaceM2": 70,
        "isVefa": false
      }
    ]
  },
  "263e262dc833": {
    "id": "263e262dc833",
    "label": "1 IMP JULES SUPERVIELLE, Béziers",
    "lat": 43.347405,
    "lng": 3.231733,
    "transactions": [
      {
        "date": "2022-09-29",
        "priceEur": 154000,
        "typeLocal": "Appartement",
        "surfaceM2": 81,
        "isVefa": false
      }
    ]
  },
  "240de113c518": {
    "id": "240de113c518",
    "label": "29 AV AUGUSTE ALBERTINI, Béziers",
    "lat": 43.348843,
    "lng": 3.235082,
    "transactions": [
      {
        "date": "2022-10-14",
        "priceEur": 195000,
        "typeLocal": "Maison",
        "surfaceM2": 90,
        "isVefa": false
      }
    ]
  },
  "4eb02b7373f7": {
    "id": "4eb02b7373f7",
    "label": "1 RUE DUPUYTREN, Béziers",
    "lat": 43.343997,
    "lng": 3.23079,
    "transactions": [
      {
        "date": "2022-10-20",
        "priceEur": 435820,
        "typeLocal": "Maison",
        "surfaceM2": 200,
        "isVefa": false
      }
    ]
  },
  "a54fb4eac3e9": {
    "id": "a54fb4eac3e9",
    "label": "36 RUE CLAUDE BERNARD, Béziers",
    "lat": 43.34216,
    "lng": 3.231096,
    "transactions": [
      {
        "date": "2022-11-02",
        "priceEur": 402400,
        "typeLocal": "Maison",
        "surfaceM2": 168,
        "isVefa": false
      }
    ]
  },
  "ac944507de84": {
    "id": "ac944507de84",
    "label": "29 AV JEAN CONSTANS, Béziers",
    "lat": 43.341831,
    "lng": 3.231649,
    "transactions": [
      {
        "date": "2022-11-07",
        "priceEur": 295000,
        "typeLocal": "Maison",
        "surfaceM2": 120,
        "isVefa": false
      }
    ]
  },
  "9771dc144c27": {
    "id": "9771dc144c27",
    "label": "33 RUE CLAUDE BERNARD, Béziers",
    "lat": 43.342532,
    "lng": 3.231821,
    "transactions": [
      {
        "date": "2022-11-30",
        "priceEur": 287100,
        "typeLocal": "Maison",
        "surfaceM2": 96,
        "isVefa": false
      }
    ]
  },
  "ed656c7d5b36": {
    "id": "ed656c7d5b36",
    "label": "3 RUE LOUIS BERTILLON, Béziers",
    "lat": 43.342438,
    "lng": 3.230448,
    "transactions": [
      {
        "date": "2022-11-30",
        "priceEur": 200000,
        "typeLocal": "Maison",
        "surfaceM2": 97,
        "isVefa": false
      }
    ]
  },
  "686ac4d5f4fb": {
    "id": "686ac4d5f4fb",
    "label": "11 RUE PIERRE MARIVAUX, Béziers",
    "lat": 43.349144,
    "lng": 3.230831,
    "transactions": [
      {
        "date": "2022-12-22",
        "priceEur": 260000,
        "typeLocal": "Maison",
        "surfaceM2": 75,
        "isVefa": false
      }
    ]
  },
  "1d586280997d": {
    "id": "1d586280997d",
    "label": "44 AV PIERRE VERDIER, Béziers",
    "lat": 43.344417,
    "lng": 3.232523,
    "transactions": [
      {
        "date": "2023-01-03",
        "priceEur": 160600,
        "typeLocal": "Appartement",
        "surfaceM2": 55,
        "isVefa": false
      },
      {
        "date": "2023-01-03",
        "priceEur": 160600,
        "typeLocal": "Appartement",
        "surfaceM2": 80,
        "isVefa": false
      }
    ]
  },
  "bdafe8afea4a": {
    "id": "bdafe8afea4a",
    "label": "18 RUE OCTAVE MIRBEAU, Béziers",
    "lat": 43.348404,
    "lng": 3.231198,
    "transactions": [
      {
        "date": "2023-02-18",
        "priceEur": 265000,
        "typeLocal": "Maison",
        "surfaceM2": 190,
        "isVefa": false
      }
    ]
  },
  "2f6809ff4649": {
    "id": "2f6809ff4649",
    "label": "4 RUE PIERRE BROSSOLETTE, Béziers",
    "lat": 43.347247,
    "lng": 3.237168,
    "transactions": [
      {
        "date": "2023-02-21",
        "priceEur": 216870,
        "typeLocal": "Maison",
        "surfaceM2": 87,
        "isVefa": false
      }
    ]
  },
  "c45eac008292": {
    "id": "c45eac008292",
    "label": "4 RUE LOUIS FONOLL, Béziers",
    "lat": 43.34473,
    "lng": 3.238077,
    "transactions": [
      {
        "date": "2023-03-20",
        "priceEur": 162800,
        "typeLocal": "Maison",
        "surfaceM2": 67,
        "isVefa": false
      }
    ]
  },
  "9ced012735ae": {
    "id": "9ced012735ae",
    "label": "25 RUE CLAUDE BERNARD, Béziers",
    "lat": 43.343082,
    "lng": 3.231968,
    "transactions": [
      {
        "date": "2023-03-22",
        "priceEur": 515000,
        "typeLocal": "Maison",
        "surfaceM2": 101,
        "isVefa": true
      }
    ]
  },
  "2b2028d7505b": {
    "id": "2b2028d7505b",
    "label": "20 RUE LOUIS BERTILLON, Béziers",
    "lat": 43.342822,
    "lng": 3.231515,
    "transactions": [
      {
        "date": "2025-03-04",
        "priceEur": 148450,
        "typeLocal": "Maison",
        "surfaceM2": 48,
        "isVefa": false
      },
      {
        "date": "2023-04-12",
        "priceEur": 133450,
        "typeLocal": "Maison",
        "surfaceM2": 48,
        "isVefa": false
      }
    ]
  },
  "19d8b66afe7e": {
    "id": "19d8b66afe7e",
    "label": "1 RUE EMILE AUGIER, Béziers",
    "lat": 43.34852,
    "lng": 3.232237,
    "transactions": [
      {
        "date": "2023-04-20",
        "priceEur": 186390,
        "typeLocal": "Appartement",
        "surfaceM2": 101,
        "isVefa": false
      }
    ]
  },
  "638db8ad474d": {
    "id": "638db8ad474d",
    "label": "3 RUE MICHEL DE LAMBERT, Béziers",
    "lat": 43.34609,
    "lng": 3.237794,
    "transactions": [
      {
        "date": "2023-05-15",
        "priceEur": 150800,
        "typeLocal": "Maison",
        "surfaceM2": 53,
        "isVefa": false
      }
    ]
  },
  "f0ce4610fd24": {
    "id": "f0ce4610fd24",
    "label": "23 RUE CLAUDE BERNARD, Béziers",
    "lat": 43.343155,
    "lng": 3.231955,
    "transactions": [
      {
        "date": "2023-06-06",
        "priceEur": 146920,
        "typeLocal": "Maison",
        "surfaceM2": 48,
        "isVefa": false
      }
    ]
  },
  "baea05167855": {
    "id": "baea05167855",
    "label": "12 RUE DUPUYTREN, Béziers",
    "lat": 43.343822,
    "lng": 3.231654,
    "transactions": [
      {
        "date": "2023-05-26",
        "priceEur": 303000,
        "typeLocal": "Maison",
        "surfaceM2": 74,
        "isVefa": false
      }
    ]
  },
  "444163433df0": {
    "id": "444163433df0",
    "label": "7 RUE GENERAL DUVAL, Béziers",
    "lat": 43.347376,
    "lng": 3.238692,
    "transactions": [
      {
        "date": "2023-06-15",
        "priceEur": 78937,
        "typeLocal": "Maison",
        "surfaceM2": 90,
        "isVefa": false
      }
    ]
  },
  "579d722053f7": {
    "id": "579d722053f7",
    "label": "16 RUE ASPIRANT PIDOUX, Béziers",
    "lat": 43.34681,
    "lng": 3.238546,
    "transactions": [
      {
        "date": "2023-07-05",
        "priceEur": 186000,
        "typeLocal": "Maison",
        "surfaceM2": 67,
        "isVefa": false
      }
    ]
  },
  "f2c4469a422b": {
    "id": "f2c4469a422b",
    "label": "11 RUE DUPUYTREN, Béziers",
    "lat": 43.344113,
    "lng": 3.23151,
    "transactions": [
      {
        "date": "2023-07-20",
        "priceEur": 166000,
        "typeLocal": "Appartement",
        "surfaceM2": 90,
        "isVefa": false
      }
    ]
  },
  "c9233bcdf538": {
    "id": "c9233bcdf538",
    "label": "13 RUE ROBERT KELLER, Béziers",
    "lat": 43.348646,
    "lng": 3.236094,
    "transactions": [
      {
        "date": "2023-07-17",
        "priceEur": 245000,
        "typeLocal": "Maison",
        "surfaceM2": 115,
        "isVefa": false
      }
    ]
  },
  "207e08baa542": {
    "id": "207e08baa542",
    "label": "33 RUE LOUIS MALBOSC, Béziers",
    "lat": 43.348169,
    "lng": 3.235204,
    "transactions": [
      {
        "date": "2023-07-03",
        "priceEur": 285000,
        "typeLocal": "Appartement",
        "surfaceM2": 95,
        "isVefa": false
      },
      {
        "date": "2023-07-03",
        "priceEur": 285000,
        "typeLocal": "Appartement",
        "surfaceM2": 100,
        "isVefa": false
      }
    ]
  },
  "ab1099453114": {
    "id": "ab1099453114",
    "label": "10 AV AUGUSTE ALBERTINI, Béziers",
    "lat": 43.347593,
    "lng": 3.233637,
    "transactions": [
      {
        "date": "2023-07-19",
        "priceEur": 160000,
        "typeLocal": "Maison",
        "surfaceM2": 71,
        "isVefa": false
      }
    ]
  },
  "ff7afe1949b3": {
    "id": "ff7afe1949b3",
    "label": "1 IMP PAUL FORT, Béziers",
    "lat": 43.347936,
    "lng": 3.231269,
    "transactions": [
      {
        "date": "2023-07-27",
        "priceEur": 60000,
        "typeLocal": "Appartement",
        "surfaceM2": 71,
        "isVefa": false
      }
    ]
  },
  "6a479d62e775": {
    "id": "6a479d62e775",
    "label": "12 AV JEAN CONSTANS, Béziers",
    "lat": 43.342143,
    "lng": 3.230261,
    "transactions": [
      {
        "date": "2023-08-31",
        "priceEur": 190000,
        "typeLocal": "Maison",
        "surfaceM2": 100,
        "isVefa": false
      }
    ]
  },
  "98fd02e2b424": {
    "id": "98fd02e2b424",
    "label": "2 RUE MARECHAL GALLIENI, Béziers",
    "lat": 43.346676,
    "lng": 3.237448,
    "transactions": [
      {
        "date": "2023-10-03",
        "priceEur": 223000,
        "typeLocal": "Maison",
        "surfaceM2": 110,
        "isVefa": false
      }
    ]
  },
  "8b43f1cf594b": {
    "id": "8b43f1cf594b",
    "label": "20 AV PIERRE VERDIER, Béziers",
    "lat": 43.344169,
    "lng": 3.230773,
    "transactions": [
      {
        "date": "2023-11-28",
        "priceEur": 240000,
        "typeLocal": "Maison",
        "surfaceM2": 96,
        "isVefa": false
      }
    ]
  },
  "84a945dbc836": {
    "id": "84a945dbc836",
    "label": "7 RUE DE LA VALLONE, Béziers",
    "lat": 43.341286,
    "lng": 3.230872,
    "transactions": [
      {
        "date": "2023-12-15",
        "priceEur": 183000,
        "typeLocal": "Maison",
        "surfaceM2": 122,
        "isVefa": false
      }
    ]
  },
  "6b494501827d": {
    "id": "6b494501827d",
    "label": "11 RUE FREDERIC BERARD, Béziers",
    "lat": 43.343566,
    "lng": 3.231347,
    "transactions": [
      {
        "date": "2023-12-22",
        "priceEur": 80000,
        "typeLocal": "Appartement",
        "surfaceM2": 62,
        "isVefa": false
      }
    ]
  },
  "7d763f4debaa": {
    "id": "7d763f4debaa",
    "label": "5 IMP PAUL DUKAS, Béziers",
    "lat": 43.346463,
    "lng": 3.240643,
    "transactions": [
      {
        "date": "2024-01-09",
        "priceEur": 223870,
        "typeLocal": "Maison",
        "surfaceM2": 88,
        "isVefa": false
      }
    ]
  },
  "419ddfdb4dd7": {
    "id": "419ddfdb4dd7",
    "label": "27 AV AUGUSTE ALBERTINI, Béziers",
    "lat": 43.348112,
    "lng": 3.233287,
    "transactions": [
      {
        "date": "2024-02-20",
        "priceEur": 130000,
        "typeLocal": "Maison",
        "surfaceM2": 65,
        "isVefa": false
      }
    ]
  },
  "f9ea084e5f80": {
    "id": "f9ea084e5f80",
    "label": "10 RUE ALBERT ROUSSEL, Béziers",
    "lat": 43.347131,
    "lng": 3.240149,
    "transactions": [
      {
        "date": "2024-02-26",
        "priceEur": 270000,
        "typeLocal": "Maison",
        "surfaceM2": 100,
        "isVefa": false
      }
    ]
  },
  "8daed77c8171": {
    "id": "8daed77c8171",
    "label": "7 RUE MICHEL DE LAMBERT, Béziers",
    "lat": 43.346005,
    "lng": 3.237506,
    "transactions": [
      {
        "date": "2024-03-13",
        "priceEur": 177660,
        "typeLocal": "Maison",
        "surfaceM2": 76,
        "isVefa": false
      }
    ]
  },
  "dc8bb8374da2": {
    "id": "dc8bb8374da2",
    "label": "12 RUE ALBERT EINSTEIN, Béziers",
    "lat": 43.342475,
    "lng": 3.23232,
    "transactions": [
      {
        "date": "2024-04-03",
        "priceEur": 230000,
        "typeLocal": "Maison",
        "surfaceM2": 96,
        "isVefa": false
      }
    ]
  },
  "aebb290e4c56": {
    "id": "aebb290e4c56",
    "label": "9 RUE FENELON, Béziers",
    "lat": 43.341218,
    "lng": 3.231881,
    "transactions": [
      {
        "date": "2024-04-09",
        "priceEur": 153710,
        "typeLocal": "Appartement",
        "surfaceM2": 94,
        "isVefa": false
      }
    ]
  },
  "5e5d9ea17980": {
    "id": "5e5d9ea17980",
    "label": "3 RUE MARECHAL GALLIENI, Béziers",
    "lat": 43.346424,
    "lng": 3.237591,
    "transactions": [
      {
        "date": "2024-04-10",
        "priceEur": 139000,
        "typeLocal": "Appartement",
        "surfaceM2": 56,
        "isVefa": false
      },
      {
        "date": "2024-04-10",
        "priceEur": 139000,
        "typeLocal": "Appartement",
        "surfaceM2": 74,
        "isVefa": false
      }
    ]
  },
  "0b4e3a74482f": {
    "id": "0b4e3a74482f",
    "label": "3 RUE LOUIS FONOLL, Béziers",
    "lat": 43.343649,
    "lng": 3.237448,
    "transactions": [
      {
        "date": "2024-05-31",
        "priceEur": 190000,
        "typeLocal": "Maison",
        "surfaceM2": 70,
        "isVefa": false
      }
    ]
  },
  "f2b8c3c45311": {
    "id": "f2b8c3c45311",
    "label": "13B RUE DUPUYTREN, Béziers",
    "lat": 43.344194,
    "lng": 3.232079,
    "transactions": [
      {
        "date": "2024-08-06",
        "priceEur": 353080,
        "typeLocal": "Maison",
        "surfaceM2": 128,
        "isVefa": false
      }
    ]
  },
  "9da9a5bf6a63": {
    "id": "9da9a5bf6a63",
    "label": "28 AV AUGUSTE ALBERTINI, Béziers",
    "lat": 43.348339,
    "lng": 3.234796,
    "transactions": [
      {
        "date": "2024-08-08",
        "priceEur": 205000,
        "typeLocal": "Maison",
        "surfaceM2": 100,
        "isVefa": false
      }
    ]
  },
  "83a121596d52": {
    "id": "83a121596d52",
    "label": "12 RUE JACQUES RENOUVIN, Béziers",
    "lat": 43.348815,
    "lng": 3.237328,
    "transactions": [
      {
        "date": "2024-08-14",
        "priceEur": 163000,
        "typeLocal": "Appartement",
        "surfaceM2": 84,
        "isVefa": false
      },
      {
        "date": "2024-08-14",
        "priceEur": 163000,
        "typeLocal": "Appartement",
        "surfaceM2": 60,
        "isVefa": false
      }
    ]
  },
  "a55b5e189aad": {
    "id": "a55b5e189aad",
    "label": "10 RUE ASPIRANT PIDOUX, Béziers",
    "lat": 43.346429,
    "lng": 3.238638,
    "transactions": [
      {
        "date": "2024-08-30",
        "priceEur": 160000,
        "typeLocal": "Maison",
        "surfaceM2": 80,
        "isVefa": false
      }
    ]
  },
  "b89bd280de66": {
    "id": "b89bd280de66",
    "label": "10 RUE COMMANDANT RAYNAL, Béziers",
    "lat": 43.347626,
    "lng": 3.23868,
    "transactions": [
      {
        "date": "2024-09-18",
        "priceEur": 170000,
        "typeLocal": "Maison",
        "surfaceM2": 79,
        "isVefa": false
      }
    ]
  },
  "4748f7a80201": {
    "id": "4748f7a80201",
    "label": "35 RUE LOUIS MALBOSC, Béziers",
    "lat": 43.348237,
    "lng": 3.235162,
    "transactions": [
      {
        "date": "2024-10-03",
        "priceEur": 150000,
        "typeLocal": "Maison",
        "surfaceM2": 70,
        "isVefa": false
      }
    ]
  },
  "835f637d914c": {
    "id": "835f637d914c",
    "label": "29 RUE CLAUDE BERNARD, Béziers",
    "lat": 43.342828,
    "lng": 3.231979,
    "transactions": [
      {
        "date": "2024-10-25",
        "priceEur": 179250,
        "typeLocal": "Maison",
        "surfaceM2": 84,
        "isVefa": false
      }
    ]
  },
  "326d195f1e9d": {
    "id": "326d195f1e9d",
    "label": "62 AV PIERRE VERDIER, Béziers",
    "lat": 43.344736,
    "lng": 3.237241,
    "transactions": [
      {
        "date": "2024-11-04",
        "priceEur": 449177,
        "typeLocal": "Maison",
        "surfaceM2": 128,
        "isVefa": false
      },
      {
        "date": "2024-11-04",
        "priceEur": 449177,
        "typeLocal": "Appartement",
        "surfaceM2": 40,
        "isVefa": false
      }
    ]
  },
  "5b986de49e6a": {
    "id": "5b986de49e6a",
    "label": "4 RUE BEAUMARCHAIS, Béziers",
    "lat": 43.34884,
    "lng": 3.232214,
    "transactions": [
      {
        "date": "2024-11-20",
        "priceEur": 423225,
        "typeLocal": "Maison",
        "surfaceM2": 112,
        "isVefa": false
      }
    ]
  },
  "be1dd3ace3bc": {
    "id": "be1dd3ace3bc",
    "label": "11 BD MARECHAL JUIN, Béziers",
    "lat": 43.346218,
    "lng": 3.238771,
    "transactions": [
      {
        "date": "2024-11-19",
        "priceEur": 155000,
        "typeLocal": "Maison",
        "surfaceM2": 61,
        "isVefa": false
      }
    ]
  },
  "60f8b8f18b9d": {
    "id": "60f8b8f18b9d",
    "label": "9 RUE PAUL FOUGASSIER, Béziers",
    "lat": 43.348905,
    "lng": 3.236953,
    "transactions": [
      {
        "date": "2024-11-15",
        "priceEur": 228500,
        "typeLocal": "Maison",
        "surfaceM2": 63,
        "isVefa": false
      }
    ]
  },
  "36fbf91fdec1": {
    "id": "36fbf91fdec1",
    "label": "6 RUE CHARLES LECOCQ, Béziers",
    "lat": 43.348561,
    "lng": 3.239757,
    "transactions": [
      {
        "date": "2024-11-18",
        "priceEur": 191000,
        "typeLocal": "Maison",
        "surfaceM2": 101,
        "isVefa": false
      }
    ]
  },
  "0623b0fa21f6": {
    "id": "0623b0fa21f6",
    "label": "7 RUE CHARLES LECOCQ, Béziers",
    "lat": 43.348561,
    "lng": 3.239757,
    "transactions": [
      {
        "date": "2024-12-02",
        "priceEur": 181000,
        "typeLocal": "Maison",
        "surfaceM2": 184,
        "isVefa": false
      }
    ]
  },
  "b6e9bd9e301e": {
    "id": "b6e9bd9e301e",
    "label": "64 AV PIERRE VERDIER, Béziers",
    "lat": 43.344901,
    "lng": 3.237389,
    "transactions": [
      {
        "date": "2025-02-13",
        "priceEur": 185000,
        "typeLocal": "Maison",
        "surfaceM2": 71,
        "isVefa": false
      }
    ]
  },
  "effb9401dd67": {
    "id": "effb9401dd67",
    "label": "2 RUE PAUL PAINLEVE, Béziers",
    "lat": 43.342289,
    "lng": 3.232816,
    "transactions": [
      {
        "date": "2025-03-06",
        "priceEur": 245000,
        "typeLocal": "Appartement",
        "surfaceM2": 61,
        "isVefa": false
      }
    ]
  },
  "5aa7ca2e87da": {
    "id": "5aa7ca2e87da",
    "label": "7 RUE DUPUYTREN, Béziers",
    "lat": 43.344063,
    "lng": 3.231153,
    "transactions": [
      {
        "date": "2025-03-20",
        "priceEur": 170000,
        "typeLocal": "Maison",
        "surfaceM2": 196,
        "isVefa": false
      }
    ]
  },
  "15e571d08038": {
    "id": "15e571d08038",
    "label": "1 PL YVONNE LE ROUX, Béziers",
    "lat": 43.348731,
    "lng": 3.23652,
    "transactions": [
      {
        "date": "2025-03-24",
        "priceEur": 200000,
        "typeLocal": "Maison",
        "surfaceM2": 80,
        "isVefa": false
      }
    ]
  },
  "65f026f6ebaf": {
    "id": "65f026f6ebaf",
    "label": "6 RUE LOUIS MALBOSC, Béziers",
    "lat": 43.346517,
    "lng": 3.238064,
    "transactions": [
      {
        "date": "2025-04-25",
        "priceEur": 63700,
        "typeLocal": "Maison",
        "surfaceM2": 67,
        "isVefa": false
      }
    ]
  },
  "c163a6936a06": {
    "id": "c163a6936a06",
    "label": "29 RUE LOUIS MALBOSC, Béziers",
    "lat": 43.347151,
    "lng": 3.236418,
    "transactions": [
      {
        "date": "2025-05-22",
        "priceEur": 617000,
        "typeLocal": "Appartement",
        "surfaceM2": 66,
        "isVefa": false
      },
      {
        "date": "2025-05-22",
        "priceEur": 617000,
        "typeLocal": "Appartement",
        "surfaceM2": 48,
        "isVefa": false
      }
    ]
  }
}