{
  "ac80ea88eaa1": {
    "id": "ac80ea88eaa1",
    "label": "38 CHE DE LA TOURELLE, Le Cros",
    "lat": 43.868867,
    "lng": 3.363797,
    "transactions": [
      {
        "date": "2020-10-29",
        "priceEur": 62000,
        "typeLocal": "Maison",
        "surfaceM2": 95,
        "isVefa": false
      }
    ]
  },
  "78cce8d3625b": {
    "id": "78cce8d3625b",
    "label": "51 TOUR DU CHATEAU, Le Cros",
    "lat": 43.869577,
    "lng": 3.364011,
    "transactions": [
      {
        "date": "2022-08-10",
        "priceEur": 242100,
        "typeLocal": "Maison",
        "surfaceM2": 100,
        "isVefa": false
      },
      {
        "date": "2022-08-10",
        "priceEur": 242100,
        "typeLocal": "Maison",
        "surfaceM2": 100,
        "isVefa": false
      }
    ]
  },
  "d465b50ad4e7": {
    "id": "d465b50ad4e7",
    "label": "385 RTE DE SORBS, Le Cros",
    "lat": 43.870183,
    "lng": 3.367953,
    "transactions": [
      {
        "date": "2023-12-27",
        "priceEur": 63118.21,
        "typeLocal": "Maison",
        "surfaceM2": 82,
        "isVefa": false
      }
    ]
  },
  "4cfe3b79aefa": {
    "id": "4cfe3b79aefa",
    "label": "1 RTE DE ST MICHEL, Le Cros",
    "lat": 43.868194,
    "lng": 3.364632,
    "transactions": [
      {
        "date": "2024-01-09",
        "priceEur": 5000,
        "typeLocal": "Maison",
        "surfaceM2": 90,
        "isVefa": false
      }
    ]
  },
  "8a0c5cb05897": {
    "id": "8a0c5cb05897",
    "label": "370 RTE DE SORBS, Le Cros",
    "lat": 43.869578,
    "lng": 3.368681,
    "transactions": [
      {
        "date": "2024-05-14",
        "priceEur": 100000,
        "typeLocal": "Maison",
        "surfaceM2": 61,
        "isVefa": false
      }
    ]
  },
  "df877a7a37c1": {
    "id": "df877a7a37c1",
    "label": "20 PL DES PRUNUS, Le Cros",
    "lat": 43.869143,
    "lng": 3.36409,
    "transactions": [
      {
        "date": "2024-11-13",
        "priceEur": 147000,
        "typeLocal": "Maison",
        "surfaceM2": 50,
        "isVefa": false
      },
      {
        "date": "2024-11-13",
        "priceEur": 147000,
        "typeLocal": "Maison",
        "surfaceM2": 38,
        "isVefa": false
      }
    ]
  }
}