{
  "19aa2b4e4526": {
    "id": "19aa2b4e4526",
    "label": "13 AV DES COTEAUX, Criel-sur-Mer",
    "lat": 50.027124,
    "lng": 1.323118,
    "transactions": [
      {
        "date": "2020-07-15",
        "priceEur": 37500,
        "typeLocal": "Maison",
        "surfaceM2": 17,
        "isVefa": false
      }
    ]
  },
  "84ff0f139bf7": {
    "id": "84ff0f139bf7",
    "label": "40 RUE PAUL MOREAU, Criel-sur-Mer",
    "lat": 50.027775,
    "lng": 1.31854,
    "transactions": [
      {
        "date": "2020-11-06",
        "priceEur": 170000,
        "typeLocal": "Maison",
        "surfaceM2": 82,
        "isVefa": false
      }
    ]
  },
  "68cb29537954": {
    "id": "68cb29537954",
    "label": "5 RUE JEAN VACANDARD, Criel-sur-Mer",
    "lat": 50.027994,
    "lng": 1.322249,
    "transactions": [
      {
        "date": "2021-12-23",
        "priceEur": 163000,
        "typeLocal": "Maison",
        "surfaceM2": 56,
        "isVefa": false
      }
    ]
  },
  "5055373adcaf": {
    "id": "5055373adcaf",
    "label": "2 AV D ARRAS, Criel-sur-Mer",
    "lat": 50.027486,
    "lng": 1.320561,
    "transactions": [
      {
        "date": "2025-03-31",
        "priceEur": 350000,
        "typeLocal": "Maison",
        "surfaceM2": 150,
        "isVefa": false
      },
      {
        "date": "2021-01-30",
        "priceEur": 200000,
        "typeLocal": "Maison",
        "surfaceM2": 100,
        "isVefa": false
      }
    ]
  },
  "11ca23fc31d1": {
    "id": "11ca23fc31d1",
    "label": "2B AV D ARRAS, Criel-sur-Mer",
    "lat": 50.027759,
    "lng": 1.320477,
    "transactions": [
      {
        "date": "2021-01-30",
        "priceEur": 218000,
        "typeLocal": "Maison",
        "surfaceM2": 113,
        "isVefa": false
      }
    ]
  },
  "affbc4609389": {
    "id": "affbc4609389",
    "label": "11 RUE JEAN VACANDARD, Criel-sur-Mer",
    "lat": 50.027994,
    "lng": 1.322249,
    "transactions": [
      {
        "date": "2024-05-31",
        "priceEur": 124770,
        "typeLocal": "Maison",
        "surfaceM2": 44,
        "isVefa": false
      },
      {
        "date": "2021-10-20",
        "priceEur": 115500,
        "typeLocal": "Maison",
        "surfaceM2": 44,
        "isVefa": false
      },
      {
        "date": "2021-07-30",
        "priceEur": 126870,
        "typeLocal": "Maison",
        "surfaceM2": 44,
        "isVefa": false
      },
      {
        "date": "2021-03-10",
        "priceEur": 124000,
        "typeLocal": "Maison",
        "surfaceM2": 44,
        "isVefa": false
      }
    ]
  },
  "213744b1c642": {
    "id": "213744b1c642",
    "label": "9046 AV DU MONT BLANC, Criel-sur-Mer",
    "lat": 50.02457,
    "lng": 1.319454,
    "transactions": [
      {
        "date": "2021-04-16",
        "priceEur": 382800,
        "typeLocal": "Maison",
        "surfaceM2": 184,
        "isVefa": false
      }
    ]
  },
  "3e22d49b1587": {
    "id": "3e22d49b1587",
    "label": "3 PL DES TILLEULS, Criel-sur-Mer",
    "lat": 50.022678,
    "lng": 1.318951,
    "transactions": [
      {
        "date": "2021-06-05",
        "priceEur": 160000,
        "typeLocal": "Maison",
        "surfaceM2": 70,
        "isVefa": false
      }
    ]
  },
  "5dd2e1517c3d": {
    "id": "5dd2e1517c3d",
    "label": "21B RUE JEAN VACANDARD, Criel-sur-Mer",
    "lat": 50.028429,
    "lng": 1.321727,
    "transactions": [
      {
        "date": "2021-07-12",
        "priceEur": 173400,
        "typeLocal": "Maison",
        "surfaceM2": 90,
        "isVefa": false
      }
    ]
  },
  "184bf8d986b3": {
    "id": "184bf8d986b3",
    "label": "24 AV DES COTEAUX, Criel-sur-Mer",
    "lat": 50.02813,
    "lng": 1.32411,
    "transactions": [
      {
        "date": "2021-07-16",
        "priceEur": 170000,
        "typeLocal": "Maison",
        "surfaceM2": 102,
        "isVefa": false
      }
    ]
  },
  "b1225194f918": {
    "id": "b1225194f918",
    "label": "7 RUE JEAN VACANDARD, Criel-sur-Mer",
    "lat": 50.027994,
    "lng": 1.322249,
    "transactions": [
      {
        "date": "2022-02-19",
        "priceEur": 149000,
        "typeLocal": "Maison",
        "surfaceM2": 56,
        "isVefa": false
      }
    ]
  },
  "c19f1e1a22bf": {
    "id": "c19f1e1a22bf",
    "label": "2 AV DE L ETOILE, Criel-sur-Mer",
    "lat": 50.025387,
    "lng": 1.323924,
    "transactions": [
      {
        "date": "2022-02-15",
        "priceEur": 169300,
        "typeLocal": "Maison",
        "surfaceM2": 102,
        "isVefa": false
      }
    ]
  },
  "8bce5d0717c7": {
    "id": "8bce5d0717c7",
    "label": "9010 RUE PAUL MOREAU, Criel-sur-Mer",
    "lat": 50.027884,
    "lng": 1.318387,
    "transactions": [
      {
        "date": "2022-03-31",
        "priceEur": 95000,
        "typeLocal": "Maison",
        "surfaceM2": 99,
        "isVefa": false
      }
    ]
  },
  "4be328d78d17": {
    "id": "4be328d78d17",
    "label": "4 AV DE L ETOILE, Criel-sur-Mer",
    "lat": 50.025525,
    "lng": 1.324196,
    "transactions": [
      {
        "date": "2022-07-05",
        "priceEur": 229000,
        "typeLocal": "Maison",
        "surfaceM2": 94,
        "isVefa": false
      }
    ]
  },
  "e20569f5aaea": {
    "id": "e20569f5aaea",
    "label": "9043 AV DU MONT BLANC, Criel-sur-Mer",
    "lat": 50.022645,
    "lng": 1.318537,
    "transactions": [
      {
        "date": "2022-07-04",
        "priceEur": 55000,
        "typeLocal": "Maison",
        "surfaceM2": 74,
        "isVefa": false
      },
      {
        "date": "2022-07-04",
        "priceEur": 165000,
        "typeLocal": "Maison",
        "surfaceM2": 74,
        "isVefa": false
      }
    ]
  },
  "ff28be5fca2c": {
    "id": "ff28be5fca2c",
    "label": "8 AV DES COTEAUX, Criel-sur-Mer",
    "lat": 50.025527,
    "lng": 1.322887,
    "transactions": [
      {
        "date": "2022-12-29",
        "priceEur": 71000,
        "typeLocal": "Maison",
        "surfaceM2": 37,
        "isVefa": false
      }
    ]
  },
  "0bfec98f5a0e": {
    "id": "0bfec98f5a0e",
    "label": "3B AV DES COTEAUX, Criel-sur-Mer",
    "lat": 50.025117,
    "lng": 1.321927,
    "transactions": [
      {
        "date": "2024-07-29",
        "priceEur": 196350,
        "typeLocal": "Maison",
        "surfaceM2": 106,
        "isVefa": false
      },
      {
        "date": "2023-02-09",
        "priceEur": 174050,
        "typeLocal": "Maison",
        "surfaceM2": 106,
        "isVefa": false
      }
    ]
  },
  "3805853b30b7": {
    "id": "3805853b30b7",
    "label": "9001 AV DU MONT BLANC, Criel-sur-Mer",
    "lat": 50.024406,
    "lng": 1.320586,
    "transactions": [
      {
        "date": "2023-12-08",
        "priceEur": 262000,
        "typeLocal": "Maison",
        "surfaceM2": 102,
        "isVefa": false
      }
    ]
  },
  "464faf0590e3": {
    "id": "464faf0590e3",
    "label": "3 RUE JEAN VACANDARD, Criel-sur-Mer",
    "lat": 50.027994,
    "lng": 1.322249,
    "transactions": [
      {
        "date": "2024-02-06",
        "priceEur": 133500,
        "typeLocal": "Maison",
        "surfaceM2": 44,
        "isVefa": false
      }
    ]
  },
  "e2f7cff4b403": {
    "id": "e2f7cff4b403",
    "label": "9184 AV DES COTEAUX, Criel-sur-Mer",
    "lat": 50.026982,
    "lng": 1.32302,
    "transactions": [
      {
        "date": "2024-02-27",
        "priceEur": 240300,
        "typeLocal": "Maison",
        "surfaceM2": 98,
        "isVefa": false
      }
    ]
  },
  "c1793e6c7c77": {
    "id": "c1793e6c7c77",
    "label": "16 AV D ARRAS, Criel-sur-Mer",
    "lat": 50.028803,
    "lng": 1.320187,
    "transactions": [
      {
        "date": "2024-06-28",
        "priceEur": 153400,
        "typeLocal": "Maison",
        "surfaceM2": 50,
        "isVefa": false
      }
    ]
  },
  "caa5231c2d4b": {
    "id": "caa5231c2d4b",
    "label": "21 AV DE L ETOILE, Criel-sur-Mer",
    "lat": 50.02723,
    "lng": 1.324544,
    "transactions": [
      {
        "date": "2024-07-16",
        "priceEur": 90000,
        "typeLocal": "Maison",
        "surfaceM2": 40,
        "isVefa": false
      }
    ]
  },
  "335a9a7a59e4": {
    "id": "335a9a7a59e4",
    "label": "3C AV DES COTEAUX, Criel-sur-Mer",
    "lat": 50.025364,
    "lng": 1.322023,
    "transactions": [
      {
        "date": "2024-07-29",
        "priceEur": 196350,
        "typeLocal": "Maison",
        "surfaceM2": 88,
        "isVefa": false
      }
    ]
  },
  "a70ccd5a547d": {
    "id": "a70ccd5a547d",
    "label": "2 AV GEORGES CLEMENCEAU, Criel-sur-Mer",
    "lat": 50.023811,
    "lng": 1.318835,
    "transactions": [
      {
        "date": "2024-09-27",
        "priceEur": 170000,
        "typeLocal": "Maison",
        "surfaceM2": 78,
        "isVefa": false
      }
    ]
  },
  "9c4e2dcb5cf8": {
    "id": "9c4e2dcb5cf8",
    "label": "24 AV PAUL MOREAU, Criel-sur-Mer",
    "lat": 50.026353,
    "lng": 1.319922,
    "transactions": [
      {
        "date": "2024-10-05",
        "priceEur": 156000,
        "typeLocal": "Maison",
        "surfaceM2": 68,
        "isVefa": false
      }
    ]
  },
  "2d569a9f4e80": {
    "id": "2d569a9f4e80",
    "label": "9003 AV DE L ETOILE, Criel-sur-Mer",
    "lat": 50.027641,
    "lng": 1.322855,
    "transactions": [
      {
        "date": "2025-01-31",
        "priceEur": 99900,
        "typeLocal": "Maison",
        "surfaceM2": 40,
        "isVefa": false
      }
    ]
  }
}