{
  "efcc9a7d9fcb": {
    "id": "efcc9a7d9fcb",
    "label": "28 RUE DE LA GRAND' MARE, Petit-Caux",
    "lat": 49.939336,
    "lng": 1.320245,
    "transactions": [
      {
        "date": "2021-04-14",
        "priceEur": 197000,
        "typeLocal": "Appartement",
        "surfaceM2": 176,
        "isVefa": false
      },
      {
        "date": "2021-04-14",
        "priceEur": 197000,
        "typeLocal": "Appartement",
        "surfaceM2": 135,
        "isVefa": false
      }
    ]
  },
  "cdd57c019e37": {
    "id": "cdd57c019e37",
    "label": "7 RUE DU MOULIN AUQUEMESNIL, Petit-Caux",
    "lat": 49.942721,
    "lng": 1.327799,
    "transactions": [
      {
        "date": "2022-04-29",
        "priceEur": 160000,
        "typeLocal": "Maison",
        "surfaceM2": 110,
        "isVefa": false
      }
    ]
  },
  "179629b37c18": {
    "id": "179629b37c18",
    "label": "5020 LE VILLAGE ST QUENTIN, Petit-Caux",
    "lat": 49.937648,
    "lng": 1.320217,
    "transactions": [
      {
        "date": "2022-05-06",
        "priceEur": 288750,
        "typeLocal": "Maison",
        "surfaceM2": 120,
        "isVefa": false
      }
    ]
  },
  "3c9573f1424a": {
    "id": "3c9573f1424a",
    "label": "10 RUE DES RIOTS, Petit-Caux",
    "lat": 49.93801,
    "lng": 1.324407,
    "transactions": [
      {
        "date": "2024-05-24",
        "priceEur": 180000,
        "typeLocal": "Maison",
        "surfaceM2": 133,
        "isVefa": false
      },
      {
        "date": "2022-05-31",
        "priceEur": 360000,
        "typeLocal": "Maison",
        "surfaceM2": 133,
        "isVefa": false
      }
    ]
  },
  "026442a8f1db": {
    "id": "026442a8f1db",
    "label": "19 RUE DE LA GRAND' MARE, Petit-Caux",
    "lat": 49.938617,
    "lng": 1.321825,
    "transactions": [
      {
        "date": "2022-09-01",
        "priceEur": 170000,
        "typeLocal": "Maison",
        "surfaceM2": 90,
        "isVefa": false
      }
    ]
  },
  "e7706e6eb234": {
    "id": "e7706e6eb234",
    "label": "20 RUE DU MOULIN AUQUEMESNIL, Petit-Caux",
    "lat": 49.944111,
    "lng": 1.327408,
    "transactions": [
      {
        "date": "2022-10-17",
        "priceEur": 234500,
        "typeLocal": "Maison",
        "surfaceM2": 84,
        "isVefa": false
      }
    ]
  },
  "026048d26298": {
    "id": "026048d26298",
    "label": "1 RUE DU MOULIN AUQUEMESNIL, Petit-Caux",
    "lat": 49.942123,
    "lng": 1.326602,
    "transactions": [
      {
        "date": "2024-05-17",
        "priceEur": 383200,
        "typeLocal": "Maison",
        "surfaceM2": 312,
        "isVefa": false
      }
    ]
  },
  "3933ac6dff33": {
    "id": "3933ac6dff33",
    "label": "6 LOT DES HETRES, Petit-Caux",
    "lat": 49.943029,
    "lng": 1.327933,
    "transactions": [
      {
        "date": "2024-07-26",
        "priceEur": 251750,
        "typeLocal": "Maison",
        "surfaceM2": 119,
        "isVefa": false
      }
    ]
  }
}