{
  "a3e47ca4340a": {
    "id": "a3e47ca4340a",
    "label": "39 CHE DES OLIVIERS, Saturargues",
    "lat": 43.727434,
    "lng": 4.11413,
    "transactions": [
      {
        "date": "2023-06-22",
        "priceEur": 633200,
        "typeLocal": "Maison",
        "surfaceM2": 187,
        "isVefa": false
      },
      {
        "date": "2023-06-22",
        "priceEur": 633200,
        "typeLocal": "Maison",
        "surfaceM2": 187,
        "isVefa": false
      },
      {
        "date": "2021-02-19",
        "priceEur": 518050,
        "typeLocal": "Maison",
        "surfaceM2": 187,
        "isVefa": false
      },
      {
        "date": "2021-02-19",
        "priceEur": 518050,
        "typeLocal": "Maison",
        "surfaceM2": 187,
        "isVefa": false
      }
    ]
  },
  "acb497aff124": {
    "id": "acb497aff124",
    "label": "14 CHE DE L HORT D AMOUN, Saturargues",
    "lat": 43.723846,
    "lng": 4.113174,
    "transactions": [
      {
        "date": "2021-03-05",
        "priceEur": 170000,
        "typeLocal": "Maison",
        "surfaceM2": 100,
        "isVefa": false
      }
    ]
  },
  "0e4cdf5d5d8f": {
    "id": "0e4cdf5d5d8f",
    "label": "4 LOT LES CEVENNES, Saturargues",
    "lat": 43.724318,
    "lng": 4.111115,
    "transactions": [
      {
        "date": "2021-07-02",
        "priceEur": 430500,
        "typeLocal": "Maison",
        "surfaceM2": 145,
        "isVefa": false
      }
    ]
  },
  "1a6c4972156a": {
    "id": "1a6c4972156a",
    "label": "3 CHE DES CHENES, Saturargues",
    "lat": 43.728274,
    "lng": 4.115099,
    "transactions": [
      {
        "date": "2021-08-27",
        "priceEur": 237150,
        "typeLocal": "Maison",
        "surfaceM2": 75,
        "isVefa": false
      }
    ]
  },
  "d25dd46305c7": {
    "id": "d25dd46305c7",
    "label": "1B CHE DES CHENES, Saturargues",
    "lat": 43.728198,
    "lng": 4.114565,
    "transactions": [
      {
        "date": "2021-10-04",
        "priceEur": 338600,
        "typeLocal": "Maison",
        "surfaceM2": 104,
        "isVefa": false
      }
    ]
  },
  "c220c76e808c": {
    "id": "c220c76e808c",
    "label": "371 RUE DU CANET, Saint-Sériès",
    "lat": 43.729869,
    "lng": 4.111032,
    "transactions": [
      {
        "date": "2022-07-21",
        "priceEur": 325000,
        "typeLocal": "Maison",
        "surfaceM2": 112,
        "isVefa": false
      }
    ]
  },
  "3172d8e7247a": {
    "id": "3172d8e7247a",
    "label": "5 LOT LE VIDOURLE, Saturargues",
    "lat": 43.728733,
    "lng": 4.116147,
    "transactions": [
      {
        "date": "2022-08-11",
        "priceEur": 427800,
        "typeLocal": "Maison",
        "surfaceM2": 110,
        "isVefa": false
      }
    ]
  },
  "558ce7bb2c5c": {
    "id": "558ce7bb2c5c",
    "label": "269 RUE DU CANET, Saint-Sériès",
    "lat": 43.730209,
    "lng": 4.109412,
    "transactions": [
      {
        "date": "2023-04-05",
        "priceEur": 175000,
        "typeLocal": "Maison",
        "surfaceM2": 95,
        "isVefa": false
      }
    ]
  },
  "35e6573a3fee": {
    "id": "35e6573a3fee",
    "label": "467 RUE DU CANET, Saint-Sériès",
    "lat": 43.729745,
    "lng": 4.112181,
    "transactions": [
      {
        "date": "2023-07-07",
        "priceEur": 481300,
        "typeLocal": "Maison",
        "surfaceM2": 130,
        "isVefa": false
      }
    ]
  },
  "28df02b3a747": {
    "id": "28df02b3a747",
    "label": "1D CHE DES CHENES, Saturargues",
    "lat": 43.728212,
    "lng": 4.114787,
    "transactions": [
      {
        "date": "2023-09-07",
        "priceEur": 303950,
        "typeLocal": "Maison",
        "surfaceM2": 88,
        "isVefa": false
      }
    ]
  },
  "211f718bf656": {
    "id": "211f718bf656",
    "label": "17 RUE DES PRES, Saint-Sériès",
    "lat": 43.729785,
    "lng": 4.111704,
    "transactions": [
      {
        "date": "2023-09-21",
        "priceEur": 447100,
        "typeLocal": "Maison",
        "surfaceM2": 96,
        "isVefa": false
      }
    ]
  },
  "0612f5bf8870": {
    "id": "0612f5bf8870",
    "label": "50 CHE DES OLIVIERS, Saturargues",
    "lat": 43.729071,
    "lng": 4.11428,
    "transactions": [
      {
        "date": "2024-02-02",
        "priceEur": 358790,
        "typeLocal": "Maison",
        "surfaceM2": 108,
        "isVefa": false
      }
    ]
  },
  "ff7128894fc5": {
    "id": "ff7128894fc5",
    "label": "30 CHE DES OLIVIERS, Saturargues",
    "lat": 43.726916,
    "lng": 4.114753,
    "transactions": [
      {
        "date": "2024-07-08",
        "priceEur": 275340,
        "typeLocal": "Appartement",
        "surfaceM2": 121,
        "isVefa": false
      },
      {
        "date": "2024-02-14",
        "priceEur": 267400,
        "typeLocal": "Appartement",
        "surfaceM2": 104,
        "isVefa": false
      }
    ]
  },
  "b2c8a13e135f": {
    "id": "b2c8a13e135f",
    "label": "34T CHE DES OLIVIERS, Saturargues",
    "lat": 43.728239,
    "lng": 4.11431,
    "transactions": [
      {
        "date": "2024-04-19",
        "priceEur": 304300,
        "typeLocal": "Maison",
        "surfaceM2": 74,
        "isVefa": false
      }
    ]
  },
  "7a8e36a3948d": {
    "id": "7a8e36a3948d",
    "label": "42 CHE DES OLIVIERS, Saturargues",
    "lat": 43.728522,
    "lng": 4.114419,
    "transactions": [
      {
        "date": "2024-04-23",
        "priceEur": 210000,
        "typeLocal": "Maison",
        "surfaceM2": 64,
        "isVefa": false
      }
    ]
  },
  "8d4bbc78cc8a": {
    "id": "8d4bbc78cc8a",
    "label": "40 CHE DES OLIVIERS, Saturargues",
    "lat": 43.728522,
    "lng": 4.114419,
    "transactions": [
      {
        "date": "2024-04-26",
        "priceEur": 203900,
        "typeLocal": "Maison",
        "surfaceM2": 70,
        "isVefa": false
      }
    ]
  },
  "e9d964a09e79": {
    "id": "e9d964a09e79",
    "label": "45 RUE DES PRES, Saint-Sériès",
    "lat": 43.730037,
    "lng": 4.111716,
    "transactions": [
      {
        "date": "2024-07-12",
        "priceEur": 366300,
        "typeLocal": "Maison",
        "surfaceM2": 113,
        "isVefa": false
      }
    ]
  },
  "89a104b68f20": {
    "id": "89a104b68f20",
    "label": "326 RUE DES ALBIZZIAS, Saint-Sériès",
    "lat": 43.73002,
    "lng": 4.109075,
    "transactions": [
      {
        "date": "2024-08-13",
        "priceEur": 505850,
        "typeLocal": "Maison",
        "surfaceM2": 171,
        "isVefa": false
      }
    ]
  },
  "7880c939e14f": {
    "id": "7880c939e14f",
    "label": "381 RUE DU CANET, Saint-Sériès",
    "lat": 43.730029,
    "lng": 4.111091,
    "transactions": [
      {
        "date": "2024-10-28",
        "priceEur": 350000,
        "typeLocal": "Maison",
        "surfaceM2": 110,
        "isVefa": false
      }
    ]
  },
  "1e66629c41a6": {
    "id": "1e66629c41a6",
    "label": "8 RUE DE L OCCITANIE, Saturargues",
    "lat": 43.72358,
    "lng": 4.111416,
    "transactions": [
      {
        "date": "2025-01-31",
        "priceEur": 416800,
        "typeLocal": "Maison",
        "surfaceM2": 80,
        "isVefa": false
      }
    ]
  },
  "784e97c87abe": {
    "id": "784e97c87abe",
    "label": "38 CHE DES OLIVIERS, Saturargues",
    "lat": 43.728522,
    "lng": 4.114419,
    "transactions": [
      {
        "date": "2025-03-12",
        "priceEur": 162100,
        "typeLocal": "Maison",
        "surfaceM2": 53,
        "isVefa": false
      }
    ]
  },
  "5beea5b31808": {
    "id": "5beea5b31808",
    "label": "96 IMP DES TOURTERELLES, Saint-Sériès",
    "lat": 43.728812,
    "lng": 4.108892,
    "transactions": [
      {
        "date": "2025-03-18",
        "priceEur": 480400,
        "typeLocal": "Maison",
        "surfaceM2": 120,
        "isVefa": false
      }
    ]
  }
}