{
  "25953fb9c4a7": {
    "id": "25953fb9c4a7",
    "label": "1238 CHE DES TAVANS, Lunel",
    "lat": 43.687346,
    "lng": 4.11688,
    "transactions": [
      {
        "date": "2021-07-05",
        "priceEur": 527550,
        "typeLocal": "Maison",
        "surfaceM2": 156,
        "isVefa": false
      }
    ]
  },
  "942992e5e275": {
    "id": "942992e5e275",
    "label": "581 CHE DU MAS DE ROBIN, Lunel",
    "lat": 43.690247,
    "lng": 4.119356,
    "transactions": [
      {
        "date": "2022-10-28",
        "priceEur": 932220,
        "typeLocal": "Appartement",
        "surfaceM2": 77,
        "isVefa": false
      },
      {
        "date": "2022-10-28",
        "priceEur": 932220,
        "typeLocal": "Appartement",
        "surfaceM2": 24,
        "isVefa": false
      },
      {
        "date": "2022-10-28",
        "priceEur": 932220,
        "typeLocal": "Appartement",
        "surfaceM2": 77,
        "isVefa": false
      },
      {
        "date": "2022-10-28",
        "priceEur": 932220,
        "typeLocal": "Appartement",
        "surfaceM2": 120,
        "isVefa": false
      },
      {
        "date": "2022-10-28",
        "priceEur": 932220,
        "typeLocal": "Appartement",
        "surfaceM2": 120,
        "isVefa": false
      },
      {
        "date": "2022-10-28",
        "priceEur": 932220,
        "typeLocal": "Appartement",
        "surfaceM2": 24,
        "isVefa": false
      }
    ]
  },
  "19e1be033c61": {
    "id": "19e1be033c61",
    "label": "45 CHE DES BOEUFS, Lunel",
    "lat": 43.683865,
    "lng": 4.115022,
    "transactions": [
      {
        "date": "2023-07-06",
        "priceEur": 40000,
        "typeLocal": "Maison",
        "surfaceM2": 56,
        "isVefa": false
      }
    ]
  },
  "3afd887ba23b": {
    "id": "3afd887ba23b",
    "label": "1497 CHE DES CIGALES, Lunel",
    "lat": 43.688445,
    "lng": 4.113029,
    "transactions": [
      {
        "date": "2023-10-27",
        "priceEur": 395000,
        "typeLocal": "Maison",
        "surfaceM2": 170,
        "isVefa": false
      }
    ]
  },
  "464aa17912cf": {
    "id": "464aa17912cf",
    "label": "60 IMP DES MOUSSERONS, Lunel",
    "lat": 43.688163,
    "lng": 4.118951,
    "transactions": [
      {
        "date": "2024-04-30",
        "priceEur": 548800,
        "typeLocal": "Maison",
        "surfaceM2": 138,
        "isVefa": false
      }
    ]
  },
  "e0bcddc56851": {
    "id": "e0bcddc56851",
    "label": "431 CHE DE LA DEVEZE, Lunel",
    "lat": 43.68956,
    "lng": 4.109861,
    "transactions": [
      {
        "date": "2024-10-31",
        "priceEur": 520000,
        "typeLocal": "Maison",
        "surfaceM2": 120,
        "isVefa": false
      },
      {
        "date": "2024-10-31",
        "priceEur": 520000,
        "typeLocal": "Maison",
        "surfaceM2": 120,
        "isVefa": false
      }
    ]
  },
  "d872baf08678": {
    "id": "d872baf08678",
    "label": "107 RUE DES CHAMOIS, Lunel",
    "lat": 43.687754,
    "lng": 4.118973,
    "transactions": [
      {
        "date": "2025-02-13",
        "priceEur": 299800,
        "typeLocal": "Maison",
        "surfaceM2": 100,
        "isVefa": false
      }
    ]
  }
}