{
  "8935aeca0cd5": {
    "id": "8935aeca0cd5",
    "label": "8 RUE DE LA LERGUE, Lodève",
    "lat": 43.73112,
    "lng": 3.322771,
    "transactions": [
      {
        "date": "2020-07-10",
        "priceEur": 80000,
        "typeLocal": "Appartement",
        "surfaceM2": 47,
        "isVefa": false
      },
      {
        "date": "2020-07-10",
        "priceEur": 80000,
        "typeLocal": "Appartement",
        "surfaceM2": 65,
        "isVefa": false
      },
      {
        "date": "2020-07-10",
        "priceEur": 80000,
        "typeLocal": "Appartement",
        "surfaceM2": 47,
        "isVefa": false
      },
      {
        "date": "2020-07-10",
        "priceEur": 80000,
        "typeLocal": "Appartement",
        "surfaceM2": 62,
        "isVefa": false
      }
    ]
  },
  "c7417965fae6": {
    "id": "c7417965fae6",
    "label": "18 RUE DE LA LERGUE, Lodève",
    "lat": 43.731331,
    "lng": 3.322316,
    "transactions": [
      {
        "date": "2023-01-19",
        "priceEur": 56000,
        "typeLocal": "Appartement",
        "surfaceM2": 54,
        "isVefa": false
      },
      {
        "date": "2020-08-20",
        "priceEur": 44000,
        "typeLocal": "Appartement",
        "surfaceM2": 49,
        "isVefa": false
      }
    ]
  },
  "200c29ff0615": {
    "id": "200c29ff0615",
    "label": "4 RUE DE L INDEPENDANCE, Lodève",
    "lat": 43.731188,
    "lng": 3.32277,
    "transactions": [
      {
        "date": "2020-08-25",
        "priceEur": 68000,
        "typeLocal": "Appartement",
        "surfaceM2": 45,
        "isVefa": false
      },
      {
        "date": "2020-08-25",
        "priceEur": 68000,
        "typeLocal": "Appartement",
        "surfaceM2": 42,
        "isVefa": false
      }
    ]
  },
  "e34dea19d890": {
    "id": "e34dea19d890",
    "label": "13 RUE BARTHELEMY LUCHAIRE, Lodève",
    "lat": 43.731359,
    "lng": 3.325021,
    "transactions": [
      {
        "date": "2020-09-14",
        "priceEur": 66000,
        "typeLocal": "Appartement",
        "surfaceM2": 54,
        "isVefa": false
      }
    ]
  },
  "999194505a6d": {
    "id": "999194505a6d",
    "label": "25 RUE MONTBRUN, Lodève",
    "lat": 43.7292,
    "lng": 3.321392,
    "transactions": [
      {
        "date": "2020-09-09",
        "priceEur": 110000,
        "typeLocal": "Appartement",
        "surfaceM2": 42,
        "isVefa": false
      },
      {
        "date": "2020-09-09",
        "priceEur": 110000,
        "typeLocal": "Appartement",
        "surfaceM2": 45,
        "isVefa": false
      },
      {
        "date": "2020-09-09",
        "priceEur": 110000,
        "typeLocal": "Appartement",
        "surfaceM2": 50,
        "isVefa": false
      }
    ]
  },
  "98b7867019da": {
    "id": "98b7867019da",
    "label": "3 PL DE LA HALLE DARDE, Lodève",
    "lat": 43.730534,
    "lng": 3.321509,
    "transactions": [
      {
        "date": "2020-09-17",
        "priceEur": 50000,
        "typeLocal": "Maison",
        "surfaceM2": 70,
        "isVefa": false
      }
    ]
  },
  "b8bf00bb0de0": {
    "id": "b8bf00bb0de0",
    "label": "12 RUE BAUDIN, Lodève",
    "lat": 43.730111,
    "lng": 3.3216,
    "transactions": [
      {
        "date": "2023-04-25",
        "priceEur": 34000,
        "typeLocal": "Appartement",
        "surfaceM2": 33,
        "isVefa": false
      },
      {
        "date": "2020-10-08",
        "priceEur": 35000,
        "typeLocal": "Appartement",
        "surfaceM2": 50,
        "isVefa": false
      }
    ]
  },
  "ae1bb3a7b33f": {
    "id": "ae1bb3a7b33f",
    "label": "7 RUE BARTHELEMY LUCHAIRE, Lodève",
    "lat": 43.731358,
    "lng": 3.324716,
    "transactions": [
      {
        "date": "2023-12-18",
        "priceEur": 62500,
        "typeLocal": "Appartement",
        "surfaceM2": 55,
        "isVefa": false
      },
      {
        "date": "2020-10-28",
        "priceEur": 72240,
        "typeLocal": "Appartement",
        "surfaceM2": 45,
        "isVefa": false
      }
    ]
  },
  "7730e93fd202": {
    "id": "7730e93fd202",
    "label": "19 RUE DU ROCHER, Lodève",
    "lat": 43.728963,
    "lng": 3.321165,
    "transactions": [
      {
        "date": "2020-10-28",
        "priceEur": 60000,
        "typeLocal": "Maison",
        "surfaceM2": 72,
        "isVefa": false
      }
    ]
  },
  "efc40e91b0cf": {
    "id": "efc40e91b0cf",
    "label": "7 RUE DES ECOLES, Lodève",
    "lat": 43.730375,
    "lng": 3.322275,
    "transactions": [
      {
        "date": "2021-08-27",
        "priceEur": 38500,
        "typeLocal": "Appartement",
        "surfaceM2": 50,
        "isVefa": false
      },
      {
        "date": "2020-11-06",
        "priceEur": 50000,
        "typeLocal": "Appartement",
        "surfaceM2": 53,
        "isVefa": false
      }
    ]
  },
  "c30d607446ca": {
    "id": "c30d607446ca",
    "label": "354 AV GENERAL DE GAULLE, Lodève",
    "lat": 43.726798,
    "lng": 3.323149,
    "transactions": [
      {
        "date": "2020-12-02",
        "priceEur": 375000,
        "typeLocal": "Appartement",
        "surfaceM2": 126,
        "isVefa": false
      }
    ]
  },
  "71acd9265fe0": {
    "id": "71acd9265fe0",
    "label": "13 RUE NOEL MUNUERA, Lodève",
    "lat": 43.730593,
    "lng": 3.322766,
    "transactions": [
      {
        "date": "2020-10-19",
        "priceEur": 73000,
        "typeLocal": "Appartement",
        "surfaceM2": 50,
        "isVefa": false
      }
    ]
  },
  "fd1acf9a7e61": {
    "id": "fd1acf9a7e61",
    "label": "3 RUE BARTHELEMY LUCHAIRE, Lodève",
    "lat": 43.731378,
    "lng": 3.324653,
    "transactions": [
      {
        "date": "2020-12-02",
        "priceEur": 143910,
        "typeLocal": "Maison",
        "surfaceM2": 40,
        "isVefa": false
      }
    ]
  },
  "e5e1e966cd3b": {
    "id": "e5e1e966cd3b",
    "label": "12 BD PROSPER GELY, Lodève",
    "lat": 43.7305,
    "lng": 3.322808,
    "transactions": [
      {
        "date": "2020-12-11",
        "priceEur": 41000,
        "typeLocal": "Appartement",
        "surfaceM2": 78,
        "isVefa": false
      }
    ]
  },
  "69377c8d519a": {
    "id": "69377c8d519a",
    "label": "11 RUE BARTHELEMY LUCHAIRE, Lodève",
    "lat": 43.731341,
    "lng": 3.324859,
    "transactions": [
      {
        "date": "2020-12-18",
        "priceEur": 29000,
        "typeLocal": "Maison",
        "surfaceM2": 67,
        "isVefa": false
      }
    ]
  },
  "8973ccacbb13": {
    "id": "8973ccacbb13",
    "label": "51 IMP DES LICIERS, Lodève",
    "lat": 43.725686,
    "lng": 3.323992,
    "transactions": [
      {
        "date": "2020-12-29",
        "priceEur": 1,
        "typeLocal": "Appartement",
        "surfaceM2": 65,
        "isVefa": false
      },
      {
        "date": "2020-12-29",
        "priceEur": 1,
        "typeLocal": "Appartement",
        "surfaceM2": 50,
        "isVefa": false
      },
      {
        "date": "2020-12-29",
        "priceEur": 1,
        "typeLocal": "Appartement",
        "surfaceM2": 40,
        "isVefa": false
      }
    ]
  },
  "3404deec8593": {
    "id": "3404deec8593",
    "label": "7 RUE CAVALERIE, Lodève",
    "lat": 43.730653,
    "lng": 3.319274,
    "transactions": [
      {
        "date": "2021-02-09",
        "priceEur": 52740,
        "typeLocal": "Appartement",
        "surfaceM2": 20,
        "isVefa": false
      },
      {
        "date": "2021-02-09",
        "priceEur": 52740,
        "typeLocal": "Appartement",
        "surfaceM2": 30,
        "isVefa": false
      }
    ]
  },
  "0b53b073a0c3": {
    "id": "0b53b073a0c3",
    "label": "27B RUE MONTBRUN, Lodève",
    "lat": 43.729169,
    "lng": 3.32129,
    "transactions": [
      {
        "date": "2021-03-16",
        "priceEur": 25000,
        "typeLocal": "Appartement",
        "surfaceM2": 32,
        "isVefa": false
      },
      {
        "date": "2021-03-16",
        "priceEur": 25000,
        "typeLocal": "Appartement",
        "surfaceM2": 33,
        "isVefa": false
      }
    ]
  },
  "d93216e7847f": {
    "id": "d93216e7847f",
    "label": "9 RUE DES AMANDIERS, Lodève",
    "lat": 43.729159,
    "lng": 3.322473,
    "transactions": [
      {
        "date": "2021-03-18",
        "priceEur": 175000,
        "typeLocal": "Maison",
        "surfaceM2": 65,
        "isVefa": false
      }
    ]
  },
  "5dca08513679": {
    "id": "5dca08513679",
    "label": "11 RUE DES AMANDIERS, Lodève",
    "lat": 43.729101,
    "lng": 3.321772,
    "transactions": [
      {
        "date": "2024-02-02",
        "priceEur": 140000,
        "typeLocal": "Maison",
        "surfaceM2": 75,
        "isVefa": false
      },
      {
        "date": "2021-03-12",
        "priceEur": 120500,
        "typeLocal": "Maison",
        "surfaceM2": 75,
        "isVefa": false
      }
    ]
  },
  "1af88e172570": {
    "id": "1af88e172570",
    "label": "2 RUE KLEBER, Lodève",
    "lat": 43.731095,
    "lng": 3.321097,
    "transactions": [
      {
        "date": "2023-06-26",
        "priceEur": 340000,
        "typeLocal": "Appartement",
        "surfaceM2": 25,
        "isVefa": false
      },
      {
        "date": "2023-06-26",
        "priceEur": 340000,
        "typeLocal": "Appartement",
        "surfaceM2": 25,
        "isVefa": false
      },
      {
        "date": "2021-03-16",
        "priceEur": 43000,
        "typeLocal": "Appartement",
        "surfaceM2": 53,
        "isVefa": false
      },
      {
        "date": "2021-03-16",
        "priceEur": 43000,
        "typeLocal": "Appartement",
        "surfaceM2": 53,
        "isVefa": false
      }
    ]
  },
  "b86b4248b4e0": {
    "id": "b86b4248b4e0",
    "label": "4 RUE CAPISCOLAT, Lodève",
    "lat": 43.731188,
    "lng": 3.318276,
    "transactions": [
      {
        "date": "2021-03-15",
        "priceEur": 35000,
        "typeLocal": "Appartement",
        "surfaceM2": 40,
        "isVefa": false
      }
    ]
  },
  "02822d836d6f": {
    "id": "02822d836d6f",
    "label": "14 BD PROSPER GELY, Lodève",
    "lat": 43.730447,
    "lng": 3.32273,
    "transactions": [
      {
        "date": "2023-03-16",
        "priceEur": 48000,
        "typeLocal": "Appartement",
        "surfaceM2": 60,
        "isVefa": false
      },
      {
        "date": "2021-03-18",
        "priceEur": 35500,
        "typeLocal": "Appartement",
        "surfaceM2": 34,
        "isVefa": false
      }
    ]
  },
  "b03a47044412": {
    "id": "b03a47044412",
    "label": "2 PL DE LA HALLE DARDE, Lodève",
    "lat": 43.730615,
    "lng": 3.321185,
    "transactions": [
      {
        "date": "2021-04-19",
        "priceEur": 150000,
        "typeLocal": "Appartement",
        "surfaceM2": 48,
        "isVefa": false
      }
    ]
  },
  "6b80e5e68ee3": {
    "id": "6b80e5e68ee3",
    "label": "5 RUE DES AMANDIERS, Lodève",
    "lat": 43.729399,
    "lng": 3.322393,
    "transactions": [
      {
        "date": "2022-03-10",
        "priceEur": 44500,
        "typeLocal": "Appartement",
        "surfaceM2": 32,
        "isVefa": false
      },
      {
        "date": "2021-04-06",
        "priceEur": 32900,
        "typeLocal": "Appartement",
        "surfaceM2": 36,
        "isVefa": false
      }
    ]
  },
  "01893ede8094": {
    "id": "01893ede8094",
    "label": "2 AV PAUL TEISSERENC, Lodève",
    "lat": 43.728484,
    "lng": 3.323551,
    "transactions": [
      {
        "date": "2021-04-01",
        "priceEur": 100500,
        "typeLocal": "Appartement",
        "surfaceM2": 60,
        "isVefa": false
      },
      {
        "date": "2021-04-01",
        "priceEur": 100500,
        "typeLocal": "Appartement",
        "surfaceM2": 59,
        "isVefa": false
      }
    ]
  },
  "e619e185cf1b": {
    "id": "e619e185cf1b",
    "label": "33 GR GRAND RUE, Lodève",
    "lat": 43.731137,
    "lng": 3.319493,
    "transactions": [
      {
        "date": "2024-09-30",
        "priceEur": 51200,
        "typeLocal": "Appartement",
        "surfaceM2": 44,
        "isVefa": false
      },
      {
        "date": "2021-04-15",
        "priceEur": 39000,
        "typeLocal": "Appartement",
        "surfaceM2": 44,
        "isVefa": false
      }
    ]
  },
  "98a839fe3cac": {
    "id": "98a839fe3cac",
    "label": "4B RUE CHATEAUDUN, Lodève",
    "lat": 43.731114,
    "lng": 3.318421,
    "transactions": [
      {
        "date": "2022-02-24",
        "priceEur": 72000,
        "typeLocal": "Appartement",
        "surfaceM2": 52,
        "isVefa": false
      },
      {
        "date": "2021-05-11",
        "priceEur": 500,
        "typeLocal": "Appartement",
        "surfaceM2": 20,
        "isVefa": false
      }
    ]
  },
  "8b3229ed15c8": {
    "id": "8b3229ed15c8",
    "label": "29 GR GRAND RUE, Lodève",
    "lat": 43.731087,
    "lng": 3.319665,
    "transactions": [
      {
        "date": "2023-11-27",
        "priceEur": 64000,
        "typeLocal": "Appartement",
        "surfaceM2": 38,
        "isVefa": false
      },
      {
        "date": "2023-09-19",
        "priceEur": 80000,
        "typeLocal": "Appartement",
        "surfaceM2": 40,
        "isVefa": false
      },
      {
        "date": "2021-05-12",
        "priceEur": 6000,
        "typeLocal": "Appartement",
        "surfaceM2": 25,
        "isVefa": false
      }
    ]
  },
  "dba855e7dd23": {
    "id": "dba855e7dd23",
    "label": "21 RUE MARCEAU, Lodève",
    "lat": 43.729513,
    "lng": 3.322566,
    "transactions": [
      {
        "date": "2021-05-17",
        "priceEur": 30000,
        "typeLocal": "Appartement",
        "surfaceM2": 63,
        "isVefa": false
      }
    ]
  },
  "a46b416f3114": {
    "id": "a46b416f3114",
    "label": "19 RUE NEUVE DES MARCHES, Lodève",
    "lat": 43.730871,
    "lng": 3.321549,
    "transactions": [
      {
        "date": "2021-06-09",
        "priceEur": 730000,
        "typeLocal": "Appartement",
        "surfaceM2": 55,
        "isVefa": false
      },
      {
        "date": "2021-06-09",
        "priceEur": 730000,
        "typeLocal": "Appartement",
        "surfaceM2": 54,
        "isVefa": false
      }
    ]
  },
  "e13b68b81bce": {
    "id": "e13b68b81bce",
    "label": "8 QUAI VINAS, Lodève",
    "lat": 43.729658,
    "lng": 3.322856,
    "transactions": [
      {
        "date": "2024-11-08",
        "priceEur": 67000,
        "typeLocal": "Appartement",
        "surfaceM2": 37,
        "isVefa": false
      },
      {
        "date": "2021-06-23",
        "priceEur": 60000,
        "typeLocal": "Appartement",
        "surfaceM2": 43,
        "isVefa": false
      }
    ]
  },
  "7e257ee1f16a": {
    "id": "7e257ee1f16a",
    "label": "1 QUAI VINAS, Lodève",
    "lat": 43.729412,
    "lng": 3.323544,
    "transactions": [
      {
        "date": "2021-06-03",
        "priceEur": 23000,
        "typeLocal": "Appartement",
        "surfaceM2": 25,
        "isVefa": false
      }
    ]
  },
  "4817a7088c30": {
    "id": "4817a7088c30",
    "label": "3 PL DE L ABBAYE, Lodève",
    "lat": 43.731369,
    "lng": 3.318376,
    "transactions": [
      {
        "date": "2022-10-25",
        "priceEur": 27000,
        "typeLocal": "Appartement",
        "surfaceM2": 36,
        "isVefa": false
      },
      {
        "date": "2021-07-16",
        "priceEur": 100000,
        "typeLocal": "Appartement",
        "surfaceM2": 52,
        "isVefa": false
      },
      {
        "date": "2021-07-16",
        "priceEur": 100000,
        "typeLocal": "Appartement",
        "surfaceM2": 52,
        "isVefa": false
      },
      {
        "date": "2021-07-16",
        "priceEur": 100000,
        "typeLocal": "Appartement",
        "surfaceM2": 52,
        "isVefa": false
      }
    ]
  },
  "c869b5aeca3a": {
    "id": "c869b5aeca3a",
    "label": "1 RUE DE L ANCIEN COLLEGE, Lodève",
    "lat": 43.730951,
    "lng": 3.322608,
    "transactions": [
      {
        "date": "2021-10-12",
        "priceEur": 7000,
        "typeLocal": "Appartement",
        "surfaceM2": 40,
        "isVefa": false
      },
      {
        "date": "2021-08-05",
        "priceEur": 60000,
        "typeLocal": "Appartement",
        "surfaceM2": 40,
        "isVefa": false
      }
    ]
  },
  "398ae10ecaf3": {
    "id": "398ae10ecaf3",
    "label": "3 RUE ROGER, Lodève",
    "lat": 43.729618,
    "lng": 3.321221,
    "transactions": [
      {
        "date": "2021-08-13",
        "priceEur": 110000,
        "typeLocal": "Maison",
        "surfaceM2": 75,
        "isVefa": false
      }
    ]
  },
  "b627c37a98c5": {
    "id": "b627c37a98c5",
    "label": "17 QUAI VINAS, Lodève",
    "lat": 43.729189,
    "lng": 3.323784,
    "transactions": [
      {
        "date": "2021-08-12",
        "priceEur": 112300,
        "typeLocal": "Appartement",
        "surfaceM2": 49,
        "isVefa": false
      },
      {
        "date": "2021-08-12",
        "priceEur": 112300,
        "typeLocal": "Appartement",
        "surfaceM2": 50,
        "isVefa": false
      }
    ]
  },
  "aaad3162815f": {
    "id": "aaad3162815f",
    "label": "2 RUE NOEL MUNUERA, Lodève",
    "lat": 43.730956,
    "lng": 3.322718,
    "transactions": [
      {
        "date": "2024-08-05",
        "priceEur": 235000,
        "typeLocal": "Appartement",
        "surfaceM2": 42,
        "isVefa": false
      },
      {
        "date": "2024-08-05",
        "priceEur": 235000,
        "typeLocal": "Appartement",
        "surfaceM2": 52,
        "isVefa": false
      },
      {
        "date": "2024-08-05",
        "priceEur": 235000,
        "typeLocal": "Appartement",
        "surfaceM2": 34,
        "isVefa": false
      },
      {
        "date": "2024-08-05",
        "priceEur": 235000,
        "typeLocal": "Appartement",
        "surfaceM2": 52,
        "isVefa": false
      },
      {
        "date": "2024-08-05",
        "priceEur": 235000,
        "typeLocal": "Appartement",
        "surfaceM2": 48,
        "isVefa": false
      },
      {
        "date": "2021-08-31",
        "priceEur": 188000,
        "typeLocal": "Appartement",
        "surfaceM2": 52,
        "isVefa": false
      },
      {
        "date": "2021-08-31",
        "priceEur": 188000,
        "typeLocal": "Appartement",
        "surfaceM2": 34,
        "isVefa": false
      },
      {
        "date": "2021-08-31",
        "priceEur": 188000,
        "typeLocal": "Appartement",
        "surfaceM2": 48,
        "isVefa": false
      },
      {
        "date": "2021-08-31",
        "priceEur": 188000,
        "typeLocal": "Appartement",
        "surfaceM2": 52,
        "isVefa": false
      }
    ]
  },
  "8fc5c26f2e73": {
    "id": "8fc5c26f2e73",
    "label": "11 RUE DU MAZEL, Lodève",
    "lat": 43.730284,
    "lng": 3.321825,
    "transactions": [
      {
        "date": "2021-09-03",
        "priceEur": 345000,
        "typeLocal": "Appartement",
        "surfaceM2": 50,
        "isVefa": false
      },
      {
        "date": "2021-09-03",
        "priceEur": 345000,
        "typeLocal": "Appartement",
        "surfaceM2": 52,
        "isVefa": false
      },
      {
        "date": "2021-09-03",
        "priceEur": 345000,
        "typeLocal": "Appartement",
        "surfaceM2": 36,
        "isVefa": false
      },
      {
        "date": "2021-09-03",
        "priceEur": 345000,
        "typeLocal": "Appartement",
        "surfaceM2": 52,
        "isVefa": false
      },
      {
        "date": "2021-09-03",
        "priceEur": 345000,
        "typeLocal": "Appartement",
        "surfaceM2": 62,
        "isVefa": false
      },
      {
        "date": "2021-09-03",
        "priceEur": 345000,
        "typeLocal": "Appartement",
        "surfaceM2": 53,
        "isVefa": false
      },
      {
        "date": "2021-09-03",
        "priceEur": 345000,
        "typeLocal": "Appartement",
        "surfaceM2": 48,
        "isVefa": false
      }
    ]
  },
  "04cef4aed478": {
    "id": "04cef4aed478",
    "label": "9 RUE DU MAZEL, Lodève",
    "lat": 43.730255,
    "lng": 3.32187,
    "transactions": [
      {
        "date": "2021-09-03",
        "priceEur": 345000,
        "typeLocal": "Appartement",
        "surfaceM2": 1,
        "isVefa": false
      }
    ]
  },
  "787cab72ee24": {
    "id": "787cab72ee24",
    "label": "13 RUE MONTBRUN, Lodève",
    "lat": 43.729353,
    "lng": 3.321837,
    "transactions": [
      {
        "date": "2021-09-15",
        "priceEur": 60000,
        "typeLocal": "Appartement",
        "surfaceM2": 70,
        "isVefa": false
      }
    ]
  },
  "dad88cccd579": {
    "id": "dad88cccd579",
    "label": "1 RUE DU CARDINAL FLEURY, Lodève",
    "lat": 43.731217,
    "lng": 3.32059,
    "transactions": [
      {
        "date": "2021-09-16",
        "priceEur": 54000,
        "typeLocal": "Appartement",
        "surfaceM2": 74,
        "isVefa": false
      }
    ]
  },
  "24ad8dcc26fd": {
    "id": "24ad8dcc26fd",
    "label": "14 GR GRAND RUE, Lodève",
    "lat": 43.731036,
    "lng": 3.320498,
    "transactions": [
      {
        "date": "2021-10-06",
        "priceEur": 355000,
        "typeLocal": "Maison",
        "surfaceM2": 84,
        "isVefa": false
      }
    ]
  },
  "2e1393905f02": {
    "id": "2e1393905f02",
    "label": "10 GR GRAND RUE, Lodève",
    "lat": 43.73109,
    "lng": 3.320609,
    "transactions": [
      {
        "date": "2021-10-06",
        "priceEur": 355000,
        "typeLocal": "Appartement",
        "surfaceM2": 55,
        "isVefa": false
      },
      {
        "date": "2021-10-06",
        "priceEur": 355000,
        "typeLocal": "Appartement",
        "surfaceM2": 95,
        "isVefa": false
      },
      {
        "date": "2021-10-06",
        "priceEur": 355000,
        "typeLocal": "Appartement",
        "surfaceM2": 55,
        "isVefa": false
      },
      {
        "date": "2021-10-06",
        "priceEur": 355000,
        "typeLocal": "Appartement",
        "surfaceM2": 64,
        "isVefa": false
      }
    ]
  },
  "db965cdd96d1": {
    "id": "db965cdd96d1",
    "label": "16 GR GRAND RUE, Lodève",
    "lat": 43.731109,
    "lng": 3.320412,
    "transactions": [
      {
        "date": "2021-09-24",
        "priceEur": 30000,
        "typeLocal": "Appartement",
        "surfaceM2": 23,
        "isVefa": false
      }
    ]
  },
  "88afcf464cde": {
    "id": "88afcf464cde",
    "label": "8 AV DENFERT ROCHEREAU, Lodève",
    "lat": 43.730654,
    "lng": 3.324336,
    "transactions": [
      {
        "date": "2021-10-06",
        "priceEur": 25000,
        "typeLocal": "Appartement",
        "surfaceM2": 30,
        "isVefa": false
      }
    ]
  },
  "e57c672d8ba7": {
    "id": "e57c672d8ba7",
    "label": "16 RUE NOEL MUNUERA, Lodève",
    "lat": 43.730343,
    "lng": 3.322409,
    "transactions": [
      {
        "date": "2021-10-08",
        "priceEur": 185500,
        "typeLocal": "Appartement",
        "surfaceM2": 90,
        "isVefa": false
      }
    ]
  },
  "c2e3b31c5607": {
    "id": "c2e3b31c5607",
    "label": "24 PL DES CHATAIGNONS, Lodève",
    "lat": 43.730122,
    "lng": 3.320812,
    "transactions": [
      {
        "date": "2021-09-22",
        "priceEur": 40000,
        "typeLocal": "Appartement",
        "surfaceM2": 45,
        "isVefa": false
      }
    ]
  },
  "7b69906bdba3": {
    "id": "7b69906bdba3",
    "label": "4B BD JEAN JAURES, Lodève",
    "lat": 43.730122,
    "lng": 3.320812,
    "transactions": [
      {
        "date": "2021-10-22",
        "priceEur": 58000,
        "typeLocal": "Appartement",
        "surfaceM2": 80,
        "isVefa": false
      }
    ]
  },
  "58158807c347": {
    "id": "58158807c347",
    "label": "9 RUE NOEL MUNUERA, Lodève",
    "lat": 43.730671,
    "lng": 3.322821,
    "transactions": [
      {
        "date": "2021-10-20",
        "priceEur": 59000,
        "typeLocal": "Appartement",
        "surfaceM2": 33,
        "isVefa": false
      },
      {
        "date": "2021-10-20",
        "priceEur": 59000,
        "typeLocal": "Appartement",
        "surfaceM2": 33,
        "isVefa": false
      }
    ]
  },
  "d884dd32b796": {
    "id": "d884dd32b796",
    "label": "12 RUE DE LA LERGUE, Lodève",
    "lat": 43.731111,
    "lng": 3.322614,
    "transactions": [
      {
        "date": "2023-10-03",
        "priceEur": 40000,
        "typeLocal": "Appartement",
        "surfaceM2": 46,
        "isVefa": false
      },
      {
        "date": "2023-10-03",
        "priceEur": 40000,
        "typeLocal": "Appartement",
        "surfaceM2": 46,
        "isVefa": false
      },
      {
        "date": "2023-10-03",
        "priceEur": 40000,
        "typeLocal": "Appartement",
        "surfaceM2": 46,
        "isVefa": false
      },
      {
        "date": "2021-11-09",
        "priceEur": 31000,
        "typeLocal": "Appartement",
        "surfaceM2": 46,
        "isVefa": false
      },
      {
        "date": "2021-11-09",
        "priceEur": 31000,
        "typeLocal": "Appartement",
        "surfaceM2": 46,
        "isVefa": false
      },
      {
        "date": "2021-11-09",
        "priceEur": 31000,
        "typeLocal": "Appartement",
        "surfaceM2": 46,
        "isVefa": false
      }
    ]
  },
  "4bce5bdfdf3c": {
    "id": "4bce5bdfdf3c",
    "label": "13 RUE DE LA LERGUE, Lodève",
    "lat": 43.730838,
    "lng": 3.321947,
    "transactions": [
      {
        "date": "2021-11-09",
        "priceEur": 43000,
        "typeLocal": "Appartement",
        "surfaceM2": 34,
        "isVefa": false
      }
    ]
  },
  "ab06d4750964": {
    "id": "ab06d4750964",
    "label": "33 RUE DU NOISETIER, Lodève",
    "lat": 43.728934,
    "lng": 3.321419,
    "transactions": [
      {
        "date": "2021-12-03",
        "priceEur": 147000,
        "typeLocal": "Maison",
        "surfaceM2": 46,
        "isVefa": false
      }
    ]
  },
  "55c5fb35de43": {
    "id": "55c5fb35de43",
    "label": "5 RUE MARCEAU, Lodève",
    "lat": 43.729361,
    "lng": 3.323127,
    "transactions": [
      {
        "date": "2021-12-13",
        "priceEur": 28500,
        "typeLocal": "Appartement",
        "surfaceM2": 36,
        "isVefa": false
      }
    ]
  },
  "1f54bc275827": {
    "id": "1f54bc275827",
    "label": "1 RUE LIEUTENANT AUGUSTE RAMES, Lodève",
    "lat": 43.729943,
    "lng": 3.320237,
    "transactions": [
      {
        "date": "2021-12-02",
        "priceEur": 70000,
        "typeLocal": "Appartement",
        "surfaceM2": 38,
        "isVefa": false
      },
      {
        "date": "2021-12-02",
        "priceEur": 70000,
        "typeLocal": "Appartement",
        "surfaceM2": 52,
        "isVefa": false
      },
      {
        "date": "2021-12-02",
        "priceEur": 70000,
        "typeLocal": "Appartement",
        "surfaceM2": 52,
        "isVefa": false
      },
      {
        "date": "2021-12-02",
        "priceEur": 70000,
        "typeLocal": "Appartement",
        "surfaceM2": 38,
        "isVefa": false
      },
      {
        "date": "2021-12-02",
        "priceEur": 70000,
        "typeLocal": "Appartement",
        "surfaceM2": 38,
        "isVefa": false
      },
      {
        "date": "2021-12-02",
        "priceEur": 70000,
        "typeLocal": "Appartement",
        "surfaceM2": 38,
        "isVefa": false
      }
    ]
  },
  "4fd058b5a432": {
    "id": "4fd058b5a432",
    "label": "7 PL DE LA HALLE DARDE, Lodève",
    "lat": 43.730367,
    "lng": 3.321681,
    "transactions": [
      {
        "date": "2024-09-25",
        "priceEur": 79000,
        "typeLocal": "Appartement",
        "surfaceM2": 63,
        "isVefa": false
      },
      {
        "date": "2021-12-20",
        "priceEur": 52000,
        "typeLocal": "Appartement",
        "surfaceM2": 50,
        "isVefa": false
      }
    ]
  },
  "f773d58c3e8e": {
    "id": "f773d58c3e8e",
    "label": "2 RUE DE LA HALLE, Lodève",
    "lat": 43.730721,
    "lng": 3.320975,
    "transactions": [
      {
        "date": "2022-01-12",
        "priceEur": 90000,
        "typeLocal": "Maison",
        "surfaceM2": 71,
        "isVefa": false
      }
    ]
  },
  "8e7252e5c92f": {
    "id": "8e7252e5c92f",
    "label": "8 RUE NEUVE DES MARCHES, Lodève",
    "lat": 43.731233,
    "lng": 3.321257,
    "transactions": [
      {
        "date": "2023-01-26",
        "priceEur": 71000,
        "typeLocal": "Appartement",
        "surfaceM2": 90,
        "isVefa": false
      },
      {
        "date": "2022-01-24",
        "priceEur": 65000,
        "typeLocal": "Appartement",
        "surfaceM2": 63,
        "isVefa": false
      }
    ]
  },
  "1d3939e8fb6f": {
    "id": "1d3939e8fb6f",
    "label": "1 IMP CHATEAUDUN, Lodève",
    "lat": 43.731183,
    "lng": 3.318482,
    "transactions": [
      {
        "date": "2022-01-28",
        "priceEur": 114395,
        "typeLocal": "Maison",
        "surfaceM2": 80,
        "isVefa": false
      }
    ]
  },
  "46e7f125d8f9": {
    "id": "46e7f125d8f9",
    "label": "3 IMP CHATEAUDUN, Lodève",
    "lat": 43.731155,
    "lng": 3.318538,
    "transactions": [
      {
        "date": "2022-01-28",
        "priceEur": 114395,
        "typeLocal": "Appartement",
        "surfaceM2": 40,
        "isVefa": false
      }
    ]
  },
  "ee43787fba27": {
    "id": "ee43787fba27",
    "label": "5 IMP CHATEAUDUN, Lodève",
    "lat": 43.731141,
    "lng": 3.318591,
    "transactions": [
      {
        "date": "2022-01-28",
        "priceEur": 114395,
        "typeLocal": "Appartement",
        "surfaceM2": 24,
        "isVefa": false
      },
      {
        "date": "2022-01-28",
        "priceEur": 114395,
        "typeLocal": "Appartement",
        "surfaceM2": 68,
        "isVefa": false
      },
      {
        "date": "2022-01-28",
        "priceEur": 114395,
        "typeLocal": "Appartement",
        "surfaceM2": 56,
        "isVefa": false
      }
    ]
  },
  "9c5dc85184c2": {
    "id": "9c5dc85184c2",
    "label": "3 RUE NOEL MUNUERA, Lodève",
    "lat": 43.730859,
    "lng": 3.322797,
    "transactions": [
      {
        "date": "2022-02-17",
        "priceEur": 25000,
        "typeLocal": "Maison",
        "surfaceM2": 43,
        "isVefa": false
      }
    ]
  },
  "24cffa1bc325": {
    "id": "24cffa1bc325",
    "label": "1 RUE DES AMANDIERS, Lodève",
    "lat": 43.729384,
    "lng": 3.322089,
    "transactions": [
      {
        "date": "2023-09-28",
        "priceEur": 44000,
        "typeLocal": "Appartement",
        "surfaceM2": 69,
        "isVefa": false
      },
      {
        "date": "2022-03-23",
        "priceEur": 31000,
        "typeLocal": "Appartement",
        "surfaceM2": 44,
        "isVefa": false
      }
    ]
  },
  "9fd80800b250": {
    "id": "9fd80800b250",
    "label": "1 GR GRAND RUE, Lodève",
    "lat": 43.730819,
    "lng": 3.321031,
    "transactions": [
      {
        "date": "2024-07-15",
        "priceEur": 62475,
        "typeLocal": "Appartement",
        "surfaceM2": 30,
        "isVefa": false
      },
      {
        "date": "2024-07-15",
        "priceEur": 62475,
        "typeLocal": "Appartement",
        "surfaceM2": 1,
        "isVefa": false
      },
      {
        "date": "2024-07-15",
        "priceEur": 62475,
        "typeLocal": "Appartement",
        "surfaceM2": 95,
        "isVefa": false
      },
      {
        "date": "2022-05-23",
        "priceEur": 208000,
        "typeLocal": "Appartement",
        "surfaceM2": 25,
        "isVefa": false
      },
      {
        "date": "2022-05-23",
        "priceEur": 208000,
        "typeLocal": "Appartement",
        "surfaceM2": 89,
        "isVefa": false
      },
      {
        "date": "2022-05-23",
        "priceEur": 208000,
        "typeLocal": "Appartement",
        "surfaceM2": 1,
        "isVefa": false
      }
    ]
  },
  "3d8cf96b4f91": {
    "id": "3d8cf96b4f91",
    "label": "4 RUE DE LA HALLE, Lodève",
    "lat": 43.730783,
    "lng": 3.320837,
    "transactions": [
      {
        "date": "2022-05-27",
        "priceEur": 54910,
        "typeLocal": "Appartement",
        "surfaceM2": 65,
        "isVefa": false
      }
    ]
  },
  "6a13a0862f55": {
    "id": "6a13a0862f55",
    "label": "34 RUE DE LA LERGUE, Lodève",
    "lat": 43.731033,
    "lng": 3.321637,
    "transactions": [
      {
        "date": "2024-01-12",
        "priceEur": 72500,
        "typeLocal": "Appartement",
        "surfaceM2": 56,
        "isVefa": false
      },
      {
        "date": "2022-11-21",
        "priceEur": 33000,
        "typeLocal": "Appartement",
        "surfaceM2": 55,
        "isVefa": false
      },
      {
        "date": "2022-08-26",
        "priceEur": 64600,
        "typeLocal": "Appartement",
        "surfaceM2": 69,
        "isVefa": false
      },
      {
        "date": "2022-07-11",
        "priceEur": 47000,
        "typeLocal": "Appartement",
        "surfaceM2": 55,
        "isVefa": false
      },
      {
        "date": "2022-06-01",
        "priceEur": 66000,
        "typeLocal": "Appartement",
        "surfaceM2": 56,
        "isVefa": false
      }
    ]
  },
  "642e026afaa5": {
    "id": "642e026afaa5",
    "label": "10 RUE CAVALERIE, Lodève",
    "lat": 43.730797,
    "lng": 3.319282,
    "transactions": [
      {
        "date": "2022-06-29",
        "priceEur": 65000,
        "typeLocal": "Maison",
        "surfaceM2": 80,
        "isVefa": false
      }
    ]
  },
  "7999474fe8d8": {
    "id": "7999474fe8d8",
    "label": "177 AV GENERAL DE GAULLE, Lodève",
    "lat": 43.728052,
    "lng": 3.324435,
    "transactions": [
      {
        "date": "2022-07-18",
        "priceEur": 60000,
        "typeLocal": "Maison",
        "surfaceM2": 67,
        "isVefa": false
      }
    ]
  },
  "93052ece9cb1": {
    "id": "93052ece9cb1",
    "label": "1 RUE DE L UNION, Lodève",
    "lat": 43.730729,
    "lng": 3.318822,
    "transactions": [
      {
        "date": "2022-07-13",
        "priceEur": 42500,
        "typeLocal": "Appartement",
        "surfaceM2": 57,
        "isVefa": false
      }
    ]
  },
  "4ddc96b1b1a9": {
    "id": "4ddc96b1b1a9",
    "label": "22 RUE DES AMANDIERS, Lodève",
    "lat": 43.729058,
    "lng": 3.321004,
    "transactions": [
      {
        "date": "2022-07-01",
        "priceEur": 136000,
        "typeLocal": "Appartement",
        "surfaceM2": 66,
        "isVefa": false
      },
      {
        "date": "2022-07-01",
        "priceEur": 136000,
        "typeLocal": "Appartement",
        "surfaceM2": 1,
        "isVefa": false
      }
    ]
  },
  "bc905454dac2": {
    "id": "bc905454dac2",
    "label": "22B RUE DES AMANDIERS, Lodève",
    "lat": 43.729025,
    "lng": 3.320921,
    "transactions": [
      {
        "date": "2022-07-01",
        "priceEur": 136000,
        "typeLocal": "Appartement",
        "surfaceM2": 24,
        "isVefa": false
      }
    ]
  },
  "adb81a1fc2f4": {
    "id": "adb81a1fc2f4",
    "label": "175 RTE D OLMET, Lodève",
    "lat": 43.728772,
    "lng": 3.320059,
    "transactions": [
      {
        "date": "2022-07-25",
        "priceEur": 55000,
        "typeLocal": "Appartement",
        "surfaceM2": 54,
        "isVefa": false
      }
    ]
  },
  "06ad02fbac09": {
    "id": "06ad02fbac09",
    "label": "25 RUE MARCEAU, Lodève",
    "lat": 43.729577,
    "lng": 3.32257,
    "transactions": [
      {
        "date": "2022-09-06",
        "priceEur": 60000,
        "typeLocal": "Appartement",
        "surfaceM2": 1,
        "isVefa": false
      }
    ]
  },
  "dbd8810ed62e": {
    "id": "dbd8810ed62e",
    "label": "23 RUE MARCEAU, Lodève",
    "lat": 43.729513,
    "lng": 3.322566,
    "transactions": [
      {
        "date": "2022-09-06",
        "priceEur": 60000,
        "typeLocal": "Appartement",
        "surfaceM2": 51,
        "isVefa": false
      }
    ]
  },
  "70e7529106ef": {
    "id": "70e7529106ef",
    "label": "1 BD JEAN JAURES, Lodève",
    "lat": 43.729793,
    "lng": 3.321433,
    "transactions": [
      {
        "date": "2022-09-08",
        "priceEur": 139300,
        "typeLocal": "Appartement",
        "surfaceM2": 152,
        "isVefa": false
      }
    ]
  },
  "47d315bfcb3f": {
    "id": "47d315bfcb3f",
    "label": "11 RUE NOEL MUNUERA, Lodève",
    "lat": 43.730642,
    "lng": 3.322792,
    "transactions": [
      {
        "date": "2023-07-28",
        "priceEur": 53000,
        "typeLocal": "Maison",
        "surfaceM2": 60,
        "isVefa": false
      },
      {
        "date": "2022-09-15",
        "priceEur": 30000,
        "typeLocal": "Maison",
        "surfaceM2": 60,
        "isVefa": false
      }
    ]
  },
  "48416a377b95": {
    "id": "48416a377b95",
    "label": "1B RUE MARCEAU, Lodève",
    "lat": 43.729373,
    "lng": 3.323255,
    "transactions": [
      {
        "date": "2022-09-21",
        "priceEur": 13000,
        "typeLocal": "Appartement",
        "surfaceM2": 32,
        "isVefa": false
      }
    ]
  },
  "ec5d2c9d7421": {
    "id": "ec5d2c9d7421",
    "label": "14 RUE CAVALERIE, Lodève",
    "lat": 43.730736,
    "lng": 3.319148,
    "transactions": [
      {
        "date": "2022-09-23",
        "priceEur": 11000,
        "typeLocal": "Maison",
        "surfaceM2": 100,
        "isVefa": false
      }
    ]
  },
  "b37e578b09e7": {
    "id": "b37e578b09e7",
    "label": "14 RUE DU MAZEL, Lodève",
    "lat": 43.730608,
    "lng": 3.321557,
    "transactions": [
      {
        "date": "2022-09-20",
        "priceEur": 47500,
        "typeLocal": "Maison",
        "surfaceM2": 56,
        "isVefa": false
      }
    ]
  },
  "eb3d7dd8d391": {
    "id": "eb3d7dd8d391",
    "label": "2 PL DE LA BOUQUERIE, Lodève",
    "lat": 43.730856,
    "lng": 3.317909,
    "transactions": [
      {
        "date": "2024-06-21",
        "priceEur": 10000,
        "typeLocal": "Appartement",
        "surfaceM2": 45,
        "isVefa": false
      },
      {
        "date": "2024-06-21",
        "priceEur": 10000,
        "typeLocal": "Appartement",
        "surfaceM2": 13,
        "isVefa": false
      },
      {
        "date": "2024-06-21",
        "priceEur": 10000,
        "typeLocal": "Appartement",
        "surfaceM2": 13,
        "isVefa": false
      },
      {
        "date": "2023-07-28",
        "priceEur": 20500,
        "typeLocal": "Appartement",
        "surfaceM2": 13,
        "isVefa": false
      },
      {
        "date": "2023-07-28",
        "priceEur": 20500,
        "typeLocal": "Appartement",
        "surfaceM2": 45,
        "isVefa": false
      },
      {
        "date": "2023-07-28",
        "priceEur": 20500,
        "typeLocal": "Appartement",
        "surfaceM2": 45,
        "isVefa": false
      },
      {
        "date": "2023-07-28",
        "priceEur": 20500,
        "typeLocal": "Appartement",
        "surfaceM2": 13,
        "isVefa": false
      },
      {
        "date": "2023-07-28",
        "priceEur": 20500,
        "typeLocal": "Appartement",
        "surfaceM2": 13,
        "isVefa": false
      },
      {
        "date": "2022-10-14",
        "priceEur": 28000,
        "typeLocal": "Appartement",
        "surfaceM2": 13,
        "isVefa": false
      },
      {
        "date": "2022-10-14",
        "priceEur": 28000,
        "typeLocal": "Appartement",
        "surfaceM2": 45,
        "isVefa": false
      }
    ]
  },
  "f7d65e37dc02": {
    "id": "f7d65e37dc02",
    "label": "145 QUAI MEGISSERIE, Lodève",
    "lat": 43.729658,
    "lng": 3.318515,
    "transactions": [
      {
        "date": "2022-10-17",
        "priceEur": 130000,
        "typeLocal": "Maison",
        "surfaceM2": 98,
        "isVefa": false
      }
    ]
  },
  "f55149ed103a": {
    "id": "f55149ed103a",
    "label": "15 GR GRAND RUE, Lodève",
    "lat": 43.730855,
    "lng": 3.32051,
    "transactions": [
      {
        "date": "2022-10-04",
        "priceEur": 80000,
        "typeLocal": "Appartement",
        "surfaceM2": 140,
        "isVefa": false
      },
      {
        "date": "2022-10-04",
        "priceEur": 80000,
        "typeLocal": "Appartement",
        "surfaceM2": 100,
        "isVefa": false
      }
    ]
  },
  "64c9812d1441": {
    "id": "64c9812d1441",
    "label": "16 RUE DE LA REPUBLIQUE, Lodève",
    "lat": 43.731353,
    "lng": 3.319386,
    "transactions": [
      {
        "date": "2022-10-28",
        "priceEur": 152000,
        "typeLocal": "Appartement",
        "surfaceM2": 33,
        "isVefa": false
      },
      {
        "date": "2022-10-28",
        "priceEur": 152000,
        "typeLocal": "Appartement",
        "surfaceM2": 33,
        "isVefa": false
      },
      {
        "date": "2022-10-28",
        "priceEur": 152000,
        "typeLocal": "Appartement",
        "surfaceM2": 33,
        "isVefa": false
      }
    ]
  },
  "a99ed17dca58": {
    "id": "a99ed17dca58",
    "label": "4 BD DE LA BOUQUERIE, Lodève",
    "lat": 43.730707,
    "lng": 3.318621,
    "transactions": [
      {
        "date": "2022-10-21",
        "priceEur": 69000,
        "typeLocal": "Maison",
        "surfaceM2": 74,
        "isVefa": false
      }
    ]
  },
  "f627e4a3ea56": {
    "id": "f627e4a3ea56",
    "label": "2 RUE DE L ANCIEN COLLEGE, Lodève",
    "lat": 43.730606,
    "lng": 3.322535,
    "transactions": [
      {
        "date": "2024-05-28",
        "priceEur": 52000,
        "typeLocal": "Appartement",
        "surfaceM2": 56,
        "isVefa": false
      },
      {
        "date": "2022-12-05",
        "priceEur": 37100,
        "typeLocal": "Appartement",
        "surfaceM2": 24,
        "isVefa": false
      }
    ]
  },
  "86ea609185ba": {
    "id": "86ea609185ba",
    "label": "1 RUE MARCEAU, Lodève",
    "lat": 43.729364,
    "lng": 3.323296,
    "transactions": [
      {
        "date": "2022-12-09",
        "priceEur": 70000,
        "typeLocal": "Maison",
        "surfaceM2": 69,
        "isVefa": false
      }
    ]
  },
  "9e756a714b38": {
    "id": "9e756a714b38",
    "label": "14 BD JEAN JAURES, Lodève",
    "lat": 43.730292,
    "lng": 3.320081,
    "transactions": [
      {
        "date": "2022-12-06",
        "priceEur": 55000,
        "typeLocal": "Appartement",
        "surfaceM2": 35,
        "isVefa": false
      },
      {
        "date": "2022-12-06",
        "priceEur": 55000,
        "typeLocal": "Appartement",
        "surfaceM2": 55,
        "isVefa": false
      },
      {
        "date": "2022-12-06",
        "priceEur": 55000,
        "typeLocal": "Appartement",
        "surfaceM2": 92,
        "isVefa": false
      },
      {
        "date": "2022-12-06",
        "priceEur": 55000,
        "typeLocal": "Appartement",
        "surfaceM2": 92,
        "isVefa": false
      },
      {
        "date": "2022-12-06",
        "priceEur": 55000,
        "typeLocal": "Appartement",
        "surfaceM2": 92,
        "isVefa": false
      }
    ]
  },
  "abfa34c07e52": {
    "id": "abfa34c07e52",
    "label": "8 BD DE LA BOUQUERIE, Lodève",
    "lat": 43.73082,
    "lng": 3.318363,
    "transactions": [
      {
        "date": "2022-12-12",
        "priceEur": 170000,
        "typeLocal": "Appartement",
        "surfaceM2": 25,
        "isVefa": false
      },
      {
        "date": "2022-12-12",
        "priceEur": 170000,
        "typeLocal": "Appartement",
        "surfaceM2": 64,
        "isVefa": false
      },
      {
        "date": "2022-12-12",
        "priceEur": 170000,
        "typeLocal": "Appartement",
        "surfaceM2": 25,
        "isVefa": false
      },
      {
        "date": "2022-12-12",
        "priceEur": 170000,
        "typeLocal": "Appartement",
        "surfaceM2": 62,
        "isVefa": false
      },
      {
        "date": "2022-12-12",
        "priceEur": 170000,
        "typeLocal": "Appartement",
        "surfaceM2": 120,
        "isVefa": false
      }
    ]
  },
  "9d1b01b45cee": {
    "id": "9d1b01b45cee",
    "label": "4 RUE KLEBER, Lodève",
    "lat": 43.731156,
    "lng": 3.321164,
    "transactions": [
      {
        "date": "2022-12-12",
        "priceEur": 54000,
        "typeLocal": "Maison",
        "surfaceM2": 50,
        "isVefa": false
      }
    ]
  },
  "f62900957279": {
    "id": "f62900957279",
    "label": "27 RUE MONTBRUN, Lodève",
    "lat": 43.729176,
    "lng": 3.321332,
    "transactions": [
      {
        "date": "2023-02-06",
        "priceEur": 38000,
        "typeLocal": "Appartement",
        "surfaceM2": 90,
        "isVefa": false
      }
    ]
  },
  "e6c3dbdc0a96": {
    "id": "e6c3dbdc0a96",
    "label": "10 BD PROSPER GELY, Lodève",
    "lat": 43.730584,
    "lng": 3.322897,
    "transactions": [
      {
        "date": "2023-01-27",
        "priceEur": 159000,
        "typeLocal": "Appartement",
        "surfaceM2": 50,
        "isVefa": false
      },
      {
        "date": "2023-01-27",
        "priceEur": 159000,
        "typeLocal": "Appartement",
        "surfaceM2": 40,
        "isVefa": false
      },
      {
        "date": "2023-01-27",
        "priceEur": 159000,
        "typeLocal": "Appartement",
        "surfaceM2": 70,
        "isVefa": false
      },
      {
        "date": "2023-01-27",
        "priceEur": 159000,
        "typeLocal": "Appartement",
        "surfaceM2": 70,
        "isVefa": false
      }
    ]
  },
  "293a740ca37b": {
    "id": "293a740ca37b",
    "label": "1B RUE CHATEAUDUN, Lodève",
    "lat": 43.730897,
    "lng": 3.317937,
    "transactions": [
      {
        "date": "2023-06-21",
        "priceEur": 40000,
        "typeLocal": "Appartement",
        "surfaceM2": 42,
        "isVefa": false
      },
      {
        "date": "2023-02-13",
        "priceEur": 58770,
        "typeLocal": "Appartement",
        "surfaceM2": 44,
        "isVefa": false
      }
    ]
  },
  "4dc0e8456f53": {
    "id": "4dc0e8456f53",
    "label": "234 AV PAUL TEISSERENC, Lodève",
    "lat": 43.727104,
    "lng": 3.322157,
    "transactions": [
      {
        "date": "2023-02-27",
        "priceEur": 230000,
        "typeLocal": "Maison",
        "surfaceM2": 92,
        "isVefa": false
      },
      {
        "date": "2023-02-27",
        "priceEur": 230000,
        "typeLocal": "Maison",
        "surfaceM2": 92,
        "isVefa": false
      }
    ]
  },
  "ea80ecaef949": {
    "id": "ea80ecaef949",
    "label": "14 RUE DE LA LERGUE, Lodève",
    "lat": 43.731098,
    "lng": 3.322521,
    "transactions": [
      {
        "date": "2024-11-27",
        "priceEur": 60500,
        "typeLocal": "Appartement",
        "surfaceM2": 56,
        "isVefa": false
      },
      {
        "date": "2023-12-11",
        "priceEur": 11500,
        "typeLocal": "Appartement",
        "surfaceM2": 40,
        "isVefa": false
      },
      {
        "date": "2023-02-23",
        "priceEur": 109500,
        "typeLocal": "Appartement",
        "surfaceM2": 42,
        "isVefa": false
      }
    ]
  },
  "947279d45825": {
    "id": "947279d45825",
    "label": "3 IMP GALIBERT, Lodève",
    "lat": 43.731231,
    "lng": 3.321851,
    "transactions": [
      {
        "date": "2023-03-10",
        "priceEur": 43000,
        "typeLocal": "Maison",
        "surfaceM2": 104,
        "isVefa": false
      }
    ]
  },
  "c8e76b51afc8": {
    "id": "c8e76b51afc8",
    "label": "5 RUE CAVALERIE, Lodève",
    "lat": 43.730653,
    "lng": 3.319274,
    "transactions": [
      {
        "date": "2025-03-31",
        "priceEur": 60000,
        "typeLocal": "Maison",
        "surfaceM2": 60,
        "isVefa": false
      },
      {
        "date": "2023-03-27",
        "priceEur": 50000,
        "typeLocal": "Maison",
        "surfaceM2": 60,
        "isVefa": false
      }
    ]
  },
  "92f78f458368": {
    "id": "92f78f458368",
    "label": "5432F MONTBRUN, Lodève",
    "lat": 43.7293,
    "lng": 3.323037,
    "transactions": [
      {
        "date": "2023-03-24",
        "priceEur": 66000,
        "typeLocal": "Maison",
        "surfaceM2": 70,
        "isVefa": false
      }
    ]
  },
  "84217d3534d6": {
    "id": "84217d3534d6",
    "label": "8 RUE DES AMANDIERS, Lodève",
    "lat": 43.729294,
    "lng": 3.322269,
    "transactions": [
      {
        "date": "2023-03-31",
        "priceEur": 130000,
        "typeLocal": "Appartement",
        "surfaceM2": 40,
        "isVefa": false
      },
      {
        "date": "2023-03-31",
        "priceEur": 130000,
        "typeLocal": "Appartement",
        "surfaceM2": 34,
        "isVefa": false
      }
    ]
  },
  "3ed511088560": {
    "id": "3ed511088560",
    "label": "10 RUE DES AMANDIERS, Lodève",
    "lat": 43.729275,
    "lng": 3.322184,
    "transactions": [
      {
        "date": "2023-03-31",
        "priceEur": 130000,
        "typeLocal": "Maison",
        "surfaceM2": 66,
        "isVefa": false
      }
    ]
  },
  "196199fee900": {
    "id": "196199fee900",
    "label": "4 RUE DES AMANDIERS, Lodève",
    "lat": 43.729324,
    "lng": 3.322174,
    "transactions": [
      {
        "date": "2023-03-31",
        "priceEur": 130000,
        "typeLocal": "Maison",
        "surfaceM2": 25,
        "isVefa": false
      }
    ]
  },
  "9ffbc964999d": {
    "id": "9ffbc964999d",
    "label": "16 RUE DES AMANDIERS, Lodève",
    "lat": 43.729245,
    "lng": 3.321766,
    "transactions": [
      {
        "date": "2023-05-16",
        "priceEur": 78315,
        "typeLocal": "Appartement",
        "surfaceM2": 39,
        "isVefa": false
      },
      {
        "date": "2023-05-16",
        "priceEur": 78315,
        "typeLocal": "Appartement",
        "surfaceM2": 39,
        "isVefa": false
      }
    ]
  },
  "e8a4a2708b0c": {
    "id": "e8a4a2708b0c",
    "label": "3 RUE DES AMANDIERS, Lodève",
    "lat": 43.729452,
    "lng": 3.32217,
    "transactions": [
      {
        "date": "2023-05-30",
        "priceEur": 62000,
        "typeLocal": "Appartement",
        "surfaceM2": 1,
        "isVefa": false
      },
      {
        "date": "2023-05-30",
        "priceEur": 62000,
        "typeLocal": "Appartement",
        "surfaceM2": 52,
        "isVefa": false
      }
    ]
  },
  "e38fa63b87be": {
    "id": "e38fa63b87be",
    "label": "11 RUE DE LA REPUBLIQUE, Lodève",
    "lat": 43.730972,
    "lng": 3.318873,
    "transactions": [
      {
        "date": "2023-06-23",
        "priceEur": 26500,
        "typeLocal": "Appartement",
        "surfaceM2": 17,
        "isVefa": false
      }
    ]
  },
  "8f03c7d7dc3f": {
    "id": "8f03c7d7dc3f",
    "label": "2 GR GRAND RUE, Lodève",
    "lat": 43.73116,
    "lng": 3.321229,
    "transactions": [
      {
        "date": "2023-06-26",
        "priceEur": 340000,
        "typeLocal": "Appartement",
        "surfaceM2": 1,
        "isVefa": false
      },
      {
        "date": "2023-06-26",
        "priceEur": 340000,
        "typeLocal": "Appartement",
        "surfaceM2": 1,
        "isVefa": false
      }
    ]
  },
  "a562a68dcaa7": {
    "id": "a562a68dcaa7",
    "label": "2B GR GRAND RUE, Lodève",
    "lat": 43.731065,
    "lng": 3.32122,
    "transactions": [
      {
        "date": "2023-06-26",
        "priceEur": 340000,
        "typeLocal": "Appartement",
        "surfaceM2": 115,
        "isVefa": false
      },
      {
        "date": "2023-06-26",
        "priceEur": 340000,
        "typeLocal": "Appartement",
        "surfaceM2": 69,
        "isVefa": false
      },
      {
        "date": "2023-06-26",
        "priceEur": 340000,
        "typeLocal": "Appartement",
        "surfaceM2": 57,
        "isVefa": false
      }
    ]
  },
  "0f0f2acb7b5a": {
    "id": "0f0f2acb7b5a",
    "label": "2 RUE DU ROCHER, Lodève",
    "lat": 43.729083,
    "lng": 3.321466,
    "transactions": [
      {
        "date": "2023-06-23",
        "priceEur": 74015,
        "typeLocal": "Maison",
        "surfaceM2": 60,
        "isVefa": false
      }
    ]
  },
  "5064c504e5f7": {
    "id": "5064c504e5f7",
    "label": "9104 RUE DE LA LERGUE, Lodève",
    "lat": 43.731279,
    "lng": 3.322466,
    "transactions": [
      {
        "date": "2023-06-22",
        "priceEur": 74000,
        "typeLocal": "Appartement",
        "surfaceM2": 1,
        "isVefa": false
      }
    ]
  },
  "9121cd43c55a": {
    "id": "9121cd43c55a",
    "label": "5 RUE DE L INDEPENDANCE, Lodève",
    "lat": 43.731247,
    "lng": 3.322515,
    "transactions": [
      {
        "date": "2023-06-22",
        "priceEur": 74000,
        "typeLocal": "Appartement",
        "surfaceM2": 48,
        "isVefa": false
      }
    ]
  },
  "c41bf556b522": {
    "id": "c41bf556b522",
    "label": "2 RUE DES TRAVAILLEURS, Lodève",
    "lat": 43.729743,
    "lng": 3.322659,
    "transactions": [
      {
        "date": "2023-06-26",
        "priceEur": 160000,
        "typeLocal": "Appartement",
        "surfaceM2": 30,
        "isVefa": false
      },
      {
        "date": "2023-06-26",
        "priceEur": 160000,
        "typeLocal": "Appartement",
        "surfaceM2": 42,
        "isVefa": false
      },
      {
        "date": "2023-06-26",
        "priceEur": 160000,
        "typeLocal": "Appartement",
        "surfaceM2": 25,
        "isVefa": false
      },
      {
        "date": "2023-06-26",
        "priceEur": 160000,
        "typeLocal": "Appartement",
        "surfaceM2": 42,
        "isVefa": false
      }
    ]
  },
  "b6370cedce71": {
    "id": "b6370cedce71",
    "label": "7 RUE NEUVE DES MARCHES, Lodève",
    "lat": 43.731313,
    "lng": 3.321687,
    "transactions": [
      {
        "date": "2023-07-05",
        "priceEur": 73000,
        "typeLocal": "Maison",
        "surfaceM2": 78,
        "isVefa": false
      }
    ]
  },
  "83cfbaeadc88": {
    "id": "83cfbaeadc88",
    "label": "3 RUE LIEUTENANT AUGUSTE RAMES, Lodève",
    "lat": 43.729716,
    "lng": 3.320206,
    "transactions": [
      {
        "date": "2023-07-19",
        "priceEur": 100550,
        "typeLocal": "Appartement",
        "surfaceM2": 80,
        "isVefa": false
      }
    ]
  },
  "fa4e9a1a6ec3": {
    "id": "fa4e9a1a6ec3",
    "label": "13 RUE DE LA REPUBLIQUE, Lodève",
    "lat": 43.731068,
    "lng": 3.318951,
    "transactions": [
      {
        "date": "2023-07-28",
        "priceEur": 120000,
        "typeLocal": "Appartement",
        "surfaceM2": 150,
        "isVefa": false
      }
    ]
  },
  "a80839670dd5": {
    "id": "a80839670dd5",
    "label": "26 QUAI VINAS, Lodève",
    "lat": 43.729037,
    "lng": 3.323639,
    "transactions": [
      {
        "date": "2023-07-31",
        "priceEur": 50000,
        "typeLocal": "Maison",
        "surfaceM2": 50,
        "isVefa": false
      }
    ]
  },
  "a6c4d32b3aa6": {
    "id": "a6c4d32b3aa6",
    "label": "6 RUE ROGER, Lodève",
    "lat": 43.729601,
    "lng": 3.321016,
    "transactions": [
      {
        "date": "2023-08-09",
        "priceEur": 97000,
        "typeLocal": "Appartement",
        "surfaceM2": 52,
        "isVefa": false
      },
      {
        "date": "2023-08-09",
        "priceEur": 97000,
        "typeLocal": "Appartement",
        "surfaceM2": 52,
        "isVefa": false
      },
      {
        "date": "2023-08-09",
        "priceEur": 97000,
        "typeLocal": "Appartement",
        "surfaceM2": 52,
        "isVefa": false
      }
    ]
  },
  "f1ea3f2550d0": {
    "id": "f1ea3f2550d0",
    "label": "10 RUE DE L UNION, Lodève",
    "lat": 43.730969,
    "lng": 3.318557,
    "transactions": [
      {
        "date": "2025-02-25",
        "priceEur": 60000,
        "typeLocal": "Appartement",
        "surfaceM2": 86,
        "isVefa": false
      },
      {
        "date": "2023-11-10",
        "priceEur": 51000,
        "typeLocal": "Appartement",
        "surfaceM2": 58,
        "isVefa": false
      },
      {
        "date": "2023-08-17",
        "priceEur": 49500,
        "typeLocal": "Appartement",
        "surfaceM2": 88,
        "isVefa": false
      }
    ]
  },
  "9d8daae6b10f": {
    "id": "9d8daae6b10f",
    "label": "6 RUE DE LA FRATERNITE, Lodève",
    "lat": 43.731386,
    "lng": 3.320436,
    "transactions": [
      {
        "date": "2023-08-24",
        "priceEur": 73000,
        "typeLocal": "Appartement",
        "surfaceM2": 61,
        "isVefa": false
      }
    ]
  },
  "d8cac406f44d": {
    "id": "d8cac406f44d",
    "label": "3 RUE MONTBRUN, Lodève",
    "lat": 43.729577,
    "lng": 3.322218,
    "transactions": [
      {
        "date": "2024-09-20",
        "priceEur": 44000,
        "typeLocal": "Appartement",
        "surfaceM2": 22,
        "isVefa": false
      },
      {
        "date": "2024-09-20",
        "priceEur": 44000,
        "typeLocal": "Appartement",
        "surfaceM2": 58,
        "isVefa": false
      },
      {
        "date": "2023-10-20",
        "priceEur": 33500,
        "typeLocal": "Appartement",
        "surfaceM2": 45,
        "isVefa": false
      },
      {
        "date": "2023-10-20",
        "priceEur": 33500,
        "typeLocal": "Appartement",
        "surfaceM2": 24,
        "isVefa": false
      }
    ]
  },
  "f72ec1fcc62a": {
    "id": "f72ec1fcc62a",
    "label": "4 RLE CAPISCOLAT, Lodève",
    "lat": 43.731188,
    "lng": 3.318276,
    "transactions": [
      {
        "date": "2023-10-23",
        "priceEur": 61100,
        "typeLocal": "Appartement",
        "surfaceM2": 40,
        "isVefa": false
      }
    ]
  },
  "153ef42e5b00": {
    "id": "153ef42e5b00",
    "label": "2 BD PROSPER GELY, Lodève",
    "lat": 43.731013,
    "lng": 3.323136,
    "transactions": [
      {
        "date": "2023-11-03",
        "priceEur": 167000,
        "typeLocal": "Appartement",
        "surfaceM2": 42,
        "isVefa": false
      },
      {
        "date": "2023-11-03",
        "priceEur": 167000,
        "typeLocal": "Appartement",
        "surfaceM2": 42,
        "isVefa": false
      }
    ]
  },
  "1e23a22b2f5e": {
    "id": "1e23a22b2f5e",
    "label": "1 RUE DE LA LERGUE, Lodève",
    "lat": 43.731013,
    "lng": 3.323136,
    "transactions": [
      {
        "date": "2023-11-03",
        "priceEur": 167000,
        "typeLocal": "Appartement",
        "surfaceM2": 81,
        "isVefa": false
      }
    ]
  },
  "c04281be8c47": {
    "id": "c04281be8c47",
    "label": "12 QUAI VINAS, Lodève",
    "lat": 43.729644,
    "lng": 3.323046,
    "transactions": [
      {
        "date": "2023-11-17",
        "priceEur": 17000,
        "typeLocal": "Appartement",
        "surfaceM2": 45,
        "isVefa": false
      }
    ]
  },
  "40df10070f89": {
    "id": "40df10070f89",
    "label": "5 RUE DE SOUMONT, Lodève",
    "lat": 43.731149,
    "lng": 3.324704,
    "transactions": [
      {
        "date": "2023-11-22",
        "priceEur": 145000,
        "typeLocal": "Maison",
        "surfaceM2": 212,
        "isVefa": false
      }
    ]
  },
  "5bdb9ec683d7": {
    "id": "5bdb9ec683d7",
    "label": "5 PL DE LA HALLE DARDE, Lodève",
    "lat": 43.730457,
    "lng": 3.321583,
    "transactions": [
      {
        "date": "2025-03-26",
        "priceEur": 66500,
        "typeLocal": "Appartement",
        "surfaceM2": 45,
        "isVefa": false
      },
      {
        "date": "2023-11-24",
        "priceEur": 51500,
        "typeLocal": "Appartement",
        "surfaceM2": 50,
        "isVefa": false
      }
    ]
  },
  "181aa3876aef": {
    "id": "181aa3876aef",
    "label": "4 RUE DE LA REPUBLIQUE, Lodève",
    "lat": 43.730768,
    "lng": 3.319074,
    "transactions": [
      {
        "date": "2025-01-17",
        "priceEur": 14000,
        "typeLocal": "Appartement",
        "surfaceM2": 47,
        "isVefa": false
      },
      {
        "date": "2024-05-28",
        "priceEur": 27000,
        "typeLocal": "Appartement",
        "surfaceM2": 52,
        "isVefa": false
      },
      {
        "date": "2024-02-07",
        "priceEur": 14000,
        "typeLocal": "Appartement",
        "surfaceM2": 40,
        "isVefa": false
      },
      {
        "date": "2024-02-07",
        "priceEur": 14000,
        "typeLocal": "Appartement",
        "surfaceM2": 26,
        "isVefa": false
      }
    ]
  },
  "64e5cf0b0ef7": {
    "id": "64e5cf0b0ef7",
    "label": "20 RUE DES AMANDIERS, Lodève",
    "lat": 43.729073,
    "lng": 3.321052,
    "transactions": [
      {
        "date": "2024-02-01",
        "priceEur": 66000,
        "typeLocal": "Maison",
        "surfaceM2": 76,
        "isVefa": false
      }
    ]
  },
  "121d415f5b16": {
    "id": "121d415f5b16",
    "label": "24 QUAI VINAS, Lodève",
    "lat": 43.729064,
    "lng": 3.323543,
    "transactions": [
      {
        "date": "2024-10-10",
        "priceEur": 40000,
        "typeLocal": "Appartement",
        "surfaceM2": 39,
        "isVefa": false
      },
      {
        "date": "2024-03-27",
        "priceEur": 58000,
        "typeLocal": "Appartement",
        "surfaceM2": 74,
        "isVefa": false
      }
    ]
  },
  "84fd6e494cb1": {
    "id": "84fd6e494cb1",
    "label": "1 RUE KLEBER, Lodève",
    "lat": 43.731291,
    "lng": 3.321044,
    "transactions": [
      {
        "date": "2024-03-25",
        "priceEur": 51000,
        "typeLocal": "Appartement",
        "surfaceM2": 58,
        "isVefa": false
      }
    ]
  },
  "d1f129ecd7f5": {
    "id": "d1f129ecd7f5",
    "label": "276 AV GENERAL DE GAULLE, Lodève",
    "lat": 43.727389,
    "lng": 3.323486,
    "transactions": [
      {
        "date": "2024-04-12",
        "priceEur": 90000,
        "typeLocal": "Appartement",
        "surfaceM2": 70,
        "isVefa": false
      }
    ]
  },
  "80246de0b82c": {
    "id": "80246de0b82c",
    "label": "240 AV PAUL TEISSERENC, Lodève",
    "lat": 43.726846,
    "lng": 3.321914,
    "transactions": [
      {
        "date": "2024-04-08",
        "priceEur": 85140,
        "typeLocal": "Maison",
        "surfaceM2": 64,
        "isVefa": false
      }
    ]
  },
  "c10dac46fc71": {
    "id": "c10dac46fc71",
    "label": "2B AV DENFERT ROCHEREAU, Lodève",
    "lat": 43.729429,
    "lng": 3.32501,
    "transactions": [
      {
        "date": "2024-05-23",
        "priceEur": 128000,
        "typeLocal": "Appartement",
        "surfaceM2": 127,
        "isVefa": false
      }
    ]
  },
  "2dabdf561cd7": {
    "id": "2dabdf561cd7",
    "label": "9 BD JEAN JAURES, Lodève",
    "lat": 43.729791,
    "lng": 3.32095,
    "transactions": [
      {
        "date": "2024-05-17",
        "priceEur": 105000,
        "typeLocal": "Appartement",
        "surfaceM2": 75,
        "isVefa": false
      }
    ]
  },
  "0e4ba100de63": {
    "id": "0e4ba100de63",
    "label": "6 BD PROSPER GELY, Lodève",
    "lat": 43.730863,
    "lng": 3.322975,
    "transactions": [
      {
        "date": "2024-12-16",
        "priceEur": 80000,
        "typeLocal": "Appartement",
        "surfaceM2": 95,
        "isVefa": false
      },
      {
        "date": "2024-05-27",
        "priceEur": 60000,
        "typeLocal": "Appartement",
        "surfaceM2": 90,
        "isVefa": false
      }
    ]
  },
  "6231bdb44ff8": {
    "id": "6231bdb44ff8",
    "label": "7 RUE DE L ANCIEN COLLEGE, Lodève",
    "lat": 43.730695,
    "lng": 3.32264,
    "transactions": [
      {
        "date": "2024-05-27",
        "priceEur": 99000,
        "typeLocal": "Appartement",
        "surfaceM2": 16,
        "isVefa": false
      }
    ]
  },
  "e9bc398d2ce6": {
    "id": "e9bc398d2ce6",
    "label": "250 AV GENERAL DE GAULLE, Lodève",
    "lat": 43.727559,
    "lng": 3.323761,
    "transactions": [
      {
        "date": "2024-06-27",
        "priceEur": 85000,
        "typeLocal": "Appartement",
        "surfaceM2": 90,
        "isVefa": false
      }
    ]
  },
  "44e43b7a98e7": {
    "id": "44e43b7a98e7",
    "label": "5 RUE DE L ABBAYE, Lodève",
    "lat": 43.731408,
    "lng": 3.318277,
    "transactions": [
      {
        "date": "2024-07-15",
        "priceEur": 89000,
        "typeLocal": "Appartement",
        "surfaceM2": 72,
        "isVefa": false
      },
      {
        "date": "2024-07-15",
        "priceEur": 89000,
        "typeLocal": "Appartement",
        "surfaceM2": 75,
        "isVefa": false
      }
    ]
  },
  "26f14d979d2c": {
    "id": "26f14d979d2c",
    "label": "1B RUE DU CARDINAL FLEURY, Lodève",
    "lat": 43.731217,
    "lng": 3.32059,
    "transactions": [
      {
        "date": "2024-08-05",
        "priceEur": 40000,
        "typeLocal": "Appartement",
        "surfaceM2": 45,
        "isVefa": false
      }
    ]
  },
  "b5e6c601ea63": {
    "id": "b5e6c601ea63",
    "label": "4 AV DENFERT ROCHEREAU, Lodève",
    "lat": 43.729843,
    "lng": 3.32476,
    "transactions": [
      {
        "date": "2024-09-26",
        "priceEur": 90000,
        "typeLocal": "Appartement",
        "surfaceM2": 48,
        "isVefa": false
      },
      {
        "date": "2024-09-26",
        "priceEur": 90000,
        "typeLocal": "Appartement",
        "surfaceM2": 60,
        "isVefa": false
      }
    ]
  },
  "cc3fefc196aa": {
    "id": "cc3fefc196aa",
    "label": "5 BD JEAN JAURES, Lodève",
    "lat": 43.729665,
    "lng": 3.321289,
    "transactions": [
      {
        "date": "2024-09-19",
        "priceEur": 137000,
        "typeLocal": "Appartement",
        "surfaceM2": 40,
        "isVefa": false
      },
      {
        "date": "2024-09-19",
        "priceEur": 137000,
        "typeLocal": "Appartement",
        "surfaceM2": 105,
        "isVefa": false
      }
    ]
  },
  "c41d33811d99": {
    "id": "c41d33811d99",
    "label": "34 RUE BAUDIN, Lodève",
    "lat": 43.730111,
    "lng": 3.3216,
    "transactions": [
      {
        "date": "2024-10-04",
        "priceEur": 59500,
        "typeLocal": "Appartement",
        "surfaceM2": 113,
        "isVefa": false
      }
    ]
  },
  "c82997542db3": {
    "id": "c82997542db3",
    "label": "249 AV GENERAL DE GAULLE, Lodève",
    "lat": 43.727511,
    "lng": 3.324113,
    "transactions": [
      {
        "date": "2024-11-15",
        "priceEur": 122550,
        "typeLocal": "Appartement",
        "surfaceM2": 100,
        "isVefa": false
      }
    ]
  },
  "8cdbea05d428": {
    "id": "8cdbea05d428",
    "label": "17 RUE MONTBRUN, Lodève",
    "lat": 43.729245,
    "lng": 3.321766,
    "transactions": [
      {
        "date": "2024-11-18",
        "priceEur": 47500,
        "typeLocal": "Appartement",
        "surfaceM2": 48,
        "isVefa": false
      }
    ]
  },
  "17842ee78e1d": {
    "id": "17842ee78e1d",
    "label": "7 BD PROSPER GELY, Lodève",
    "lat": 43.729848,
    "lng": 3.32179,
    "transactions": [
      {
        "date": "2024-12-06",
        "priceEur": 60000,
        "typeLocal": "Appartement",
        "surfaceM2": 68,
        "isVefa": false
      }
    ]
  },
  "cb10944e01ad": {
    "id": "cb10944e01ad",
    "label": "1T QUAI MEGISSERIE, Lodève",
    "lat": 43.729617,
    "lng": 3.317919,
    "transactions": [
      {
        "date": "2024-12-19",
        "priceEur": 390000,
        "typeLocal": "Maison",
        "surfaceM2": 120,
        "isVefa": false
      }
    ]
  },
  "b53d4056193a": {
    "id": "b53d4056193a",
    "label": "1 BD PROSPER GELY, Lodève",
    "lat": 43.730007,
    "lng": 3.3221,
    "transactions": [
      {
        "date": "2024-12-23",
        "priceEur": 75000,
        "typeLocal": "Appartement",
        "surfaceM2": 60,
        "isVefa": false
      },
      {
        "date": "2024-12-23",
        "priceEur": 75000,
        "typeLocal": "Appartement",
        "surfaceM2": 60,
        "isVefa": false
      }
    ]
  },
  "8beb6f51f730": {
    "id": "8beb6f51f730",
    "label": "3 BD JEAN JAURES, Lodève",
    "lat": 43.72972,
    "lng": 3.321352,
    "transactions": [
      {
        "date": "2024-12-18",
        "priceEur": 170000,
        "typeLocal": "Appartement",
        "surfaceM2": 40,
        "isVefa": false
      },
      {
        "date": "2024-12-18",
        "priceEur": 170000,
        "typeLocal": "Appartement",
        "surfaceM2": 40,
        "isVefa": false
      },
      {
        "date": "2024-12-18",
        "priceEur": 170000,
        "typeLocal": "Appartement",
        "surfaceM2": 40,
        "isVefa": false
      },
      {
        "date": "2024-12-18",
        "priceEur": 170000,
        "typeLocal": "Appartement",
        "surfaceM2": 40,
        "isVefa": false
      }
    ]
  },
  "5f02dc3b8d58": {
    "id": "5f02dc3b8d58",
    "label": "11 RUE DE L ABBAYE, Lodève",
    "lat": 43.73136,
    "lng": 3.317948,
    "transactions": [
      {
        "date": "2025-01-15",
        "priceEur": 48000,
        "typeLocal": "Appartement",
        "surfaceM2": 40,
        "isVefa": false
      }
    ]
  },
  "1e949b7a9dd5": {
    "id": "1e949b7a9dd5",
    "label": "86 RUE DU CHATEAU DE MONTBRUN, Lodève",
    "lat": 43.726638,
    "lng": 3.320561,
    "transactions": [
      {
        "date": "2025-01-21",
        "priceEur": 320250,
        "typeLocal": "Maison",
        "surfaceM2": 110,
        "isVefa": false
      }
    ]
  },
  "404abdcd9393": {
    "id": "404abdcd9393",
    "label": "15 RUE NOEL MUNUERA, Lodève",
    "lat": 43.7305,
    "lng": 3.322808,
    "transactions": [
      {
        "date": "2025-01-30",
        "priceEur": 35000,
        "typeLocal": "Appartement",
        "surfaceM2": 61,
        "isVefa": false
      }
    ]
  },
  "fc942e9512f2": {
    "id": "fc942e9512f2",
    "label": "20 QUAI VINAS, Lodève",
    "lat": 43.729455,
    "lng": 3.323287,
    "transactions": [
      {
        "date": "2025-02-10",
        "priceEur": 20000,
        "typeLocal": "Maison",
        "surfaceM2": 54,
        "isVefa": false
      }
    ]
  },
  "c8d2f97db074": {
    "id": "c8d2f97db074",
    "label": "4 RUE CAVALERIE, Lodève",
    "lat": 43.730984,
    "lng": 3.319398,
    "transactions": [
      {
        "date": "2025-03-07",
        "priceEur": 150000,
        "typeLocal": "Maison",
        "surfaceM2": 587,
        "isVefa": false
      }
    ]
  },
  "351eec5fa282": {
    "id": "351eec5fa282",
    "label": "7 RUE DE L UNION, Lodève",
    "lat": 43.730779,
    "lng": 3.31853,
    "transactions": [
      {
        "date": "2025-05-26",
        "priceEur": 1500,
        "typeLocal": "Appartement",
        "surfaceM2": 104,
        "isVefa": false
      },
      {
        "date": "2025-03-04",
        "priceEur": 41000,
        "typeLocal": "Appartement",
        "surfaceM2": 40,
        "isVefa": false
      }
    ]
  },
  "66bea39eec50": {
    "id": "66bea39eec50",
    "label": "5A PL DE LA HALLE DARDE, Lodève",
    "lat": 43.730409,
    "lng": 3.321558,
    "transactions": [
      {
        "date": "2025-03-26",
        "priceEur": 66500,
        "typeLocal": "Appartement",
        "surfaceM2": 13,
        "isVefa": false
      }
    ]
  },
  "a4f720703404": {
    "id": "a4f720703404",
    "label": "12 RUE DE L UNION, Lodève",
    "lat": 43.730933,
    "lng": 3.318442,
    "transactions": [
      {
        "date": "2025-03-24",
        "priceEur": 97050,
        "typeLocal": "Appartement",
        "surfaceM2": 50,
        "isVefa": false
      },
      {
        "date": "2025-03-24",
        "priceEur": 97050,
        "typeLocal": "Appartement",
        "surfaceM2": 48,
        "isVefa": false
      },
      {
        "date": "2025-03-24",
        "priceEur": 97050,
        "typeLocal": "Appartement",
        "surfaceM2": 50,
        "isVefa": false
      }
    ]
  },
  "a36e80e2bbaf": {
    "id": "a36e80e2bbaf",
    "label": "3 RUE DE L INDEPENDANCE, Lodève",
    "lat": 43.731177,
    "lng": 3.322642,
    "transactions": [
      {
        "date": "2025-03-31",
        "priceEur": 67000,
        "typeLocal": "Appartement",
        "surfaceM2": 70,
        "isVefa": false
      }
    ]
  },
  "316a1973f0fb": {
    "id": "316a1973f0fb",
    "label": "11B RUE DE L ABBAYE, Lodève",
    "lat": 43.731247,
    "lng": 3.317915,
    "transactions": [
      {
        "date": "2025-03-31",
        "priceEur": 66000,
        "typeLocal": "Maison",
        "surfaceM2": 83,
        "isVefa": false
      }
    ]
  },
  "1f96a68c7e09": {
    "id": "1f96a68c7e09",
    "label": "24 BD PROSPER GELY, Lodève",
    "lat": 43.730049,
    "lng": 3.321827,
    "transactions": [
      {
        "date": "2025-04-11",
        "priceEur": 50000,
        "typeLocal": "Appartement",
        "surfaceM2": 42,
        "isVefa": false
      }
    ]
  },
  "d62ba367289f": {
    "id": "d62ba367289f",
    "label": "5 RUE MONTBRUN, Lodève",
    "lat": 43.729577,
    "lng": 3.322218,
    "transactions": [
      {
        "date": "2025-05-07",
        "priceEur": 83000,
        "typeLocal": "Appartement",
        "surfaceM2": 47,
        "isVefa": false
      }
    ]
  },
  "8d9582c497fe": {
    "id": "8d9582c497fe",
    "label": "3 RUE CAPISCOLAT, Lodève",
    "lat": 43.731026,
    "lng": 3.317952,
    "transactions": [
      {
        "date": "2025-05-23",
        "priceEur": 72000,
        "typeLocal": "Maison",
        "surfaceM2": 80,
        "isVefa": false
      }
    ]
  },
  "13876652b1eb": {
    "id": "13876652b1eb",
    "label": "14 AV GENERAL DE GAULLE, Lodève",
    "lat": 43.728089,
    "lng": 3.324606,
    "transactions": [
      {
        "date": "2025-05-28",
        "priceEur": 64900,
        "typeLocal": "Appartement",
        "surfaceM2": 82,
        "isVefa": false
      }
    ]
  }
}